time,x,y,z,yaw,ctrl_comp_time,rollout_comptime,y_ref,z_ref,yaw_ref,throttle,roll_rate,pitch_rate,yaw_rate,save_tube_pyH,save_tube_pyL,save_tube_pzH,save_tube_pzL,wy,wz
15.003585577011108,-0.011671841144561768,4.114041328430176,-12.502147674560547,2.1619891826307747e-05,0.15798354148864746,0.09991049766540527,4.102230553533613,-12.47664179848905,-0.3558149650462188,0.5927263559064366,-1.0,0.012851051039684827,0.021910448867024392,4.130003283613723,4.07822598527504,-12.454807915790845,-12.506957036851787,4.870312667487226,-0.7074223207989258
15.578734636306763,-0.01476981583982706,4.076770305633545,-12.528514862060547,0.0020119712291323116,0.16849637031555176,0.07306051254272461,4.097934006132522,-12.466996840141677,-0.3758149650462188,0.5922043777065594,-0.9356472198961173,0.04140056994080389,0.09405669267610448,4.139912432052809,4.060430459314819,-12.432173476339862,-12.511853835860682,3.5321102635103805,-6.027984267664177
15.672786235809326,-0.015627671033143997,4.061078071594238,-12.53359317779541,0.002420124910004956,0.0025794506072998047,0.07278847694396973,4.092910857767063,-12.455791655421502,-0.3958149650462188,0.5986904407090078,-0.9416145985265585,0.13570187436537903,0.34442609841547595,4.153717319051277,4.037312517838477,-12.403690894155833,-12.519489111028863,3.2191439257458074,-7.147543563350216
15.680059671401978,-0.015627671033143997,4.061078071594238,-12.53359317779541,0.002420124910004956,0.0028471946716308594,0.07278847694396973,4.087134495669708,-12.443013774562145,-0.41581496504621884,0.597387219798573,-1.0,0.3349913120557653,0.572213049207738,4.172888208536548,4.00734877968584,-12.368150823122097,-12.531049516202376,3.2191439257458074,-7.147543563350216
15.689126968383789,-0.015438960865139961,4.061344146728516,-12.533190727233887,0.0024161317127605053,0.004645347595214844,0.07278847694396973,4.080578278179909,-12.42864845984843,-0.43581496504621886,0.5973055563936744,-1.0,0.47449391843903577,0.6861065246038691,4.199652612940603,3.9682584513744272,-12.323756399034005,-12.548304714588602,3.564459219035751,-4.15283840689022
15.70421838760376,-0.014870703220367432,4.062168121337891,-12.53101921081543,0.002465910698820045,0.0020253658294677734,0.07278847694396973,4.073215642074976,-12.412678682172366,-0.4558149650462189,0.599784941691985,-1.0,0.572145742907325,0.7430532623019346,4.23737406704696,3.916624766201988,-12.267822398285709,-12.57390816820554,3.564459219035751,-4.15283840689022
15.71062707901001,-0.014870703220367432,4.062168121337891,-12.53101921081543,0.002465910698820045,0.00460505485534668,0.07278847694396973,4.065020211432514,-12.395085102621193,-0.4758149650462189,0.5984479131340322,-1.0,0.6405020200351275,0.7715266311509672,4.291060478127349,3.8473868503635646,-12.196358689546502,-12.611813644331768,3.564459219035751,-4.15283840689022
15.724885702133179,-0.014491444453597069,4.062716484069824,-12.52878475189209,0.0026445276342973167,0.002771615982055664,0.07278847694396973,4.055965907781705,-12.375846059162509,-0.4958149650462189,0.5994573436267325,-1.0,0.6883514140245892,0.7857633155754837,4.368060746756173,3.7531433212116947,-12.103437368107102,-12.66790804941857,3.564459219035751,-4.15283840689022
15.736132383346558,-0.014491444453597069,4.062716484069824,-12.52878475189209,0.0026445276342973167,0.003552675247192383,0.07278847694396973,4.046027061298851,-12.354937558479506,-0.5158149650462189,0.5980949308648587,-1.0,0.7218459898172125,0.792881657787742,4.478972756884901,3.623244518590152,-11.980202553365642,-12.75100161011253,3.564459219035751,-4.15283840689022
15.75130581855774,-0.013921847566962242,4.063472747802734,-12.524395942687988,0.0027646338329359865,0.0037980079650878906,0.07278847694396973,4.035178522801418,-12.33233327299747,-0.535814965046219,0.599954520740813,-1.0,0.7452921928720487,0.7964408288938709,4.637893084273239,3.443543019653911,-11.814146665546243,-12.873551585389908,3.564459219035751,-4.15283840689022
15.766157627105713,-0.013536395505070686,4.0638813972473145,-12.520793914794922,0.00253339365724628,0.003282785415649414,0.07278847694396973,4.023395776294237,-12.30800454313077,-0.555814965046219,0.6007177246162113,-1.0,0.7617045350104341,0.7982204144469356,4.863054732562071,3.1957561273980817,-11.579261181384378,-13.061511510138953,3.564459219035751,-4.15283840689022
15.772675514221191,-0.013536395505070686,4.0638813972473145,-12.520793914794922,0.00253339365724628,0.002473592758178711,0.07278847694396973,4.010655051821407,-12.281920384767698,-0.575814965046219,0.5992879570534914,-1.0,0.7731931745073038,0.7991102072234679,5.1824297485481,2.851863480842925,-11.234367609495123,-13.356000229520593,3.564459219035751,-4.15283840689022
15.878015518188477,-0.010911338962614536,4.073273658752441,-12.474076271057129,-0.00245137654141217,0.002967357635498047,0.09260797500610352,4.1058269782859345,-12.484736760680411,-0.33581496504621877,0.6250403085058902,-0.26587694214305335,0.7812352221551128,0.7995551036117341,4.123019466000738,4.091722247700017,-12.472417058357044,-12.503994113386414,3.564459219035751,-4.15283840689022
15.887082576751709,-0.010911338962614536,4.073273658752441,-12.474076271057129,-0.00245137654141217,0.0018575191497802734,0.09260797500610352,4.102230553533585,-12.476641798489073,-0.3558149650462188,0.6235834920322453,-0.3923058963798649,0.6949033918211196,0.7997775518058672,4.130003283613697,4.078225985275017,-12.454807915790868,-12.50695703685181,3.7978017001339506,-3.2698342084640006
15.899291038513184,-0.01097002811729908,4.07379150390625,-12.465190887451172,-0.00320076342450315,0.0028057098388671875,0.09260797500610352,4.097934006132481,-12.46699684014171,-0.3758149650462188,0.625234755251337,-0.4036030645665949,0.6205484832968314,0.7998887759029336,4.13991243205277,4.0604304593147855,-12.432173476339896,-12.511853835860716,3.7978017001339506,-3.2698342084640006
15.908860206604004,-0.01097002811729908,4.07379150390625,-12.465190887451172,-0.00320076342450315,0.0038585662841796875,0.09260797500610352,4.0929108577670075,-12.455791655421548,-0.3958149650462188,0.6237387703987074,-0.5364782060350419,0.5818326650083908,0.7999443879514669,4.153717319051222,4.037312517838433,-12.403690894155877,-12.519489111028909,3.7978017001339506,-3.2698342084640006
15.918996572494507,-0.010215787217020988,4.0739569664001465,-12.451144218444824,-0.00426063935999782,0.0019609928131103516,0.09260797500610352,4.087134495669634,-12.443013774562205,-0.41581496504621884,0.6269584473165407,-0.4876594830194476,0.506468716501507,0.7999721939757336,4.172888208536472,4.007348779685785,-12.368150823122155,-12.531049516202437,3.7978017001339506,-3.2698342084640006
15.92881727218628,-0.010215787217020988,4.0739569664001465,-12.451144218444824,-0.00426063935999782,0.00494074821472168,0.09260797500610352,4.080578278179815,-12.428648459848509,-0.43581496504621886,0.6254107727962835,-0.6270858230897288,0.4574658508291483,0.7999860969878668,4.199652612940499,3.968258451374362,-12.323756399034076,-12.548304714588678,3.7978017001339506,-3.2698342084640006
15.941811323165894,-0.008485996164381504,4.073665618896484,-12.441530227661133,-0.0048442571100882625,0.002647876739501953,0.09260797500610352,4.073215642074858,-12.412678682172462,-0.4558149650462189,0.6268297233314275,-0.6445716953170088,0.40314399557912767,0.7999930484939334,4.23737406704682,3.9166247662019167,-12.267822398285796,-12.573908168205634,3.7978017001339506,-3.2698342084640006
15.949349164962769,-0.008485996164381504,4.073665618896484,-12.441530227661133,-0.0048442571100882625,0.002673625946044922,0.09260797500610352,4.065020211432371,-12.39508510262131,-0.4758149650462189,0.6252405016471194,-0.7908037989290412,0.37619916634486356,0.7999965242469668,4.291060478127157,3.8473868503634963,-12.196358689546608,-12.611813644331878,3.7978017001339506,-3.2698342084640006
15.95871639251709,-0.006524158176034689,4.0724334716796875,-12.426234245300293,-0.004884120779015261,0.002424478530883789,0.09260797500610352,4.055965907781533,-12.37584605916265,-0.4958149650462189,0.6281628560660877,-0.7671180980745664,0.31098599936378385,0.7999982621234835,4.368060746755905,3.7531433212116485,-12.10343736810724,-12.667908049418687,3.7978017001339506,-3.2698342084640006
16.069863080978394,-0.006524158176034689,4.0724334716796875,-12.426234245300293,-0.004884120779015261,0.0018186569213867188,0.10085225105285645,4.046027061298646,-12.35493755847967,-0.5158149650462189,0.628451649349931,-1.0,0.2750874459504736,0.7999991310617418,4.478972756884509,3.623244518590169,-11.98020255336584,-12.75100161011263,3.7978017001339506,-3.2698342084640006
16.07955312728882,-0.009265110827982426,4.049476623535156,-12.342683792114258,0.013019177348564226,0.002599477767944336,0.10085225105285645,4.0351785228011785,-12.332333272997658,-0.535814965046219,0.6519915155207784,-0.22064235092271134,-0.07490119080520179,0.7999995655308709,4.637893084272625,3.4435430196540837,-11.814146665546577,-12.873551585389922,3.584393322223327,-3.8758865785720324
16.089648962020874,-0.009265110827982426,4.049476623535156,-12.342683792114258,0.013019177348564226,0.003412961959838867,0.10085225105285645,4.023395776293959,-12.308004543130986,-0.555814965046219,0.6505248899390684,-0.39960692977625367,-0.21266337705044708,0.5936371134190306,4.863054732561009,3.1957561273986292,-11.579261181385117,-13.061511510138612,3.819902335348823,-3.687289917733865
16.10025644302368,-0.011279478669166565,4.043999671936035,-12.331575393676758,0.016890843326432536,0.002637624740600586,0.10085225105285645,4.070708979389944,-12.509997069037187,-0.33617002727571643,0.6525670437554412,-0.43338735782175,-0.3885856407783761,0.20953557292754124,4.087674528982417,4.056345466189167,-12.497800911395665,-12.529356196868065,3.819902335348823,-3.687289917733865
16.11039710044861,-0.015107016079127789,4.034666061401367,-12.313677787780762,0.02311350683064528,0.002604961395263672,0.10085225105285645,4.067600668136428,-12.501684643686598,-0.35617002727571645,0.6564261213025904,-0.3815952915260832,-0.5120099485448633,-0.5704751540708453,4.095160390091359,4.043320217372963,-12.479985383415759,-12.532080097833791,3.819902335348823,-3.687289917733865
16.118587255477905,-0.015107016079127789,4.034666061401367,-12.313677787780762,0.02311350683064528,0.0022466182708740234,0.10085225105285645,4.063795219445903,-12.491832756232851,-0.37617002727571647,0.6549149157210471,-0.5738918781650459,-0.5984069639814042,-0.6852375770354227,4.105583514968392,4.0259899888957795,-12.45716762494656,-12.536735806676909,3.819902335348823,-3.687289917733865
16.12875461578369,-0.015107016079127789,4.034666061401367,-12.313677787780762,0.02311350683064528,0.0030982494354248047,0.10085225105285645,4.059265907318189,-12.480431240713594,-0.3961700272757165,0.6534004123075515,-0.7701403507781971,-0.658884874786983,-0.7426187885177113,4.119917136527912,4.003328309930469,-12.428530012476806,-12.54412283701776,3.819902335348823,-3.687289917733865
16.2429780960083,-0.01821252331137657,4.027651309967041,-12.300981521606445,0.02828713280752282,0.002332925796508789,0.10258245468139648,4.053985869763201,-12.467467684755482,-0.4161700272757165,0.6515856161672566,-1.0,-0.701219412350888,-0.7713093942588558,4.1396353505501,3.973807470501604,-12.39286964617566,-12.555421518072917,3.819902335348823,-3.687289917733865
16.252027988433838,-0.05495385453104973,3.9582250118255615,-12.195796966552734,0.09530750957122391,0.003735065460205078,0.10258245468139648,4.04792821458144,-12.452927401143404,-0.4361700272757165,0.6688853568422422,0.3756182577059932,-0.7308535886456216,-0.785654697129428,4.1669710386740375,3.9351408081026853,-12.348397400096387,-12.57239388269183,3.4963935645530078,-4.424966015720845
16.260043144226074,-0.05495385453104973,3.9582250118255615,-12.195796966552734,0.09530750957122391,0.0036945343017578125,0.10258245468139648,4.041066126916458,-12.436793404352942,-0.45617002727571654,0.6685031004256832,0.14261715463206426,-0.7515975120519351,-0.792827348564714,4.205295307766921,3.8839034817196993,-12.292436845219319,-12.597684692394846,3.4963935645530078,-4.424966015720845
16.26959252357483,-0.05829012021422386,3.9517109394073486,-12.18743896484375,0.1003311740711299,0.0027620792388916016,0.10258245468139648,4.033372978338586,-12.419046392122855,-0.47617002727571656,0.6695497465243688,0.03469574911635909,-0.7661182584363546,-0.796413674282357,4.259626266609563,3.8150239118423146,-12.221006910151184,-12.635238734761101,3.4963935645530078,-4.424966015720845
16.278898239135742,-0.06515172868967056,3.938023567199707,-12.170393943786621,0.11013238763009747,0.003634214401245117,0.10258245468139648,4.024822437216898,-12.399664732132537,-0.4961700272757166,0.6720458460964205,0.05655649268025531,-0.7762827809054482,-0.7982068371411785,4.337328150524538,3.721084875352442,-12.1281865188463,-12.690936153942522,3.4963935645530078,-4.424966015720845
16.28938126564026,-0.0686681717634201,3.9308462142944336,-12.16170597076416,0.11490779736275586,0.004134654998779297,0.10258245468139648,4.01538858013452,-12.378624453837423,-0.5161700272757166,0.673095393767561,-0.05322897745692112,-0.7833979466338138,-0.7991034185705892,4.449022038799366,3.5914130099497137,-12.005122903596874,-12.773584116174648,3.429967114971355,-4.682356773062808
16.405845880508423,-0.13083651661872864,3.7905938625335693,-12.011207580566406,0.1776640382894641,0.003561735153198242,0.10494422912597656,4.005046004101261,-12.355899245503386,-0.5361700272757166,0.70520521348365,0.9908193997330266,-0.6930720180154966,-0.7995517092852946,4.608832004668722,3.4118328878588344,-11.839307305806727,-12.895641097863937,3.429967114971355,-4.682356773062808
16.415989875793457,-0.13083651661872864,3.7905938625335693,-12.011207580566406,0.1776640382894641,0.003371000289916992,0.10494422912597656,3.9937699393168886,-12.331460456469244,-0.5561700272757166,0.7042979752141032,0.6835636382210748,-0.635237334908633,-0.7997758546426473,4.835064983591644,3.163987372589972,-11.603813148939562,-13.083978711930614,4.044704190181212,-4.180520182480094
16.423648595809937,-0.1394844651222229,3.7670559883117676,-11.989517211914062,0.18481168231495515,0.0049266815185546875,0.10494422912597656,4.069240303732162,-12.506032740624775,-0.34617002727571644,0.7061416606652147,0.6645623475316129,-0.5848582729507104,-0.7998879273213237,4.087674528982417,4.056345466189167,-12.497800911395665,-12.529356196868065,4.044704190181212,-4.180520182480094
16.436311721801758,-0.1394844651222229,3.7670559883117676,-11.989517211914062,0.18481168231495515,0.003206014633178711,0.10494422912597656,4.0657867519320865,-12.496951715811736,-0.36617002727571646,0.7059454424117269,0.37592845851239565,-0.5595774414891239,-0.7999439636606619,4.095160390091359,4.043320217372963,-12.479985383415759,-12.532080097833791,4.044704190181212,-4.180520182480094
16.445595741271973,-0.1526237577199936,3.72894287109375,-11.956021308898926,0.19489904390200685,0.0037162303924560547,0.10494422912597656,4.061622723229191,-12.486326424747284,-0.3861700272757165,0.7088098915410911,0.48529277258543413,-0.509455897975917,-0.799971981830331,4.105583514968392,4.0259899888957795,-12.45716762494656,-12.536735806676909,4.044704190181212,-4.180520182480094
16.45387887954712,-0.1526237577199936,3.72894287109375,-11.956021308898926,0.19489904390200685,0.003010272979736328,0.10494422912597656,4.056721410525853,-12.47414558212429,-0.4061700272757165,0.7087080146092201,0.18543381641857826,-0.4824384336137044,-0.7999859909151655,4.119917136527912,4.003328309930469,-12.428530012476806,-12.54412283701776,4.044704190181212,-4.180520182480094
16.46257448196411,-0.16120080649852753,3.7024166584014893,-11.9334077835083,0.20094680073561672,0.003331899642944336,0.10494422912597656,4.051055923388362,-12.460395641394111,-0.4261700272757165,0.7102915971497962,0.1542311470778437,-0.44230040850297414,-0.757099943872454,4.1396353505501,3.973807470501604,-12.39286964617566,-12.555421518072917,4.044704190181212,-4.180520182480094
16.571014165878296,-0.16120080649852753,3.7024166584014893,-11.9334077835083,0.20094680073561672,0.002766132354736328,0.09949398040771484,4.044599394743311,-12.445060768807087,-0.44617002727571653,0.7068142397304273,-1.0,-0.42023546163513853,-0.7347539238200141,4.1669710386740375,3.9351408081026853,-12.348397400096387,-12.57239388269183,4.044704190181212,-4.180520182480094
16.5863778591156,-0.21935562789440155,3.4695169925689697,-11.760452270507812,0.21907546719197188,0.0044918060302734375,0.09949398040771484,4.03732508922594,-12.428122822456146,-0.46617002727571655,0.7138419090466163,0.6829513591615106,-0.04358756019167374,0.7428455178107306,4.205295307766921,3.8839034817196993,-12.292436845219319,-12.597684692394846,3.8961365089542523,-4.594637097098335
16.599927186965942,-0.21935562789440155,3.4695169925689697,-11.760452270507812,0.21907546719197188,0.004507541656494141,0.09949398040771484,4.029206512938491,-12.409561336394413,-0.48617002727571657,0.7141385380607528,0.35921268833769604,-0.05846397182969481,0.22542044140111264,4.259626266609563,3.8150239118423146,-12.221006910151184,-12.635238734761101,3.8961365089542523,-4.594637097098335
16.614907264709473,-0.2325608879327774,3.3969006538391113,-11.713629722595215,0.2189885486834426,0.004034280776977539,0.09949398040771484,4.020217524374541,-12.389353509885764,-0.5061700272757166,0.7151025222055438,0.5910299079982144,-0.05040024393838892,-0.061019049842302324,4.337328150524538,3.721084875352442,-12.1281865188463,-12.690936153942522,3.8961365089542523,-4.594637097098335
16.622470378875732,-0.2325608879327774,3.3969006538391113,-11.713629722595215,0.2189885486834426,0.0031342506408691406,0.09949398040771484,4.010332446263779,-12.367474201835336,-0.5261700272757166,0.7155424693634622,0.25659967246278326,-0.031528541779511546,-0.17872690325112858,4.449022038799366,3.5914130099497137,-12.005122903596874,-12.773584116174648,3.8961365089542523,-4.594637097098335
16.631341695785522,-0.23855212330818176,3.3594627380371094,-11.690123558044434,0.21855518144961536,0.003565549850463867,0.09949398040771484,3.9995261780908082,-12.343895930435092,-0.5461700272757166,0.715983705578055,0.22600003000943358,-0.002938498741122581,-0.21219631608314665,4.608832004668722,3.4118328878588344,-11.839307305806727,-12.895641097863937,3.8961365089542523,-4.594637097098335
16.63919186592102,-0.23855212330818176,3.3594627380371094,-11.690123558044434,0.21855518144961536,0.004340171813964844,0.09949398040771484,3.987774309041218,-12.318588878047601,-0.5661700272757166,0.7165119691858411,-0.11829106129873279,0.01578170154130646,-0.23081995883210574,4.835064983591644,3.163987372589972,-11.603813148939562,-13.083978711930614,3.8961365089542523,-4.594637097098335
16.744642734527588,-0.2712436020374298,3.0670385360717773,-11.528937339782715,0.19854337192202595,0.003706693649291992,0.08832311630249023,4.067600668136428,-12.501684643686598,-0.35617002727571645,0.7094134921893331,1.0,0.0985149038292924,-0.08933546724800487,4.087674528982417,4.056345466189167,-12.497800911395665,-12.529356196868065,3.8961365089542523,-4.594637097098335
16.754389762878418,-0.2712436020374298,3.0670385360717773,-11.528937339782715,0.19854337192202595,0.0026221275329589844,0.08832311630249023,4.063795219445903,-12.491832756232851,-0.37617002727571647,0.7090046789890107,1.0,0.13794610365156065,-0.15702571940092655,4.095160390091359,4.043320217372963,-12.479985383415759,-12.532080097833791,4.130119837076635,-4.891183394325451
16.762701511383057,-0.27558985352516174,2.999009370803833,-11.494359016418457,0.19193060018423033,0.0035886764526367188,0.08832311630249023,4.059265907318189,-12.480431240713594,-0.3961700272757165,0.7086577613976196,1.0,0.17688120219756007,-0.1918274705668749,4.105583514968392,4.0259899888957795,-12.45716762494656,-12.536735806676909,4.130119837076635,-4.891183394325451
16.7708899974823,-0.27558985352516174,2.999009370803833,-11.494359016418457,0.19193060018423033,0.0025806427001953125,0.08832311630249023,4.053985869763201,-12.467467684755482,-0.4161700272757165,0.7092297552714262,1.0,0.2048979356767846,-0.21608413197037837,4.119917136527912,4.003328309930469,-12.428530012476806,-12.54412283701776,4.130119837076635,-4.891183394325451
16.779168605804443,-0.2767971456050873,2.97601056098938,-11.48277759552002,0.18968678369100594,0.0034770965576171875,0.08832311630249023,4.04792821458144,-12.452927401143404,-0.4361700272757165,0.7095139968167755,1.0,0.2286478784154346,-0.23278638066794347,4.1396353505501,3.973807470501604,-12.39286964617566,-12.555421518072917,4.130119837076635,-4.891183394325451
16.789405345916748,-0.27788519859313965,2.952849864959717,-11.471169471740723,0.18743395379537156,0.003170490264892578,0.08832311630249023,4.041066126916458,-12.436793404352942,-0.45617002727571654,0.7096474415085088,1.0,0.24945792080615692,-0.24570983263526874,4.1669710386740375,3.9351408081026853,-12.348397400096387,-12.57239388269183,4.2251043851212655,-4.925224529772967
16.798872470855713,-0.27885422110557556,2.9295248985290527,-11.4595365524292,0.1851686317894145,0.0035774707794189453,0.08832311630249023,4.033372978338586,-12.419046392122855,-0.47617002727571656,0.709944800193708,1.0,0.26836596841971,-0.25673259534905307,4.205295307766921,3.8839034817196993,-12.292436845219319,-12.597684692394846,4.2251043851212655,-4.925224529772967
16.808953285217285,-0.2799782156944275,2.8803319931030273,-11.434629440307617,0.18055676014830915,0.005894184112548828,0.08832311630249023,4.024822437216898,-12.399664732132537,-0.4961700272757166,0.7099546309334339,1.0,0.29041203863414505,-0.2673237345293942,4.259626266609563,3.8150239118423146,-12.221006910151184,-12.635238734761101,4.2251043851212655,-4.925224529772967
16.824913024902344,-0.28062281012535095,2.830552816390991,-11.409688949584961,0.17562757989451358,0.0056111812591552734,0.08832311630249023,4.01538858013452,-12.378624453837423,-0.5161700272757166,0.7100790686665392,1.0,0.3131746096445614,-0.28010590421349413,4.337328150524538,3.721084875352442,-12.1281865188463,-12.690936153942522,4.2251043851212655,-4.925224529772967
16.935654163360596,-0.28062281012535095,2.830552816390991,-11.409688949584961,0.17562757989451358,0.0036346912384033203,0.09474349021911621,4.005046004101261,-12.355899245503386,-0.5361700272757166,0.7108663021358348,1.0,0.329305736075439,-0.2924464956631648,4.449022038799366,3.5914130099497137,-12.005122903596874,-12.773584116174648,4.2251043851212655,-4.925224529772967
16.9499409198761,-0.26761406660079956,2.381547689437866,-11.194896697998047,0.1231770088207628,0.003410816192626953,0.09474349021911621,3.9937699393168886,-12.331460456469244,-0.5561700272757166,0.7044455886567855,1.0,0.3596025852609523,-0.33524361742269165,4.608832004668722,3.4118328878588344,-11.839307305806727,-12.895641097863937,4.329102186615691,-4.716935155825279
16.95866084098816,-0.26761406660079956,2.381547689437866,-11.194896697998047,0.1231770088207628,0.003381490707397461,0.09474349021911621,3.981536362238367,-12.305277104654659,-0.5761700272757166,0.7053056326055318,1.0,0.38845936026883954,-0.3699980965868758,4.835064983591644,3.163987372589972,-11.603813148939562,-13.083978711930614,4.329102186615691,-4.716935155825279
16.96957516670227,-0.2639317810535431,2.3253438472747803,-11.169076919555664,0.11668534719693802,0.0031290054321289062,0.09474349021911621,4.0657867519320865,-12.496951715811736,-0.36617002727571646,0.7052086565095389,1.0,0.4143675827486689,-0.40309266609989136,4.087674528982417,4.056345466189167,-12.497800911395665,-12.529356196868065,4.329102186615691,-4.716935155825279
16.978944540023804,-0.2639317810535431,2.3253438472747803,-11.169076919555664,0.11668534719693802,0.003743410110473633,0.09474349021911621,4.061622723229191,-12.486326424747284,-0.3861700272757165,0.7060898702823476,1.0,0.43784603203826683,-0.42957879356797757,4.095160390091359,4.043320217372963,-12.479985383415759,-12.532080097833791,4.329102186615691,-4.716935155825279
16.989198207855225,-0.26199090480804443,2.2971746921539307,-11.156187057495117,0.1134203478791039,0.0029096603393554688,0.09474349021911621,4.056721410525853,-12.47414558212429,-0.4061700272757165,0.706667902862347,1.0,0.45841660609144064,-0.4545387917410166,4.105583514968392,4.0259899888957795,-12.45716762494656,-12.536735806676909,4.702772016201793,-4.126895402812513
16.999274969100952,-0.2579214572906494,2.240723133087158,-11.130473136901855,0.10684619406063259,0.0032584667205810547,0.09474349021911621,4.051055923388362,-12.460395641394111,-0.4261700272757165,0.7067798419637952,1.0,0.47650177008580036,-0.4811293478525884,4.119917136527912,4.003328309930469,-12.428530012476806,-12.54412283701776,4.702772016201793,-4.126895402812513
17.114075183868408,-0.2269328087568283,1.866087555885315,-10.968186378479004,0.060489188944247735,0.0025398731231689453,0.10495400428771973,4.044599394743311,-12.445060768807087,-0.44617002727571653,0.6799881638009625,1.0,0.46454539423491503,-0.5362164804336571,4.1396353505501,3.973807470501604,-12.39286964617566,-12.555421518072917,4.702772016201793,-4.126895402812513
17.12145471572876,-0.2269328087568283,1.866087555885315,-10.968186378479004,0.060489188944247735,0.001810312271118164,0.10495400428771973,4.03732508922594,-12.428122822456146,-0.46617002727571655,0.6801169685690726,1.0,0.47165928822523434,-0.5791969301800495,4.1669710386740375,3.9351408081026853,-12.348397400096387,-12.57239388269183,4.66539299971492,-4.231741638525257
17.12854313850403,-0.22162353992462158,1.8078635931015015,-10.943766593933105,0.05304876563401817,0.0023877620697021484,0.10495400428771973,4.029206512938491,-12.409561336394413,-0.48617002727571657,0.6794546043744412,1.0,0.4779734741766047,-0.6100388025734303,4.205295307766921,3.8839034817196993,-12.292436845219319,-12.597684692394846,4.66539299971492,-4.231741638525257
17.138736248016357,-0.22162353992462158,1.8078635931015015,-10.943766593933105,0.05304876563401817,0.0021386146545410156,0.10495400428771973,4.020217524374541,-12.389353509885764,-0.5061700272757166,0.6795647478860566,1.0,0.48935693698228044,-0.6302318552222061,4.259626266609563,3.8150239118423146,-12.221006910151184,-12.635238734761101,4.66539299971492,-4.231741638525257
17.148999452590942,-0.21348346769809723,1.7208443880081177,-10.90712833404541,0.04183181865193074,0.002337932586669922,0.10495400428771973,4.010332446263779,-12.367474201835336,-0.5261700272757166,0.6785897136081112,1.0,0.4870749871024784,-0.6529010697257169,4.337328150524538,3.721084875352442,-12.1281865188463,-12.690936153942522,4.66539299971492,-4.231741638525257
17.15859842300415,-0.21348346769809723,1.7208443880081177,-10.90712833404541,0.04183181865193074,0.0027604103088378906,0.10495400428771973,3.9995261780908082,-12.343895930435092,-0.5461700272757166,0.6786829072664053,1.0,0.49137877638770344,-0.6648108468194532,4.449022038799366,3.5914130099497137,-12.005122903596874,-12.773584116174648,4.66539299971492,-4.231741638525257
17.168880462646484,-0.205208420753479,1.6342864036560059,-10.870515823364258,0.03052012490745354,0.0023241043090820312,0.10495400428771973,3.987774309041218,-12.318588878047601,-0.5661700272757166,0.6781590352999113,1.0,0.48061466334812236,-0.6779490566805731,4.608832004668722,3.4118328878588344,-11.839307305806727,-12.895641097863937,4.66539299971492,-4.231741638525257
17.179804801940918,-0.1988266557455063,1.5768705606460571,-10.845029830932617,0.023030259339692077,0.0025205612182617188,0.10495400428771973,3.975053231128439,-12.291520901339393,-0.5843801294107224,0.6782021081007378,1.0,0.4669814067928725,-0.6819044590205828,4.835064983591644,3.163987372589972,-11.603813148939562,-13.083978711930614,4.66539299971492,-4.231741638525257
17.261239767074585,-0.1988266557455063,1.5768705606460571,-10.845029830932617,0.023030259339692077,0.002293109893798828,0.0718991756439209,4.063795219445903,-12.491832756232851,-0.37617002727571647,0.6847844522769444,1.0,0.4603508834819209,-0.6769887702331971,4.087674528982417,4.056345466189167,-12.497800911395665,-12.529356196868065,4.789934273952314,-3.2808912839081157
17.26850724220276,-0.16704915463924408,1.2945548295974731,-10.716294288635254,-0.015158388083067187,0.0022194385528564453,0.0718991756439209,4.059265907318189,-12.480431240713594,-0.3961700272757165,0.686222155274267,1.0,0.3893248722835043,-0.655353161464297,4.095160390091359,4.043320217372963,-12.479985383415759,-12.532080097833791,4.789934273952314,-3.2808912839081157
17.280004262924194,-0.1577742099761963,1.2117160558700562,-10.677037239074707,-0.02707925514781416,0.0027582645416259766,0.0718991756439209,4.053985869763201,-12.467467684755482,-0.4161700272757165,0.6869986373721592,0.985227458166864,0.32164730701696714,-0.5959562076316278,4.105583514968392,4.0259899888957795,-12.45716762494656,-12.536735806676909,4.789934273952314,-3.2808912839081157
17.288393020629883,-0.1577742099761963,1.2117160558700562,-10.677037239074707,-0.02707925514781416,0.0018868446350097656,0.0718991756439209,4.04792821458144,-12.452927401143404,-0.4361700272757165,0.6869005545810949,0.8794663220151431,0.27075461634550735,-0.5247301088921889,4.119917136527912,4.003328309930469,-12.428530012476806,-12.54412283701776,4.802998679366353,-2.1126318825552195
17.300013780593872,-0.15188239514827728,1.1572167873382568,-10.649700164794922,-0.035114129297439615,0.00220489501953125,0.0718991756439209,4.041066126916458,-12.436793404352942,-0.45617002727571654,0.6874488940628593,0.7838821546013904,0.21117156677633872,-0.44456416532856874,4.1396353505501,3.973807470501604,-12.39286964617566,-12.555421518072917,4.802998679366353,-2.1126318825552195
17.308627128601074,-0.15188239514827728,1.1572167873382568,-10.649700164794922,-0.035114129297439615,0.003283977508544922,0.0718991756439209,4.033372978338586,-12.419046392122855,-0.47617002727571656,0.6873428136784419,0.6826647369122534,0.16075598082579212,-0.36180605433554247,4.1669710386740375,3.9351408081026853,-12.348397400096387,-12.57239388269183,4.802998679366353,-2.1126318825552195
17.3196382522583,-0.1434992402791977,1.076582908630371,-10.60704517364502,-0.04716219863466026,0.002476930618286133,0.0718991756439209,4.024822437216898,-12.399664732132537,-0.4961700272757166,0.6882745855011011,0.5843488656756122,0.09421794799761622,-0.2710084284424211,4.205295307766921,3.8839034817196993,-12.292436845219319,-12.597684692394846,4.802998679366353,-2.1126318825552195
17.330503702163696,-0.1434992402791977,1.076582908630371,-10.60704517364502,-0.04716219863466026,0.002473115921020508,0.0718991756439209,4.01538858013452,-12.378624453837423,-0.5161700272757166,0.6881616126473213,0.487814807884386,0.038906868127175906,-0.17842698311189925,4.259626266609563,3.8150239118423146,-12.221006910151184,-12.635238734761101,4.802998679366353,-2.1126318825552195
17.339391231536865,-0.13805705308914185,1.0234299898147583,-10.578563690185547,-0.055081242276838985,0.001983642578125,0.0718991756439209,4.005046004101261,-12.355899245503386,-0.5361700272757166,0.6887380803879661,0.38839296090871833,-0.021131234518873773,-0.08500340460825315,4.337328150524538,3.721084875352442,-12.1281865188463,-12.690936153942522,4.802998679366353,-2.1126318825552195
17.348655462265015,-0.13805705308914185,1.0234299898147583,-10.578563690185547,-0.055081242276838985,0.002619028091430664,0.0718991756439209,3.9937699393168886,-12.331460456469244,-0.5561700272757166,0.6886191376231034,0.29668055525162695,-0.07309826119358796,0.003519489397272716,4.449022038799366,3.5914130099497137,-12.005122903596874,-12.773584116174648,4.802998679366353,-2.1126318825552195
17.360071182250977,-0.13015146553516388,0.9446709752082825,-10.535889625549316,-0.06666271105480993,0.0032279491424560547,0.0718991756439209,3.981536362238367,-12.305277104654659,-0.5761700272757166,0.6895580919939583,0.19889380535005863,-0.1288804804545047,0.09169502524756391,4.608832004668722,3.4118328878588344,-11.839307305806727,-12.895641097863937,4.802998679366353,-2.1126318825552195
17.368592977523804,-0.13015146553516388,0.9446709752082825,-10.535889625549316,-0.06666271105480993,0.002257823944091797,0.0718991756439209,3.9682966939801574,-12.277327960088627,-0.590849055518967,0.6894341537892495,0.11213983838110542,-0.17653713872010537,0.17004083150385818,4.835064983591644,3.163987372589972,-11.603813148939562,-13.083978711930614,4.802998679366353,-2.1126318825552195
17.378885746002197,-0.13015146553516388,0.9446709752082825,-10.535889625549316,-0.06666271105480993,0.002534151077270508,0.0718991756439209,4.061622723229191,-12.486326424747284,-0.3861700272757165,0.6893079442338895,0.027915871523562008,-0.21833356666110953,0.2357522477624691,4.087674528982417,4.056345466189167,-12.497800911395665,-12.529356196868065,4.802998679366353,-2.1126318825552195
17.461243867874146,-0.12759853899478912,0.9186815023422241,-10.521651268005371,-0.0704074409592219,0.002642393112182617,0.07131123542785645,4.056721410525853,-12.47414558212429,-0.4061700272757165,0.6890105692876978,1.0,-0.2552028428082127,0.29194639191951405,4.095160390091359,4.043320217372963,-12.479985383415759,-12.532080097833791,4.7217546546345766,-2.06984118931362
17.46912121772766,-0.1053471714258194,0.6673412322998047,-10.378668785095215,-0.10299748825497321,0.0036902427673339844,0.07131123542785645,4.051055923388362,-12.460395641394111,-0.4261700272757165,0.6983944862663304,1.0,-0.28286799010649055,0.40346531565682586,4.105583514968392,4.0259899888957795,-12.45716762494656,-12.536735806676909,4.7217546546345766,-2.06984118931362
17.48060917854309,-0.10344388335943222,0.6430795192718506,-10.364295959472656,-0.10573384065533739,0.005352973937988281,0.07131123542785645,4.044599394743311,-12.445060768807087,-0.44617002727571653,0.6989463917981917,1.0,-0.31682422880151884,0.49159189002800713,4.119917136527912,4.003328309930469,-12.428530012476806,-12.54412283701776,4.7217546546345766,-2.06984118931362
17.492341995239258,-0.09796776622533798,0.5711984634399414,-10.32108211517334,-0.11336736550354844,0.0037899017333984375,0.07131123542785645,4.03732508922594,-12.428122822456146,-0.46617002727571655,0.7015461564603177,1.0,-0.3406970721078971,0.5667428803005693,4.1396353505501,3.973807470501604,-12.39286964617566,-12.555421518072917,4.609250378567849,-1.5699049863831687
17.50085711479187,-0.09796776622533798,0.5711984634399414,-10.32108211517334,-0.11336736550354844,0.003394603729248047,0.07131123542785645,4.029206512938491,-12.409561336394413,-0.48617002727571657,0.7009331487574433,1.0,-0.3685862282161639,0.6269547158544068,4.1669710386740375,3.9351408081026853,-12.348397400096387,-12.57239388269183,4.609250378567849,-1.5699049863831687
17.508816719055176,-0.0962204858660698,0.5475399494171143,-10.306683540344238,-0.11570731827921218,0.0034635066986083984,0.07131123542785645,4.020217524374541,-12.389353509885764,-0.5061700272757166,0.7013529509879078,1.0,-0.39072300200126353,0.6783976668533943,4.205295307766921,3.8839034817196993,-12.292436845219319,-12.597684692394846,4.609250378567849,-1.5699049863831687
17.518654108047485,-0.09451296925544739,0.5240321755409241,-10.292276382446289,-0.1179314027236778,0.0032806396484375,0.07131123542785645,4.010332446263779,-12.367474201835336,-0.5261700272757166,0.701714773015996,0.992138734013448,-0.4070095775936922,0.7204220419177816,4.259626266609563,3.8150239118423146,-12.221006910151184,-12.635238734761101,4.609250378567849,-1.5699049863831687
17.52884316444397,-0.0912000834941864,0.47749119997024536,-10.263443946838379,-0.1220111045850802,0.006047725677490234,0.07131123542785645,3.9995261780908082,-12.343895930435092,-0.5461700272757166,0.7030812359808982,0.970735481988553,-0.40868077890050974,0.7497401872013626,4.337328150524538,3.721084875352442,-12.1281865188463,-12.690936153942522,4.609250378567849,-1.5699049863831687
17.54446268081665,-0.08804347366094589,0.4315612018108368,-10.234615325927734,-0.1255495252272877,0.0041162967681884766,0.07131123542785645,3.987774309041218,-12.318588878047601,-0.5661700272757166,0.7044668021639628,0.9262922415805646,-0.3962135884791988,0.761265912995207,4.449022038799366,3.5914130099497137,-12.005122903596874,-12.773584116174648,4.609250378567849,-1.5699049863831687
17.55324149131775,-0.08804347366094589,0.4315612018108368,-10.234615325927734,-0.1255495252272877,0.0033257007598876953,0.07131123542785645,3.975053231128439,-12.291520901339393,-0.5843801294107224,0.7037462180579963,0.8932589174738598,-0.39326411919514637,0.7672526460526669,4.608832004668722,3.4118328878588344,-11.839307305806727,-12.895641097863937,4.609250378567849,-1.5699049863831687
17.562017679214478,-0.08419983088970184,0.3659389317035675,-10.192648887634277,-0.1297616876665118,0.003530263900756836,0.07131123542785645,3.961238692291783,-12.262706989229107,-0.5956683587033326,0.7062947152017741,0.8001530931566596,-0.3607962503184493,0.7518116594282432,4.835064983591644,3.163987372589972,-11.603813148939562,-13.083978711930614,4.609250378567849,-1.5699049863831687
17.569981575012207,-0.08419983088970184,0.3659389317035675,-10.192648887634277,-0.1297616876665118,0.0033364295959472656,0.07131123542785645,4.059265907318189,-12.480431240713594,-0.3961700272757165,0.7055241364226222,0.7719897338825548,-0.3437862469201102,0.7340890200269722,4.087674528982417,4.056345466189167,-12.497800911395665,-12.529356196868065,4.609250378567849,-1.5699049863831687
17.580366134643555,-0.08200082182884216,0.3236233592033386,-10.165053367614746,-0.13187380232698032,0.003612041473388672,0.07131123542785645,4.053985869763201,-12.467467684755482,-0.4161700272757165,0.7071147332775721,0.6806072081835943,-0.31040561092514946,0.7039102691718266,4.095160390091359,4.043320217372963,-12.479985383415759,-12.532080097833791,4.609250378567849,-1.5699049863831687
17.689136505126953,-0.08200082182884216,0.3236233592033386,-10.165053367614746,-0.13187380232698032,0.0038399696350097656,0.09815025329589844,4.04792821458144,-12.452927401143404,-0.4361700272757165,0.6481523831491658,1.0,-0.29018168372052394,0.674629327292058,4.105583514968392,4.0259899888957795,-12.45716762494656,-12.536735806676909,4.43788711218289,-1.720017225994978
17.700223207473755,-0.07031463831663132,0.029681496322155,-9.957758903503418,-0.13048432137447963,0.003386259078979492,0.09815025329589844,4.041066126916458,-12.436793404352942,-0.45617002727571654,0.6688700071565178,0.3102651248730661,-0.07757791165498432,0.41762470708903887,4.119917136527912,4.003328309930469,-12.428530012476806,-12.54412283701776,4.43788711218289,-1.720017225994978
17.708576917648315,-0.07031463831663132,0.029681496322155,-9.957758903503418,-0.13048432137447963,0.0037543773651123047,0.09815025329589844,4.033372978338586,-12.419046392122855,-0.47617002727571656,0.6677685457558202,0.29006322368003956,-0.01148381927000812,0.34780318125734366,4.1396353505501,3.973807470501604,-12.39286964617566,-12.555421518072917,4.43788711218289,-1.720017225994978
17.718653917312622,-0.07015253603458405,0.012179572135210037,-9.94397258758545,-0.12951198972694172,0.0034589767456054688,0.09815025329589844,4.024822437216898,-12.399664732132537,-0.4961700272757166,0.6684282851208537,0.22067073297718998,0.02781994853252653,0.2823752583129117,4.1669710386740375,3.9351408081026853,-12.348397400096387,-12.57239388269183,4.43788711218289,-1.720017225994978
17.728625774383545,-0.06982319056987762,-0.022287018597126007,-9.916279792785645,-0.1272826806682378,0.003420114517211914,0.09815025329589844,4.01538858013452,-12.378624453837423,-0.5161700272757166,0.6710301621747023,0.10061194279962604,0.06284458874433463,0.22278077648470773,4.205295307766921,3.8839034817196993,-12.292436845219319,-12.597684692394846,4.43788711218289,-1.720017225994978
17.73854160308838,-0.06967277824878693,-0.039260849356651306,-9.902359008789062,-0.12604734469941467,0.0027871131896972656,0.09815025329589844,4.005046004101261,-12.355899245503386,-0.5361700272757166,0.671967911510024,0.03561991147133414,0.08819828853459476,0.1704528005979395,4.259626266609563,3.8150239118423146,-12.221006910151184,-12.635238734761101,4.43788711218289,-1.720017225994978
17.748956441879272,-0.06951765716075897,-0.056056637316942215,-9.888364791870117,-0.12474636372772736,0.004359006881713867,0.09815025329589844,3.9937699393168886,-12.331460456469244,-0.5561700272757166,0.6729589452303516,-0.027238156283128534,0.10930163340198394,0.1267204436225336,4.337328150524538,3.721084875352442,-12.1281865188463,-12.690936153942522,4.43788711218289,-1.720017225994978
17.75863242149353,-0.06935670971870422,-0.07267270982265472,-9.874292373657227,-0.12336705194411374,0.0040357112884521484,0.09815025329589844,3.981536362238367,-12.305277104654659,-0.5761700272757166,0.6739831211646317,-0.08664381143286137,0.12669051326544545,0.0902127429321351,4.449022038799366,3.5914130099497137,-12.005122903596874,-12.773584116174648,4.43788711218289,-1.720017225994978
17.768688917160034,-0.06901385635137558,-0.1053590476512909,-9.845963478088379,-0.12034273036616314,0.003340005874633789,0.09815025329589844,3.9682966939801574,-12.277327960088627,-0.590849055518967,0.6772848219509865,-0.1889878962217928,0.1424530412548011,0.05964446017706829,4.608832004668722,3.4118328878588344,-11.839307305806727,-12.895641097863937,4.43788711218289,-1.720017225994978
17.779213905334473,-0.06883066147565842,-0.12142644077539444,-9.83166790008545,-0.11869697632710641,0.005968809127807617,0.09815025329589844,3.953852040233644,-12.24766751718529,-0.5989265975300512,0.6783402740206836,-0.2359678172322166,0.15181166313893454,0.032789071041945006,4.835064983591644,3.163987372589972,-11.603813148939562,-13.083978711930614,4.43788711218289,-1.720017225994978
17.790908575057983,-0.06843923032283783,-0.15300258994102478,-9.802802085876465,-0.11519111407542747,0.003320932388305664,0.09815025329589844,4.056721410525853,-12.47414558212429,-0.4061700272757165,0.6816342131023818,-0.3145512620311699,0.156138768293423,0.01260347151515917,4.087674528982417,4.056345466189167,-12.497800911395665,-12.529356196868065,4.43788711218289,-1.720017225994978
17.90618109703064,-0.06843923032283783,-0.15300258994102478,-9.802802085876465,-0.11519111407542747,0.004062175750732422,0.10500979423522949,4.051055923388362,-12.460395641394111,-0.4261700272757165,0.6542873202220125,1.0,0.16047965528755898,-0.0024533435338416217,4.095160390091359,4.043320217372963,-12.479985383415759,-12.532080097833791,3.881667072542813,-0.991968554571858
17.916659355163574,-0.06752252578735352,-0.3449913561344147,-9.575902938842773,-0.08759451669312779,0.0034677982330322266,0.10500979423522949,4.044599394743311,-12.445060768807087,-0.44617002727571653,0.6855053676419419,0.7655038513795651,0.048370781988506445,0.1310282364456925,4.105583514968392,4.0259899888957795,-12.45716762494656,-12.536735806676909,3.881667072542813,-0.991968554571858
17.923529863357544,-0.06752252578735352,-0.3449913561344147,-9.575902938842773,-0.08759451669312779,0.0034041404724121094,0.10500979423522949,4.03732508922594,-12.428122822456146,-0.46617002727571655,0.6842957586712459,0.8030926217782184,0.02918924440662427,0.12990934926019973,4.119917136527912,4.003328309930469,-12.428530012476806,-12.54412283701776,3.881667072542813,-0.991968554571858
17.932819604873657,-0.06671235710382462,-0.37750306725502014,-9.528545379638672,-0.08259673839974667,0.002832174301147461,0.10500979423522949,4.029206512938491,-12.409561336394413,-0.48617002727571657,0.6893405562839905,0.8328904297053777,0.0022671756615685297,0.13583916782355263,4.1396353505501,3.973807470501604,-12.39286964617566,-12.555421518072917,3.881667072542813,-0.991968554571858
17.939733028411865,-0.06671235710382462,-0.37750306725502014,-9.528545379638672,-0.08259673839974667,0.0019850730895996094,0.10500979423522949,4.020217524374541,-12.389353509885764,-0.5061700272757166,0.6881378342257087,0.8765761246181605,-0.003662859831880505,0.12984004567856383,4.1669710386740375,3.9351408081026853,-12.348397400096387,-12.57239388269183,3.881667072542813,-0.991968554571858
17.948780298233032,-0.06607437878847122,-0.38717275857925415,-9.51274299621582,-0.08096166005895646,0.0028650760650634766,0.10500979423522949,4.010332446263779,-12.367474201835336,-0.5261700272757166,0.689017043030597,0.9164396680115788,-0.011624202409965019,0.1278768190884418,4.205295307766921,3.8839034817196993,-12.292436845219319,-12.597684692394846,3.881667072542813,-0.991968554571858
17.959707736968994,-0.06424200534820557,-0.41543954610824585,-9.464864730834961,-0.07620868664648159,0.002565622329711914,0.10500979423522949,3.9995261780908082,-12.343895930435092,-0.5461700272757166,0.6938697763457622,0.9212034682832506,-0.0337823251233591,0.13509004158712304,4.259626266609563,3.8150239118423146,-12.221006910151184,-12.635238734761101,3.881667072542813,-0.991968554571858
17.96868133544922,-0.06424200534820557,-0.41543954610824585,-9.464864730834961,-0.07620868664648159,0.002544403076171875,0.10500979423522949,3.987774309041218,-12.318588878047601,-0.5661700272757166,0.692677540307423,0.9742036637014301,-0.03847314366655092,0.12990985899980179,4.337328150524538,3.721084875352442,-12.1281865188463,-12.690936153942522,3.881667072542813,-0.991968554571858
17.9789822101593,-0.06365977972745895,-0.424613893032074,-9.448751449584961,-0.07470331443914123,0.005026340484619141,0.10500979423522949,3.975053231128439,-12.291520901339393,-0.5843801294107224,0.6934406000292372,1.0,-0.04369178520530634,0.12564233439448358,4.449022038799366,3.5914130099497137,-12.005122903596874,-12.773584116174648,3.881667072542813,-0.991968554571858
17.994359970092773,-0.06253863871097565,-0.4425866901874542,-9.416290283203125,-0.07178907995469137,0.004378080368041992,0.10500979423522949,3.961238692291783,-12.262706989229107,-0.5956683587033326,0.6961323707044985,0.9811021080518367,-0.05140099719666733,0.12217350125647239,4.608832004668722,3.4118328878588344,-11.839307305806727,-12.895641097863937,3.881667072542813,-0.991968554571858
18.08516502380371,-0.06253863871097565,-0.4425866901874542,-9.416290283203125,-0.07178907995469137,0.0022432804107666016,0.07498550415039062,3.9461104787259487,-12.23221995901659,-0.6007093398237776,0.684963273790178,1.0,-0.05244319256305996,0.11742776553397292,4.835064983591644,3.163987372589972,-11.603813148939562,-13.083978711930614,3.7626419627364585,-0.7233950616516399
18.091466188430786,-0.05816549062728882,-0.5446709990501404,-9.201022148132324,-0.05424424672919835,0.0030519962310791016,0.07498550415039062,4.053985869763201,-12.467467684755482,-0.4161700272757165,0.7092435299532015,0.06440448320629089,-0.05279937189957695,0.07403982028832543,4.087674528982417,4.056345466189167,-12.497800911395665,-12.529356196868065,3.7626419627364585,-0.7233950616516399
18.099774599075317,-0.05816549062728882,-0.5446709990501404,-9.201022148132324,-0.05424424672919835,0.002371549606323242,0.07498550415039062,4.04792821458144,-12.452927401143404,-0.4361700272757165,0.7081281242556182,0.10646345247862221,-0.05576630519075026,0.08617685143854388,4.095160390091359,4.043320217372963,-12.479985383415759,-12.532080097833791,3.7626419627364585,-0.7233950616516399
18.10952591896057,-0.057933028787374496,-0.5577492713928223,-9.167346954345703,-0.05168233141447245,0.002688884735107422,0.07498550415039062,4.041066126916458,-12.436793404352942,-0.45617002727571654,0.7110841207314157,-0.042431509912714827,-0.055225441960953255,0.08742062037214289,4.105583514968392,4.0259899888957795,-12.45716762494656,-12.536735806676909,3.7626419627364585,-0.7233950616516399
18.118677854537964,-0.057933028787374496,-0.5577492713928223,-9.167346954345703,-0.05168233141447245,0.002305269241333008,0.07498550415039062,4.033372978338586,-12.419046392122855,-0.47617002727571656,0.709959624632528,0.005212292600402124,-0.055115601018205194,0.09026502973803104,4.119917136527912,4.003328309930469,-12.428530012476806,-12.54412283701776,3.7626419627364585,-0.7233950616516399
18.129436492919922,-0.05759528651833534,-0.5761058330535889,-9.116168022155762,-0.04790939564078067,0.002296924591064453,0.07498550415039062,4.024822437216898,-12.399664732132537,-0.4961700272757166,0.7149708409291959,-0.24476047167090664,-0.05108226275300305,0.08382315442820298,4.1396353505501,3.973807470501604,-12.39286964617566,-12.555421518072917,3.7626419627364585,-0.7233950616516399
18.139759302139282,-0.05748452618718147,-0.5818683505058289,-9.098952293395996,-0.04668053768090519,0.002121448516845703,0.07498550415039062,4.01538858013452,-12.378624453837423,-0.5161700272757166,0.7158369595379716,-0.28886467670601945,-0.04841758744347186,0.08210964411936587,4.1669710386740375,3.9351408081026853,-12.348397400096387,-12.57239388269183,3.7626419627364585,-0.7233950616516399
18.14872646331787,-0.05748452618718147,-0.5818683505058289,-9.098952293395996,-0.04668053768090519,0.0023767948150634766,0.07498550415039062,4.005046004101261,-12.355899245503386,-0.5361700272757166,0.7147044307109287,-0.2326452685083047,-0.04769646536964775,0.08140849015520811,4.205295307766921,3.8839034817196993,-12.292436845219319,-12.597684692394846,3.7626419627364585,-0.7233950616516399
18.15941333770752,-0.05717996135354042,-0.5980085730552673,-9.046957015991211,-0.043057561449128895,0.0025382041931152344,0.07498550415039062,3.9937699393168886,-12.331460456469244,-0.5561700272757166,0.7195693212352791,-0.43695423725214444,-0.04242461022636887,0.07520327760906365,4.259626266609563,3.8150239118423146,-12.221006910151184,-12.635238734761101,3.7626419627364585,-0.7233950616516399
18.168558359146118,-0.05717996135354042,-0.5980085730552673,-9.046957015991211,-0.043057561449128895,0.002401113510131836,0.07498550415039062,3.981536362238367,-12.305277104654659,-0.5761700272757166,0.7184338770399846,-0.37488820558352365,-0.041082546619862215,0.07348247153696581,4.337328150524538,3.721084875352442,-12.1281865188463,-12.690936153942522,3.7626419627364585,-0.7233950616516399
18.17898440361023,-0.05707826092839241,-0.6030053496360779,-9.029500961303711,-0.041860240490476264,0.003916740417480469,0.07498550415039062,3.9682966939801574,-12.277327960088627,-0.590849055518967,0.71929721408402,-0.38713012368531463,-0.039050284034653986,0.07079671666692028,4.449022038799366,3.5914130099497137,-12.005122903596874,-12.773584116174648,3.7626419627364585,-0.7233950616516399
18.188854455947876,-0.057586342096328735,-0.6066209673881531,-9.011313438415527,-0.04066633161746669,0.001844644546508789,0.07498550415039062,3.953852040233644,-12.24766751718529,-0.5989265975300512,0.7202233663578825,-0.3969292165038798,-0.03730359036910239,0.0680588526490467,4.608832004668722,3.4118328878588344,-11.839307305806727,-12.895641097863937,3.4126502107352423,-0.43661815377449054
18.19881820678711,-0.05807682126760483,-0.6100664138793945,-8.99307918548584,-0.03948421602055338,0.0026001930236816406,0.07498550415039062,3.937988729110724,-12.216375661949394,-0.6010991815014846,0.7211424498014604,-0.399418958316877,-0.03564087709958942,0.0653799338656539,4.835064983591644,3.163987372589972,-11.603813148939562,-13.083978711930614,3.4126502107352423,-0.43661815377449054
18.28945255279541,-0.05900633707642555,-0.6164411306381226,-8.956507682800293,-0.037128435232373594,0.0020253658294677734,0.08203983306884766,4.051055923388362,-12.460395641394111,-0.4261700272757165,0.7077646775908282,1.0,-0.03283210911520782,0.06167716796193745,4.087674528982417,4.056345466189167,-12.497800911395665,-12.529356196868065,3.4126502107352423,-0.43661815377449054
18.29876399040222,-0.06292279064655304,-0.6391758918762207,-8.752723693847656,-0.02437810533283967,0.0023949146270751953,0.08203983306884766,4.044599394743311,-12.445060768807087,-0.44617002727571653,0.728590403021344,0.5308143642902041,-0.007942518829202478,-0.004897467897952383,4.095160390091359,4.043320217372963,-12.479985383415759,-12.532080097833791,3.4344184684410015,-0.8619337938743119
18.308459520339966,-0.06292279064655304,-0.6391758918762207,-8.752723693847656,-0.02437810533283967,0.0033066272735595703,0.08203983306884766,4.03732508922594,-12.428122822456146,-0.46617002727571655,0.7274621410784778,0.620189647449765,-0.01560796761823701,0.0185570199046162,4.105583514968392,4.0259899888957795,-12.45716762494656,-12.536735806676909,3.4344184684410015,-0.8619337938743119
18.430866479873657,-0.061831723898649216,-0.6199747323989868,-8.428394317626953,-0.006496905071597739,0.002816915512084961,0.08203983306884766,4.029206512938491,-12.409561336394413,-0.48617002727571657,0.7568433030539357,-0.6487564384880542,0.010672145745695518,-0.012153607978980283,4.119917136527912,4.003328309930469,-12.428530012476806,-12.54412283701776,3.4344184684410015,-0.8619337938743119
18.510245084762573,-0.061831723898649216,-0.6199747323989868,-8.428394317626953,-0.006496905071597739,0.002613544464111328,0.0702824592590332,4.020217524374541,-12.389353509885764,-0.5061700272757166,0.7287388441782685,-0.29332616553387003,0.011829068421010665,-0.002452388374066537,4.1396353505501,3.973807470501604,-12.39286964617566,-12.555421518072917,3.15023121397576,0.5369665106553057
18.51872968673706,-0.061761241406202316,-0.5823573470115662,-8.255229949951172,0.0017066576935903383,0.0021195411682128906,0.0702824592590332,4.010332446263779,-12.367474201835336,-0.5261700272757166,0.7430650812051494,-1.0,0.024167160292427915,-0.0023042434045364535,4.1669710386740375,3.9351408081026853,-12.348397400096387,-12.57239388269183,3.15023121397576,0.5369665106553057
18.52853226661682,-0.06171652302145958,-0.5773376226425171,-8.236091613769531,0.002570090111808601,0.0022954940795898438,0.0702824592590332,3.9995261780908082,-12.343895930435092,-0.5461700272757166,0.7435769934975069,-1.0,0.027607961488219115,-0.003443760490865056,4.205295307766921,3.8839034817196993,-12.292436845219319,-12.597684692394846,3.15023121397576,0.5369665106553057
18.538516998291016,-0.06160489469766617,-0.5667852759361267,-8.197875022888184,0.004264861153209398,0.0019888877868652344,0.0702824592590332,3.987774309041218,-12.318588878047601,-0.5661700272757166,0.7456401585007338,-1.0,0.030364979033388008,-0.005364635957128461,4.259626266609563,3.8150239118423146,-12.221006910151184,-12.635238734761101,3.15023121397576,0.5369665106553057
18.549201250076294,-0.06153818219900131,-0.5612553358078003,-8.17879581451416,0.005095113468228218,0.0031478404998779297,0.0702824592590332,3.975053231128439,-12.291520901339393,-0.5843801294107224,0.746144972922719,-1.0,0.03180559391139389,-0.0073000991263672075,4.337328150524538,3.721084875352442,-12.1281865188463,-12.690936153942522,3.15023121397576,0.5369665106553057
18.558459281921387,-0.06146445870399475,-0.5555599927902222,-8.159730911254883,0.00591510394908068,0.0024237632751464844,0.0702824592590332,3.961238692291783,-12.262706989229107,-0.5956683587033326,0.7467011278346687,-1.0,0.0330340199970515,-0.00882852844581219,4.449022038799366,3.5914130099497137,-12.005122903596874,-12.773584116174648,3.15023121397576,0.5369665106553057
18.568746328353882,-0.061383798718452454,-0.5497022271156311,-8.140674591064453,0.006731240699492255,0.0020835399627685547,0.0702824592590332,3.9461104787259487,-12.23221995901659,-0.6007093398237776,0.7472625024593931,-1.0,0.03416594778469228,-0.010135218346192451,4.608832004668722,3.4118328878588344,-11.839307305806727,-12.895641097863937,3.15023121397576,0.5369665106553057
18.578695058822632,-0.062289610505104065,-0.534614622592926,-8.101598739624023,0.008379542119771793,0.002355337142944336,0.0702824592590332,3.929462546355932,-12.200146931793997,-0.6001757784966356,0.7495435211952169,-1.0,0.034983901611892076,-0.011979726306723344,4.835064983591644,3.163987372589972,-11.603813148939562,-13.083978711930614,3.15023121397576,0.5369665106553057
18.588499069213867,-0.06270318478345871,-0.5268775820732117,-8.082085609436035,0.009207208373189175,0.0018322467803955078,0.0702824592590332,4.064438061244145,-12.468054614687063,-0.43638597804975343,0.7501519705462676,-1.0,0.03524309528622231,-0.01359527665929822,4.094006683496041,4.036729594222827,-12.446538701095596,-12.50282804652178,3.4232213491349177,-0.1291386298703061
18.599138021469116,-0.06309923529624939,-0.5190126299858093,-8.062592506408691,0.010028662017728014,0.0028047561645507812,0.0702824592590332,4.061941486863104,-12.453672735258865,-0.45638597804975345,0.7507461164528724,-1.0,0.03535791694168834,-0.01496139063418474,4.107539759121039,4.019054391213638,-12.418033725038043,-12.504069923095491,3.4232213491349177,-0.1291386298703061
18.609379291534424,-0.06384062767028809,-0.5029069781303406,-8.02366828918457,0.011648224913966068,0.002566099166870117,0.0702824592590332,4.05857177795667,-12.437775857478078,-0.47638597804975347,0.752879973635362,-1.0,0.03527945034078504,-0.016875767192521204,4.125631549806878,3.9951036737260255,-12.383319142027979,-12.508510725819546,3.4232213491349177,-0.1291386298703061
18.618667602539062,-0.06384062767028809,-0.5029069781303406,-8.02366828918457,0.011648224913966068,0.0021584033966064453,0.0702824592590332,4.054299630550939,-12.42034288470466,-0.4963859780497535,0.7518731799349655,-1.0,0.03523505353539226,-0.017615850696845462,4.150134906295588,3.9629657529504234,-12.340941498591414,-12.517564090571794,3.4232213491349177,-0.1291386298703061
18.628883838653564,-0.06451670080423355,-0.48631551861763,-7.98491907119751,0.013219952900064585,0.004113674163818359,0.0702824592590332,4.049096054359959,-12.401350333914976,-0.5163859780497535,0.7538850604451874,-1.0,0.034901799945096006,-0.019316139157038646,4.183875724886456,3.9197564103674227,-12.288715768948801,-12.533370466604204,3.4232213491349177,-0.1291386298703061
18.71214246749878,-0.06483113020658493,-0.4778440296649933,-7.965582847595215,0.013987184604800633,0.0024764537811279297,0.07199645042419434,4.042932485174698,-12.380772325756892,-0.5363859780497535,0.7429530840407588,-1.0,0.03463801172715431,-0.0205168957202986,4.231131163580019,3.861140905255031,-12.223322139021766,-12.559200307454212,3.4232213491349177,-0.1291386298703061
18.721105575561523,-0.06753779202699661,-0.37137550115585327,-7.754566669464111,0.02140103006094021,0.0019092559814453125,0.07199645042419434,4.035780898192758,-12.35858057983212,-0.5563859780497535,0.7562225321141609,-1.0,0.029729493572728846,-0.030263107871103083,4.298225313341865,3.7807385292056193,-12.139785854542358,-12.599974208162191,3.6672655121208466,-0.7353531374973226
18.728482484817505,-0.06753779202699661,-0.37137550115585327,-7.754566669464111,0.02140103006094021,0.002397298812866211,0.07199645042419434,4.027613922040178,-12.334744415242673,-0.5763859780497536,0.7553088065207867,-1.0,0.030273594479382306,-0.028486576633932156,4.394188159520159,3.669463872122155,-12.030798914733232,-12.662941207412361,3.6672655121208466,-0.7353531374973226
18.739169120788574,-0.06806643307209015,-0.3377626836299896,-7.697603702545166,0.023059788882578192,0.0019001960754394531,0.07199645042419434,4.018404953236294,-12.309230756426269,-0.5963859780497536,0.7577184908513239,-1.0,0.02862811396141607,-0.030525515796085662,4.531526186131245,3.5147564464815244,-11.885628025827582,-12.758770840390005,3.6672655121208466,-0.7353531374973226
18.7490234375,-0.06806643307209015,-0.3377626836299896,-7.697603702545166,0.023059788882578192,0.0027909278869628906,0.07199645042419434,4.008128270852794,-12.282004144293577,-0.6163859780497536,0.7568393192182996,-1.0,0.028744503758489224,-0.029481874412562843,4.72626304998646,3.300540242393787,-11.687458245157258,-12.904209511664257,3.6672655121208466,-0.7353531374973226
18.758420705795288,-0.0682152584195137,-0.3264782428741455,-7.678713798522949,0.023578361737616616,0.002117156982421875,0.07199645042419434,3.9967531519650206,-12.25302912871182,-0.6336708269711446,0.7570459933609381,-1.0,0.028084627951099256,-0.03005651155633342,5.002268298161107,3.0028952394592956,-11.398059002437334,-13.137414501482159,3.6672655121208466,-0.7353531374973226
