time,x,y,z,yaw,ctrl_comp_time,x_ref,y_ref,z_ref,yaw_ref,throttle,roll_rate,pitch_rate,yaw_rate,save_tube_hH,save_tube_hL,save_tube_pyH,save_tube_pyL,save_tube_pzH,save_tube_pzL,save_tube_thetaH,save_tube_thetaL,save_tube_vH,save_tube_vL
15.138611078262329,-0.006614676211029291,3.8933801651000977,-11.612798690795898,0.0013598190343362985,0.12483596801757812,0.0,3.89328868508726,-11.61152431736882,-0.009936934430521922,0.5827368570865805,-1.0,0.0005880440023592467,0.01652498212072782,nan,nan,nan,nan,nan,nan,nan,nan,nan,nan
15.641802787780762,0.017451830208301544,3.9043822288513184,-11.604718208312988,-0.0011786766758041627,0.19273781776428223,0.0,3.89328868508726,-11.61152431736882,-0.009936934430521922,0.5976261882695391,-0.7841179904635953,0.007345313431343505,0.029941431748976833,nan,nan,nan,nan,nan,nan,nan,nan,nan,nan
15.784708499908447,0.017451830208301544,3.9043822288513184,-11.604718208312988,-0.0011786766758041627,0.0012516975402832031,0.0,3.904378448785697,-11.601529225367981,-0.04616923486269559,0.5937097647141077,-1.0,0.02229279048598563,0.057825099923782916,nan,nan,nan,nan,nan,nan,nan,nan,nan,nan
15.790395975112915,0.03667145594954491,3.8589305877685547,-11.338363647460938,-0.0001430242045688257,0.0013451576232910156,0.0,3.904386426002317,-11.598007793652558,-0.056169234862695594,0.6747507381054899,1.0,0.04173158960114713,0.1102242168323385,nan,nan,nan,nan,nan,nan,nan,nan,nan,nan
15.79973030090332,0.037458352744579315,3.8553833961486816,-11.327499389648438,-0.00011427718800460784,0.0013515949249267578,0.0,3.90440285259107,-11.5941564464826,-0.06616923486269559,0.6755546580063895,1.0,0.0587121989956343,0.08650469646988793,nan,nan,nan,nan,nan,nan,nan,nan,nan,nan
15.809696197509766,0.03902490437030792,3.8477838039398193,-11.305176734924316,-4.832518236921879e-05,0.0012645721435546875,0.0,3.9044243501095073,-11.589977531426609,-0.07616923486269558,0.6783355126356346,1.0,0.05254546320668244,0.09496950722430429,nan,nan,nan,nan,nan,nan,nan,nan,nan,nan
15.819970846176147,0.039804745465517044,3.84372615814209,-11.293716430664062,-1.3300742283811617e-05,0.0016210079193115234,0.0,3.9044474747568922,-11.585473207972738,-0.08616923486269558,0.6791427371915328,1.0,0.053119640572620294,0.09175806976556716,nan,nan,nan,nan,nan,nan,nan,nan,nan,nan
15.829631328582764,0.04058234393596649,3.8394923210144043,-11.28205680847168,3.055066777835069e-05,0.0013992786407470703,0.0,3.904468722616585,-11.580645445342185,-0.09616923486269557,0.6798920751037655,1.0,0.05131907150299668,0.09068510807036943,nan,nan,nan,nan,nan,nan,nan,nan,nan,nan
15.839954853057861,0.041357286274433136,3.835068941116333,-11.270184516906738,8.38617251169016e-05,0.0023071765899658203,0.0,3.904484534962615,-11.57549602045069,-0.10616923486269557,0.6802846621637237,1.0,0.04971166422157738,0.08815454805475893,nan,nan,nan,nan,nan,nan,nan,nan,nan,nan
15.849788665771484,0.043084144592285156,3.8257880210876465,-11.246309280395508,0.000150972983946146,0.0011708736419677734,0.0,3.9044913036262514,-11.570026516019807,-0.11616923486269556,0.6815760696119848,1.0,0.04718109977914465,0.08469059243259774,nan,nan,nan,nan,nan,nan,nan,nan,nan,nan
15.859738826751709,0.044024866074323654,3.820892572402954,-11.234326362609863,0.00014753071885173497,0.0012400150299072266,0.0,3.9044853764183403,-11.56423831883943,-0.12616923486269557,0.68151525859933,1.0,0.04484963409105546,0.0802580242969994,nan,nan,nan,nan,nan,nan,nan,nan,nan,nan
15.869848489761353,0.044956326484680176,3.8157665729522705,-11.222225189208984,0.00013609509160553146,0.001230478286743164,0.0,3.90446306260316,-11.558132618182945,-0.13616923486269558,0.6814106963774411,1.0,0.042227222949885186,0.07569249401419081,nan,nan,nan,nan,nan,nan,nan,nan,nan,nan
15.879756689071655,0.04587847366929054,3.810408353805542,-11.210010528564453,0.00011623502403318442,0.0013434886932373047,0.0,3.9044206384195093,-11.551710404376204,-0.1461692348626956,0.6812778197132074,1.0,0.039449904998538766,0.07082925535347344,nan,nan,nan,nan,nan,nan,nan,nan,nan,nan
15.889831066131592,0.047694481909275055,3.7989981174468994,-11.185182571411133,7.118991211524373e-05,0.0011954307556152344,0.0,3.9043543526447326,-11.544972467521434,-0.1561692348626956,0.6820651028376652,1.0,0.035678526568594944,0.06515430759898132,nan,nan,nan,nan,nan,nan,nan,nan,nan,nan
16.030037879943848,0.047694481909275055,3.7989981174468994,-11.185182571411133,7.118991211524373e-05,0.0012941360473632812,0.0,3.7980357540683776,-11.167727789142079,-0.4205954957520517,0.6869920978510594,-1.0,0.03332352633626733,0.059470022318832014,nan,nan,nan,nan,nan,nan,nan,nan,nan,nan
16.03979802131653,0.06012497469782829,3.6512351036071777,-10.939949035644531,0.0014061005265722792,0.001214742660522461,0.0,3.796933893044367,-11.150007840940978,-0.4305954957520517,0.7047024787441551,-0.28039076105182104,0.006653022289607088,0.02382594898760053,nan,nan,nan,nan,nan,nan,nan,nan,nan,nan
16.04982614517212,0.06111951172351837,3.6306443214416504,-10.910523414611816,0.0017591966918953372,0.0012311935424804688,0.0,3.7956889449287425,-11.132015943025701,-0.4405954957520517,0.7062036105787426,-0.42523803337878996,-0.008657879972009015,0.009398757613620617,nan,nan,nan,nan,nan,nan,nan,nan,nan,nan
16.05975031852722,0.06160682439804077,3.620161294937134,-10.89570426940918,0.0018875701159344338,0.001191854476928711,0.0,3.7942975076994028,-11.113745130716424,-0.4505954957520517,0.7066826765636177,-0.6056321589883271,-0.020171834990294436,-0.00792798569185003,nan,nan,nan,nan,nan,nan,nan,nan,nan,nan
16.069961547851562,0.062085751444101334,3.6095550060272217,-10.880819320678711,0.002024888892984064,0.0024573802947998047,0.0,3.7927563715605275,-11.095188263033187,-0.4605954957520517,0.7070693025391609,-0.7879683002417073,-0.030778184703228243,-0.026564743215757348,nan,nan,nan,nan,nan,nan,nan,nan,nan,nan
16.079580068588257,0.06255549192428589,3.598828077316284,-10.865884780883789,0.00216877078391918,0.0011241436004638672,0.0,3.7910625236339346,-11.07633802741081,-0.47059549575205173,0.7073262984878053,-0.9662632060030409,-0.041311022290839085,-0.0456190932979089,nan,nan,nan,nan,nan,nan,nan,nan,nan,nan
16.090213298797607,0.06346530467271805,3.577023983001709,-10.835835456848145,0.0024833831154989078,0.0024178028106689453,0.0,3.7892131525369823,-11.057186944527995,-0.48059549575205174,0.7082635533147621,-1.0,-0.05320543853702306,-0.06499335442568863,nan,nan,nan,nan,nan,nan,nan,nan,nan,nan
16.0997154712677,0.06344707310199738,3.5645625591278076,-10.821331977844238,0.002651981698929759,0.0012700557708740234,0.0,3.7872056528445577,-11.037727373247378,-0.49059549575205175,0.7083443220166724,-1.0,-0.0635439057998555,-0.08127303391828869,nan,nan,nan,nan,nan,nan,nan,nan,nan,nan
16.10982394218445,0.06342650204896927,3.552016496658325,-10.806781768798828,0.002775214047638072,0.001287221908569336,0.0,3.785037629432797,-11.017951515663247,-0.5005954957520518,0.708402111557656,-1.0,-0.07227299390435474,-0.09428849649074621,nan,nan,nan,nan,nan,nan,nan,nan,nan,nan
16.1198468208313,0.06340311467647552,3.5393857955932617,-10.792187690734863,0.0029014747059588064,0.0013077259063720703,0.0,3.7827069017022867,-10.997851422253609,-0.5105954957520518,0.7084452093193088,-1.0,-0.07928630926965644,-0.10386636564071185,nan,nan,nan,nan,nan,nan,nan,nan,nan,nan
16.26741909980774,0.06340311467647552,3.5393857955932617,-10.792187690734863,0.0029014747059588064,0.0024824142456054688,0.0,3.5299490983986948,-10.771300367611316,-0.22521883584107857,0.6773165566174251,-1.0,-0.08372608475928936,-0.11087570283920609,nan,nan,nan,nan,nan,nan,nan,nan,nan,nan
16.275118589401245,0.06492968648672104,3.267559051513672,-10.490439414978027,0.0034744726863007447,0.0012252330780029297,0.0,3.520547997666028,-10.750140335304819,-0.23521883584107858,0.6853117672029808,1.0,-0.04151083040731604,0.014262813933720477,nan,nan,nan,nan,nan,nan,nan,nan,nan,nan
16.27951955795288,0.06492968648672104,3.267559051513672,-10.490439414978027,0.0034744726863007447,0.0010607242584228516,0.0,3.5111772736952402,-10.728705848567468,-0.2452188358410786,0.6846633530885247,1.0,-0.035420108820413965,-0.015530824883624136,nan,nan,nan,nan,nan,nan,nan,nan,nan,nan
16.289809226989746,0.06545008718967438,3.2377734184265137,-10.459107398986816,0.003227426465380878,0.0013294219970703125,0.0,3.5018317734778814,-10.706994931215725,-0.2552188358410786,0.6844029470189276,1.0,-0.03430575544305176,-0.023434095393731636,nan,nan,nan,nan,nan,nan,nan,nan,nan,nan
16.300037384033203,0.06569434702396393,3.222623825073242,-10.443355560302734,0.003094617882636874,0.0016949176788330078,0.0,3.4925064168079,-10.685005377741994,-0.2652188358410786,0.6839482227912859,1.0,-0.03304699549718724,-0.02566736025905695,nan,nan,nan,nan,nan,nan,nan,nan,nan,nan
16.309778451919556,0.06592890620231628,3.2072970867156982,-10.427545547485352,0.0029625112590865865,0.0011899471282958984,0.0,3.483196202354026,-10.66273475508337,-0.2752188358410786,0.6834834514850395,1.0,-0.03108997139784604,-0.025439562048460995,nan,nan,nan,nan,nan,nan,nan,nan,nan,nan
16.31990694999695,0.0661543533205986,3.191786289215088,-10.4116792678833,0.0028402498419656252,0.00130462646484375,0.0,3.473896213689765,-10.640180404546228,-0.2852188358410786,0.6829942409364154,1.0,-0.028672282587072617,-0.023931792874132076,nan,nan,nan,nan,nan,nan,nan,nan,nan,nan
16.329688787460327,0.06657946109771729,3.1601877212524414,-10.379773139953613,0.002582802875207846,0.001203775405883789,0.0,3.4646016252771146,-10.61733944388524,-0.2952188358410786,0.6827440080137291,1.0,-0.02442829530733989,-0.021115740373347233,nan,nan,nan,nan,nan,nan,nan,nan,nan,nan
16.339906454086304,0.06678052991628647,3.144096612930298,-10.363691329956055,0.0024253329124250544,0.0012736320495605469,0.0,3.4553077084001695,-10.594208769535289,-0.3052188358410786,0.6825311858427456,1.0,-0.02155438664194123,-0.01811103710109093,nan,nan,nan,nan,nan,nan,nan,nan,nan,nan
16.350127696990967,0.06658373028039932,3.128113031387329,-10.348115921020508,0.00224718658101411,0.0023369789123535156,0.0,3.446009837044841,-10.570785058994637,-0.3152188358410786,0.6824046362149059,1.0,-0.01967119083527337,-0.015529823121095045,nan,nan,nan,nan,nan,nan,nan,nan,nan,nan
16.49129843711853,0.06658373028039932,3.128113031387329,-10.348115921020508,0.00224718658101411,0.0021076202392578125,0.0,3.117435986579902,-10.32219641389649,-0.3912389717118028,0.7012755124976502,-1.0,-0.018887487499391044,-0.01389672815191646,nan,nan,nan,nan,nan,nan,nan,nan,nan,nan
16.499704360961914,0.06104499101638794,2.7881007194519043,-10.032858848571777,-0.0034288727665855168,0.001142740249633789,0.0,3.10670955521614,-10.29596400775948,-0.4012389717118028,0.7137622979908357,0.473772762232221,-0.014752840993930523,0.009907181240686059,nan,nan,nan,nan,nan,nan,nan,nan,nan,nan
16.509982347488403,0.06104499101638794,2.7881007194519043,-10.032858848571777,-0.0034288727665855168,0.0019752979278564453,0.0,3.095930167562634,-10.269412606475164,-0.4100954228677274,0.7133329356761149,0.3451207304216972,-0.017838711836205088,0.005922884919135386,nan,nan,nan,nan,nan,nan,nan,nan,nan,nan
16.51997137069702,0.05972885712981224,2.7483651638031006,-9.99750804901123,-0.0039586170816836574,0.002098560333251953,0.0,3.0850637078198826,-10.24254833878338,-0.41717158927322173,0.7147252169324602,0.40282786624989075,-0.019581949804389175,0.00469258395284112,nan,nan,nan,nan,nan,nan,nan,nan,nan,nan
16.52979612350464,0.05972885712981224,2.7483651638031006,-9.99750804901123,-0.0039586170816836574,0.0020329952239990234,0.0,3.0740588062486975,-10.215384854981505,-0.422556943924036,0.7142824025652178,0.3434436017109437,-0.02017203926465571,0.004088958838524609,nan,nan,nan,nan,nan,nan,nan,nan,nan,nan
16.53984498977661,0.057865504175424576,2.6879708766937256,-9.94390869140625,-0.004711182146282411,0.001981973648071289,0.0,3.062866546996667,-10.187936029123257,-0.42633878424134525,0.7162737551965205,0.46127021539607416,-0.021219238475744886,0.004436450854218642,nan,nan,nan,nan,nan,nan,nan,nan,nan,nan
16.550186157226562,0.057865504175424576,2.6879708766937256,-9.94390869140625,-0.004711182146282411,0.0014948844909667969,0.0,3.051440457960031,-10.160216190613225,-0.42860216301696097,0.7158054682919371,0.40373847000838836,-0.021591182819933618,0.004245238432528437,nan,nan,nan,nan,nan,nan,nan,nan,nan,nan
16.559835195541382,0.05671745538711548,2.6471946239471436,-9.907913208007812,-0.005149811598351844,0.0012633800506591797,0.0,3.039736504721874,-10.132240304788189,-0.42942983934016027,0.7165366122862875,0.48806207354053766,-0.0221013844692968,0.004741376075482597,nan,nan,nan,nan,nan,nan,nan,nan,nan,nan
16.569988250732422,0.05671745538711548,2.6471946239471436,-9.907913208007812,-0.005149811598351844,0.001447916030883789,0.0,3.027713089273314,-10.104024107894464,-0.428902247356733,0.7160523389350054,0.4320160658747789,-0.022279243075670606,0.004654841166624356,nan,nan,nan,nan,nan,nan,nan,nan,nan,nan
16.579705238342285,0.05509648099541664,2.5853352546691895,-9.853702545166016,-0.005711344790106432,0.001209259033203125,0.0,3.0153310534881097,-10.07558420134853,-0.42709748071925646,0.7172389149196877,0.6058303765372546,-0.02265184487968816,0.005438381236403515,nan,nan,nan,nan,nan,nan,nan,nan,nan,nan
16.589806079864502,0.05509648099541664,2.5853352546691895,-9.853702545166016,-0.005711344790106432,0.0012314319610595703,0.0,3.0025536867794917,-10.046938109697304,-0.4240912906435565,0.7167341830313353,0.5513816516762011,-0.022751603257204725,0.0050522435132806295,nan,nan,nan,nan,nan,nan,nan,nan,nan,nan
16.737890481948853,0.05509648099541664,2.5853352546691895,-9.853702545166016,-0.005711344790106432,0.001264333724975586,0.0,2.564924386839386,-9.826792353287852,-0.17936631713288642,0.6923418376248041,1.0,-0.022701374356713936,0.005095282763399161,nan,nan,nan,nan,nan,nan,nan,nan,nan,nan
16.743566036224365,0.044590726494789124,2.1647286415100098,-9.502350807189941,-0.00870001136453049,0.0012068748474121094,0.0,2.5440817054121267,-9.799956030765653,-0.1693663171328864,0.7031253058602066,1.0,-0.02216170578213988,0.005655932481279354,nan,nan,nan,nan,nan,nan,nan,nan,nan,nan
16.749704837799072,0.0442519448697567,2.141765832901001,-9.483960151672363,-0.008859439317226145,0.0019838809967041016,0.0,2.522815970273176,-9.773202298882481,-0.1593663171328864,0.7030729309404038,1.0,-0.021761043432339155,0.006282320563514682,nan,nan,nan,nan,nan,nan,nan,nan,nan,nan
16.75982356071472,0.04392084851861,2.118790864944458,-9.465546607971191,-0.009016685585543936,0.0021469593048095703,0.0,2.501136114869673,-9.746539628435436,-0.1493663171328864,0.703024722330974,1.0,-0.021311585544964633,0.0066737328945950265,nan,nan,nan,nan,nan,nan,nan,nan,nan,nan
16.769795656204224,0.043584372848272324,2.0958034992218018,-9.447110176086426,-0.009168197069156947,0.0020325183868408203,0.0,2.47905124049545,-9.719976235769305,-0.13936631713288639,0.7029793042053168,1.0,-0.020838704787863056,0.006973856969290501,nan,nan,nan,nan,nan,nan,nan,nan,nan,nan
16.77962589263916,0.042934443801641464,2.0498099327087402,-9.410168647766113,-0.009481940107571044,0.002009868621826172,0.0,2.45657061047977,-9.69352007894626,-0.12936631713288638,0.7038014355919608,1.0,-0.019913656906638325,0.007140720042317642,nan,nan,nan,nan,nan,nan,nan,nan,nan,nan
16.789885759353638,0.042621366679668427,2.026808977127075,-9.391657829284668,-0.009632356255779902,0.001985788345336914,0.0,2.433703644282852,-9.66717885405417,-0.11936631713288638,0.7038585448282365,1.0,-0.019256065684710715,0.007505685759803307,nan,nan,nan,nan,nan,nan,nan,nan,nan,nan
16.799768209457397,0.042316462844610214,2.00380802154541,-9.373088836669922,-0.009779602909183758,0.002242565155029297,0.0,2.410459911501613,-9.640959991656064,-0.10936631713288639,0.7039424316041892,1.0,-0.01861939597161201,0.007783015442713719,nan,nan,nan,nan,nan,nan,nan,nan,nan,nan
16.809717178344727,0.0420198068022728,1.9808100461959839,-9.354488372802734,-0.009924455872249632,0.0016438961029052734,0.0,2.386849125789145,-9.614870653383113,-0.09936631713288639,0.7040588417278474,1.0,-0.017954531060652996,0.007979276104542595,nan,nan,nan,nan,nan,nan,nan,nan,nan,nan
16.94764733314514,0.0420198068022728,1.9808100461959839,-9.354488372802734,-0.009924455872249632,0.0011196136474609375,0.0,1.954928389823744,-9.32973047704988,-0.04605189277524508,0.690575881904596,1.0,-0.01774641634430392,0.008352474270040603,nan,nan,nan,nan,nan,nan,nan,nan,nan,nan
16.953714847564697,0.02667875960469246,1.5689587593078613,-9.010676383972168,-0.013550577861896854,0.0012083053588867188,0.0,1.9287504701355542,-9.305123886413064,-0.03605189277524508,0.710742549356449,1.0,-0.017299025365659478,0.007510097454607661,nan,nan,nan,nan,nan,nan,nan,nan,nan,nan
16.959631204605103,0.025688277557492256,1.5465534925460815,-8.991159439086914,-0.013780670145860749,0.001134634017944336,0.0,1.9022864617624842,-9.280673941693902,-0.026051892775245077,0.7111202093891098,1.0,-0.017483314922730062,0.008387602233450836,nan,nan,nan,nan,nan,nan,nan,nan,nan,nan
16.969794511795044,0.024721626192331314,1.5242362022399902,-8.97160816192627,-0.014006814476766126,0.0013194084167480469,0.0,1.8755466384245203,-9.256385700323989,-0.016051892775245075,0.7115052816287641,1.0,-0.017353020177074737,0.008221788671386392,nan,nan,nan,nan,nan,nan,nan,nan,nan,nan
16.979743003845215,0.022154616191983223,1.4801563024520874,-8.932147979736328,-0.014445534148374232,0.0013267993927001953,0.0,1.84854136638384,-9.232263934024196,-0.006051892775245074,0.7134688095421021,0.9497735508908786,-0.01801434540220089,0.008710108576841246,nan,nan,nan,nan,nan,nan,nan,nan,nan,nan
16.990029096603394,0.0205545611679554,1.458398699760437,-8.912242889404297,-0.014800041915226755,0.0013933181762695312,0.0,1.8212810978388467,-9.208313126623345,0.003948107224754926,0.7139175252710012,0.8994770042007051,-0.01880046405255874,0.009052326861188165,nan,nan,nan,nan,nan,nan,nan,nan,nan,nan
16.99984073638916,0.018987776711583138,1.4367393255233765,-8.892284393310547,-0.015152077231941091,0.0023479461669921875,0.0,1.793776364263012,-9.18453747203774,0.013948107224754926,0.7143641457367872,0.8493172426078384,-0.01955546971219067,0.009167671845257224,nan,nan,nan,nan,nan,nan,nan,nan,nan,nan
17.009808778762817,0.017453735694289207,1.415183424949646,-8.872298240661621,-0.015502092108302293,0.002076864242553711,0.0,1.7660377696926102,-9.160940872412947,0.023948107224754926,0.7147751214039588,0.7991751474054256,-0.020269556081756637,0.009235397112826713,nan,nan,nan,nan,nan,nan,nan,nan,nan,nan
17.019798517227173,0.014481909573078156,1.372402548789978,-8.832249641418457,-0.016194312132822478,0.0020852088928222656,0.0,1.7380759839674587,-9.137526936429039,0.03394810722475493,0.7167761211983207,0.7048851330452492,-0.021420365099400842,0.009604654591329174,nan,nan,nan,nan,nan,nan,nan,nan,nan,nan
17.02954888343811,0.013043666258454323,1.3511875867843628,-8.812190055847168,-0.0165330013434396,0.0010867118835449219,0.0,1.7099017359288078,-9.114298977770414,0.04394810722475493,0.717157881725362,0.652388160787983,-0.021967652658131782,0.00948294154833549,nan,nan,nan,nan,nan,nan,nan,nan,nan,nan
17.04011869430542,0.01163690909743309,1.3300963640213013,-8.792107582092285,-0.016865206491424187,0.00238037109375,0.0,1.6815258065785452,-9.09126001376119,0.05394810722475493,0.7175318795933809,0.600579247868712,-0.022406454218482925,0.009481568784627413,nan,nan,nan,nan,nan,nan,nan,nan,nan,nan
17.1820969581604,0.01163690909743309,1.3300963640213013,-8.792107582092285,-0.016865206491424187,0.0011582374572753906,0.0,1.300517518592973,-8.772558893718198,0.19012030702680432,0.6996177617573432,1.0,-0.02246848328782719,0.009502995231626593,nan,nan,nan,nan,nan,nan,nan,nan,nan,nan
17.189754247665405,-0.017272628843784332,0.9574974179267883,-8.40532112121582,-0.02308252734675198,0.0012524127960205078,0.0,1.2709015978438607,-8.753192821624559,0.20012030702680433,0.7297210020709549,-0.0280012988490701,-0.023156646489965946,0.004968615425418158,nan,nan,nan,nan,nan,nan,nan,nan,nan,nan
17.199608325958252,-0.018721457570791245,0.939616322517395,-8.384623527526855,-0.023391891970094753,0.0011556148529052734,0.0,1.2412590896834206,-8.734008038187087,0.21012030702680434,0.7302038226663521,-0.051774696073631166,-0.024269742817898354,0.011064472266238452,nan,nan,nan,nan,nan,nan,nan,nan,nan,nan
17.209875106811523,-0.020128784701228142,0.9219335317611694,-8.363887786865234,-0.023693921963352627,0.0012221336364746094,0.0,1.2116004285309894,-8.715002918544128,0.22012030702680435,0.7306899855347984,-0.07402799051796793,-0.023125003861902953,0.011938952206485413,nan,nan,nan,nan,nan,nan,nan,nan,nan,nan
17.21981692314148,-0.022819524630904198,0.8871718645095825,-8.322294235229492,-0.024277646424760435,0.0013027191162109375,0.0,1.1819359882693956,-8.696175541838825,0.23012030702680436,0.7329709184322387,-0.17092337267737245,-0.0217932220730104,0.01243539413742978,nan,nan,nan,nan,nan,nan,nan,nan,nan,nan
17.229811906814575,-0.0241034384816885,0.8700971007347107,-8.301432609558105,-0.024559207265038296,0.0011248588562011719,0.0,1.1522760752271632,-8.677523692634486,0.24012030702680437,0.7334477916794397,-0.19280050989751607,-0.020812123731109074,0.01401035189374007,nan,nan,nan,nan,nan,nan,nan,nan,nan,nan
17.239896535873413,-0.02567601017653942,0.8533347845077515,-8.280967712402344,-0.024834494929723727,0.0012326240539550781,0.0,1.1226309211935936,-8.659044862502109,0.2501203070268044,0.733821677305069,-0.21307460115558374,-0.019955009371929882,0.015065754248089713,nan,nan,nan,nan,nan,nan,nan,nan,nan,nan
17.249881505966187,-0.027201585471630096,0.8367881774902344,-8.260441780090332,-0.025133342795523123,0.0012822151184082031,0.0,1.093010676470974,-8.640736251778883,0.2601203070268044,0.7341562699665544,-0.22842044089719327,-0.01915731575943017,0.015884685868206287,nan,nan,nan,nan,nan,nan,nan,nan,nan,nan
17.259870290756226,-0.03011520765721798,0.8043739199638367,-8.219284057617188,-0.025708187548947575,0.0012788772583007812,0.0,1.0634254029681014,-8.622594771496361,0.2701203070268044,0.7360660800881198,-0.3103296282527066,-0.017863936073280427,0.016301934479808045,nan,nan,nan,nan,nan,nan,nan,nan,nan,nan
17.269734859466553,-0.03150276467204094,0.7884999513626099,-8.198650360107422,-0.025982645262033255,0.0012958049774169922,0.0,1.0338850673392648,-8.604617045476912,0.2801203070268044,0.7363612873474102,-0.308763709932367,-0.016903627305693805,0.017841738106124497,nan,nan,nan,nan,nan,nan,nan,nan,nan,nan
17.4139244556427,-0.03150276467204094,0.7884999513626099,-8.198650360107422,-0.025982645262033255,0.0010426044464111328,0.0,0.7615556614070336,-8.180761159659676,0.35238176368077523,0.720984740774347,1.0,-0.016377843327527397,0.01896859360030132,nan,nan,nan,nan,nan,nan,nan,nan,nan,nan
17.419597387313843,-0.056986015290021896,0.5388875603675842,-7.798578262329102,-0.029234641977973846,0.0010797977447509766,0.0,0.7347334013198343,-8.163003058232135,0.36238176368077524,0.7475259602364809,0.150966245499087,0.0027501785399119756,-0.02102051599518262,nan,nan,nan,nan,nan,nan,nan,nan,nan,nan
17.42968225479126,-0.058253128081560135,0.5283772945404053,-7.777172088623047,-0.02932162698019039,0.0010561943054199219,0.0,0.708042178313272,-8.145369859459194,0.37238176368077525,0.7478144811907439,0.21857947104586872,-0.009201192212145846,0.023223343927928082,nan,nan,nan,nan,nan,nan,nan,nan,nan,nan
17.43996500968933,-0.05946379154920578,0.51805180311203,-7.755748748779297,-0.029401088179307505,0.0012841224670410156,0.0,0.6814908282612018,-8.127855103688148,0.38238176368077526,0.7481079818629534,0.2903233495116808,-5.763872385917469e-05,0.01445741934409552,nan,nan,nan,nan,nan,nan,nan,nan,nan,nan
17.449758291244507,-0.060618702322244644,0.5079094171524048,-7.7342939376831055,-0.029471689977244392,0.0012624263763427734,0.0,0.6550880094596011,-8.110452072093626,0.39238176368077526,0.7484000069037914,0.36581046414191354,7.045191192429794e-05,0.022466270079351945,nan,nan,nan,nan,nan,nan,nan,nan,nan,nan
17.459832668304443,-0.06276081502437592,0.48817795515060425,-7.6913557052612305,-0.029595042863748255,0.0012254714965820312,0.0,0.6288421964849712,-8.093153790939983,0.4023817636807753,0.7498265167816416,0.3922308013152914,0.003921927925667642,0.020390008061225998,nan,nan,nan,nan,nan,nan,nan,nan,nan,nan
17.47005581855774,-0.06374945491552353,0.47858837246894836,-7.6698808670043945,-0.029643206413820927,0.00209808349609375,0.0,0.6027616741539585,-8.075953035988825,0.4123817636807753,0.7500309150360867,0.46143361401200145,0.004686624594495525,0.024121876801271664,nan,nan,nan,nan,nan,nan,nan,nan,nan,nan
17.47978925704956,-0.06468518078327179,0.4691803753376007,-7.648406028747559,-0.02967742390250752,0.0012056827545166016,0.0,0.5768545315874458,-8.058842337048713,0.4223817636807753,0.75022460480109,0.5298318685057121,0.006636815698743235,0.0230742519478925,nan,nan,nan,nan,nan,nan,nan,nan,nan,nan
17.49001669883728,-0.06568769365549088,0.46129944920539856,-7.626550674438477,-0.029698306328056034,0.0013208389282226562,0.0,0.5511286563822657,-8.041813982664056,0.4323817636807753,0.7504148299713245,0.5909783521138448,0.0072167708080288695,0.024257516614873416,nan,nan,nan,nan,nan,nan,nan,nan,nan,nan
17.499549627304077,-0.06752778589725494,0.4460064172744751,-7.582850456237793,-0.029676100999620786,0.0010614395141601562,0.0,0.5255917288935923,-8.024860024940118,0.4423817636807753,0.7516789058593357,0.5758733188011829,0.008876552682113348,0.022582138122061533,nan,nan,nan,nan,nan,nan,nan,nan,nan,nan
17.64740753173828,-0.06752778589725494,0.4460064172744751,-7.582850456237793,-0.029676100999620786,0.0013527870178222656,0.0,0.4269534626684606,-7.56086785301412,0.307327407579164,0.7342957073708303,1.0,0.008409804611047615,0.025718463773084208,nan,nan,nan,nan,nan,nan,nan,nan,nan,nan
17.654301643371582,-0.07491903007030487,0.34516844153404236,-7.191946029663086,-0.028042877127791355,0.002499103546142578,0.0,0.4079571974231057,-7.538995442263674,0.317327407579164,0.7518813600806625,-0.8255372320782413,0.027887200543949144,-0.019564395422375314,nan,nan,nan,nan,nan,nan,nan,nan,nan,nan
17.663119316101074,-0.07483930140733719,0.3389899730682373,-7.148691177368164,-0.027728134625243428,0.0019428730010986328,0.0,0.38902706273578386,-7.5172278206786585,0.327327407579164,0.7528366368708375,-0.9763184025819063,0.014530528154607708,0.020704213798640177,nan,nan,nan,nan,nan,nan,nan,nan,nan,nan
17.669703245162964,-0.074740469455719,0.3361783027648926,-7.127066612243652,-0.027565668324942727,0.001413106918334961,0.0,0.3701723421319771,-7.495559310551544,0.337327407579164,0.7528734892878978,-0.9873234954181558,0.024312769067783638,0.034264141217127814,nan,nan,nan,nan,nan,nan,nan,nan,nan,nan
17.67978525161743,-0.07460661232471466,0.33354708552360535,-7.105439186096191,-0.027399043405479884,0.0012924671173095703,0.0,0.3514021550315895,-7.473983963600995,0.347327407579164,0.7529158824042373,-0.9965381410540006,0.031179723811806673,0.045871247805988266,nan,nan,nan,nan,nan,nan,nan,nan,nan,nan
17.689914226531982,-0.07443450391292572,0.3311072289943695,-7.083807945251465,-0.02723291214119422,0.0014057159423828125,0.0,0.3327254504058726,-7.452495564948289,0.35732740757916404,0.7529901109835314,-1.0,0.03713204589420017,0.055455922645749306,nan,nan,nan,nan,nan,nan,nan,nan,nan,nan
17.69961380958557,-0.07397760450839996,0.32681384682655334,-7.040501594543457,-0.026893870789782726,0.0011639595031738281,0.0,0.3141510005283679,-7.431087637241604,0.36732740757916404,0.7538630035670983,-1.0,0.043747964086994814,0.06424041125043468,nan,nan,nan,nan,nan,nan,nan,nan,nan,nan
17.709848642349243,-0.07369355857372284,0.3249772787094116,-7.018857002258301,-0.026710562143252736,0.001291513442993164,0.0,0.29568739482318884,-7.409753444925508,0.37732740757916405,0.7537608546385075,-1.0,0.04913144277118249,0.07263103215387527,nan,nan,nan,nan,nan,nan,nan,nan,nan,nan
17.719942808151245,-0.07337282598018646,0.32335615158081055,-6.997224807739258,-0.026508929266605946,0.0015377998352050781,0.0,0.27734303381387215,-7.3884859986528735,0.38732740757916406,0.753672656730824,-1.0,0.05403516770856631,0.08030905918084248,nan,nan,nan,nan,nan,nan,nan,nan,nan,nan
17.863561868667603,-0.07337282598018646,0.32335615158081055,-6.997224807739258,-0.026508929266605946,0.0011098384857177734,0.0,0.30935803945010165,-6.974139267830416,0.3963246417622808,0.7470747475568247,0.9381785113321071,0.057635004577945986,0.08692418742053434,nan,nan,nan,nan,nan,nan,nan,nan,nan,nan
17.869866847991943,-0.06784270703792572,0.35244402289390564,-6.58519172668457,-0.019625592225153282,0.00140380859375,0.0,0.2954996804821194,-6.951077544506661,0.4042697405038317,0.7609740436647318,-0.39234473260619307,0.05288989850292109,0.01779410453023608,nan,nan,nan,nan,nan,nan,nan,nan,nan,nan
17.879699230194092,-0.06784270703792572,0.35244402289390564,-6.58519172668457,-0.019625592225153282,0.0011713504791259766,0.0,0.2818213386988416,-6.928012297619085,0.4108445132708118,0.7603632899722987,-0.37393735149790697,0.023113869244787606,0.05744093573471423,nan,nan,nan,nan,nan,nan,nan,nan,nan,nan
17.890151023864746,-0.06720060855150223,0.36202138662338257,-6.542868614196777,-0.018668574349817516,0.0023310184478759766,0.0,0.2683604194229625,-6.90491822187645,0.4161139125018746,0.7610736219318734,-0.4245337631835209,0.026894052083115613,0.05035065704723817,nan,nan,nan,nan,nan,nan,nan,nan,nan,nan
17.899542808532715,-0.06720060855150223,0.36202138662338257,-6.542868614196777,-0.018668574349817516,0.001154184341430664,0.0,0.2551517086313478,-6.8817721618890335,0.4201414316117997,0.7604796992247175,-0.4072606572838877,0.02550733964246637,0.05055201276556709,nan,nan,nan,nan,nan,nan,nan,nan,nan,nan
17.909900903701782,-0.06597057729959488,0.37704887986183167,-6.479475021362305,-0.01725005807985512,0.0015056133270263672,0.0,0.2422275828825592,-6.8585531876666845,0.4229890639159323,0.7617491468474935,-0.476678187142898,0.021115825742112113,0.04919794653780596,nan,nan,nan,nan,nan,nan,nan,nan,nan,nan
17.919681310653687,-0.06597057729959488,0.37704887986183167,-6.479475021362305,-0.01725005807985512,0.001840829849243164,0.0,0.22961819132874783,-6.835242636246158,0.4247172708984383,0.7611741106510332,-0.4611564688974332,0.020126622131288473,0.046143370909823594,nan,nan,nan,nan,nan,nan,nan,nan,nan,nan
17.92974591255188,-0.06497905403375626,0.38746994733810425,-6.437355995178223,-0.01630624692300292,0.0013151168823242188,0.0,0.21735161172292508,-6.811824124378231,0.42538495910702384,0.7617040658300464,-0.5076577159865461,0.01630799412426449,0.04360987134414247,nan,nan,nan,nan,nan,nan,nan,nan,nan,nan
17.9399151802063,-0.06497905403375626,0.38746994733810425,-6.437355995178223,-0.01630624692300292,0.002027750015258789,0.0,0.20545398259626454,-6.788283536543323,0.4250494649142402,0.7611385619026946,-0.49329815032397706,0.015139581909482362,0.04044487763467734,nan,nan,nan,nan,nan,nan,nan,nan,nan,nan
18.084436178207397,-0.06497905403375626,0.38746994733810425,-6.437355995178223,-0.01630624692300292,0.001302957534790039,0.0,0.38454092967222975,-6.41105734450162,0.200435847269074,0.746265852046605,-1.0,0.014229046860496608,0.0382135219374223,nan,nan,nan,nan,nan,nan,nan,nan,nan,nan
18.091182470321655,-0.04518936574459076,0.511073648929596,-6.047672271728516,-0.009588694576527203,0.0021772384643554688,0.0,0.3820831714250916,-6.384726350740032,0.190435847269074,0.7546292853662211,-1.0,0.018853330982045956,0.03004132889973491,nan,nan,nan,nan,nan,nan,nan,nan,nan,nan
18.099512577056885,-0.04381721466779709,0.518197238445282,-6.027580738067627,-0.009283433472892344,0.001047372817993164,0.0,0.380087688398903,-6.358372191432124,0.180435847269074,0.7544537525728784,-1.0,0.01792024186977157,0.02386653875930976,nan,nan,nan,nan,nan,nan,nan,nan,nan,nan
18.109822273254395,-0.04102819412946701,0.5324605703353882,-5.987483024597168,-0.008683274830697293,0.0013263225555419922,0.0,0.378545316939302,-6.332003763273105,0.170435847269074,0.7547752680012042,-1.0,0.018488620634062085,0.020411628641464837,nan,nan,nan,nan,nan,nan,nan,nan,nan,nan
18.119905471801758,-0.03896849974989891,0.540462076663971,-5.9688401222229,-0.008386210884424573,0.002177000045776367,0.0,0.37744672057579465,-6.305629678341107,0.16043584726907398,0.7545271386437701,-1.0,0.019194427523052896,0.018434386398330307,nan,nan,nan,nan,nan,nan,nan,nan,nan,nan
18.12960934638977,-0.036906905472278595,0.5484544634819031,-5.950200080871582,-0.008105393087516309,0.0012049674987792969,0.0,0.3767823967464289,-6.279258260481506,0.15043584726907397,0.754287534515464,-1.0,0.020155308125358717,0.017284095780433908,nan,nan,nan,nan,nan,nan,nan,nan,nan,nan
18.139997243881226,-0.03484335169196129,0.5564363598823547,-5.931562900543213,-0.007827704031043298,0.0015523433685302734,0.0,0.37654268360286164,-6.2528975418512704,0.14043584726907396,0.7540714054332673,-1.0,0.021235058633624508,0.016504129937345187,nan,nan,nan,nan,nan,nan,nan,nan,nan,nan
18.14972233772278,-0.030709628015756607,0.5723636150360107,-5.894298076629639,-0.007280750941780788,0.0011584758758544922,0.0,0.37671776689192493,-6.226555259625277,0.13043584726907395,0.7543391737324238,-1.0,0.02371303580736628,0.016047859068373752,nan,nan,nan,nan,nan,nan,nan,nan,nan,nan
18.159870386123657,-0.02863919734954834,0.5803051590919495,-5.875655651092529,-0.00701164763226355,0.001295328140258789,0.0,0.3772976869097436,-6.200238852866412,0.12043584726907396,0.7541750220936148,-1.0,0.024782919972274144,0.014904432599524217,nan,nan,nan,nan,nan,nan,nan,nan,nan,nan
18.169660329818726,-0.026566281914711,0.5882284641265869,-5.85701847076416,-0.006746248303721981,0.0014379024505615234,0.0,0.37827234552440864,-6.173955459561167,0.11043584726907396,0.7540297784881148,-1.0,0.025769284919018073,0.013866901304027887,nan,nan,nan,nan,nan,nan,nan,nan,nan,nan
18.31159019470215,-0.026566281914711,0.5882284641265869,-5.85701847076416,-0.006746248303721981,0.001209259033203125,0.0,0.5928298275876748,-5.8318606428020345,0.051730911840910665,0.7462947411940966,-1.0,0.025663708784573507,0.012936932967056655,nan,nan,nan,nan,nan,nan,nan,nan,nan,nan
18.319612503051758,0.011040660552680492,0.7391409873962402,-5.501852512359619,-0.0022392491444038973,0.0013682842254638672,0.0,0.5977449139721347,-5.806784907428078,0.04173091184091066,0.7560639122682371,-0.3734218833808398,0.03349680526776753,0.0037924248653596194,nan,nan,nan,nan,nan,nan,nan,nan,nan,nan
18.32991933822632,0.012952903285622597,0.7466619610786438,-5.483177661895752,-0.0020194412213050614,0.0011668205261230469,0.0,0.6029627740684211,-5.781795916232273,0.03173091184091066,0.7560368026424774,-0.34769528862785326,0.03374200474786987,0.0020459912559854378,nan,nan,nan,nan,nan,nan,nan,nan,nan,nan
18.339760303497314,0.014868650585412979,0.7540632486343384,-5.464521884918213,-0.0018026936024662654,0.0013074874877929688,0.0,0.6084723841982658,-5.756898003713366,0.02173091184091066,0.7560116462671264,-0.3218756426192929,0.033771951294003365,0.0006499044134710413,nan,nan,nan,nan,nan,nan,nan,nan,nan,nan
18.349932432174683,0.018709860742092133,0.76848965883255,-5.4272661209106445,-0.0013793177336291623,0.0011794567108154297,0.0,0.6142626535892812,-5.7320951858806355,0.011730911840910659,0.756667806060675,-0.219060897574054,0.033805063328625394,-0.001354537366754276,nan,nan,nan,nan,nan,nan,nan,nan,nan,nan
18.35989212989807,0.020634867250919342,0.7755062580108643,-5.408652305603027,-0.0011753736544266036,0.0014035701751708984,0.0,0.6203224317767014,-5.707391159028587,0.0017309118409106587,0.7566494340784007,-0.19063468961472463,0.03384719200868951,-0.0017310293568967299,nan,nan,nan,nan,nan,nan,nan,nan,nan,nan
18.369659662246704,0.023215245455503464,0.7831104397773743,-5.390226364135742,-0.000978627575559124,0.0012655258178710938,0.0,0.6266405160301006,-5.682789298685145,-0.008269088159089341,0.7565902470756919,-0.16834740529240177,0.03419280381858815,-0.0022300696414628983,nan,nan,nan,nan,nan,nan,nan,nan,nan,nan
18.379852056503296,0.025784969329833984,0.7905579209327698,-5.371820449829102,-0.000831086021566188,0.002116680145263672,0.0,0.6332056588009219,-5.658292658733774,-0.01826908815908934,0.756521608599576,-0.1503198863527926,0.03447440918342297,-0.002948477196812849,nan,nan,nan,nan,nan,nan,nan,nan,nan,nan
18.389801502227783,0.030907465144991875,0.8049577474594116,-5.33506965637207,-0.000558208905473187,0.0014736652374267578,0.0,0.6400065751866442,-5.633903970709856,-0.028269088159089344,0.7570812790787741,-0.06736665328208813,0.03472565109469147,-0.004399343345138599,nan,nan,nan,nan,nan,nan,nan,nan,nan,nan
18.529860973358154,0.030907465144991875,0.8049577474594116,-5.33506965637207,-0.000558208905473187,0.0012421607971191406,0.0,0.8140140338780897,-5.3126982111206855,-0.17386284928846774,0.7528845338549154,-1.0,0.03496259336181684,-0.003970861391024251,nan,nan,nan,nan,nan,nan,nan,nan,nan,nan
18.539746046066284,0.0754576176404953,0.9033895134925842,-5.010143280029297,0.0005793300255365202,0.003028392791748047,0.0,0.8231264831470645,-5.290445095764804,-0.18386284928846774,0.7628301665319074,-0.11338691126514489,0.026557270099892356,-0.02681014431817644,nan,nan,nan,nan,nan,nan,nan,nan,nan,nan
18.549798488616943,0.08027483522891998,0.9107568264007568,-4.974948406219482,0.0005392752090935954,0.0011949539184570312,0.0,0.8322841089235025,-5.268307633800906,-0.19386284928846775,0.7633358003404273,-0.11305903065114575,0.03199893800138929,-0.015282658463664764,nan,nan,nan,nan,nan,nan,nan,nan,nan,nan
18.560077905654907,0.08267079293727875,0.9141805768013,-4.957351207733154,0.000515555075502383,0.0022389888763427734,0.0,0.8414760198471583,-5.246282838207701,-0.20386284928846776,0.7633049601449854,-0.1680437432912889,0.02975449558334253,-0.01536739132724664,nan,nan,nan,nan,nan,nan,nan,nan,nan,nan
18.569631099700928,0.08505813032388687,0.917431652545929,-4.939764022827148,0.0004906082025961933,0.0015990734100341797,0.0,0.8506914266833954,-5.2243674138823515,-0.21386284928846777,0.763269300507832,-0.2252700363704212,0.02930604152575012,-0.014528090377421143,nan,nan,nan,nan,nan,nan,nan,nan,nan,nan
18.579777240753174,0.08743663132190704,0.9205102324485779,-4.9221906661987305,0.0004582633934522018,0.0012676715850830078,0.0,0.8599196494073551,-5.2025577602401745,-0.22386284928846778,0.763193634956551,-0.282245793070369,0.028625779356284523,-0.014634793269109173,nan,nan,nan,nan,nan,nan,nan,nan,nan,nan
18.589816331863403,0.09217561036348343,0.9261417388916016,-4.887104511260986,0.0003818515452306548,0.001422882080078125,0.0,0.8691501242255415,-5.180849973976103,-0.2338628492884678,0.7635237751070416,-0.27470320825808126,0.027450930512212944,-0.015236892728947272,nan,nan,nan,nan,nan,nan,nan,nan,nan,nan
18.59980082511902,0.09453552961349487,0.928693413734436,-4.869595527648926,0.00034259854515771015,0.0012764930725097656,0.0,0.8783724105311438,-5.159239851986075,-0.2438628492884678,0.7634040859291797,-0.32986240192381255,0.02703397399148296,-0.014708658822041351,nan,nan,nan,nan,nan,nan,nan,nan,nan,nan
18.610018491744995,0.0968855619430542,0.9310705065727234,-4.852095603942871,0.00029848474858414076,0.00145721435546875,0.0,0.887576197789483,-5.137722894446455,-0.2538628492884678,0.763291242345829,-0.3871907919477162,0.02637679318779235,-0.014801049266201426,nan,nan,nan,nan,nan,nan,nan,nan,nan,nan
18.61983323097229,0.09946464747190475,0.9327841997146606,-4.834672451019287,0.00025120100223327557,0.0022487640380859375,0.0,0.8967513123500325,-5.116294308049455,-0.2638628492884678,0.7631771155768519,-0.44416138595981935,0.025999412466705722,-0.014610986537177274,nan,nan,nan,nan,nan,nan,nan,nan,nan,nan
18.76256823539734,0.09946464747190475,0.9327841997146606,-4.834672451019287,0.00025120100223327557,0.0010786056518554688,0.0,0.938512328431297,-4.812952249696882,-0.22595400831824966,0.7576931282823679,-1.0,0.026212881065162258,-0.014030760995675871,nan,nan,nan,nan,nan,nan,nan,nan,nan,nan
18.76950240135193,0.14134778082370758,0.93001389503479,-4.508504867553711,-0.0007352332916098492,0.0013511180877685547,0.0,0.9442374862492022,-4.79130903352744,-0.23595400831824967,0.7644554957127265,0.5636026267494292,0.014199049225836024,-0.0255250948566211,nan,nan,nan,nan,nan,nan,nan,nan,nan,nan
18.77979326248169,0.14261427521705627,0.9275466203689575,-4.491719722747803,-0.0007730783669246122,0.0011990070343017578,0.0,0.9499494340547748,-4.769738298376303,-0.24595400831824968,0.764307195827426,0.5414298843322631,0.01757474990847776,-0.015466342407689723,nan,nan,nan,nan,nan,nan,nan,nan,nan,nan
18.789807319641113,0.1451611965894699,0.9220796227455139,-4.458190441131592,-0.0008571792126301214,0.0011887550354003906,0.0,0.9556380705014297,-4.7482352458176615,-0.25595400831824966,0.7644313525148694,0.6332550383209568,0.013161899761560418,-0.012841826651733494,nan,nan,nan,nan,nan,nan,nan,nan,nan,nan
18.799800872802734,0.14644047617912292,0.9190757870674133,-4.441445827484131,-0.0009038852287385768,0.0012521743774414062,0.0,0.9612934387709231,-4.72679478655219,-0.2651764902036351,0.7642685880645946,0.6878242797169059,0.011460797487637002,-0.009597651461662344,nan,nan,nan,nan,nan,nan,nan,nan,nan,nan
18.810364484786987,0.14773070812225342,0.9158858060836792,-4.424703121185303,-0.000953143540503798,0.0022003650665283203,0.0,0.9668891057004096,-4.705407186780447,-0.27321097873835803,0.7640823234710291,0.7892769517248077,0.009584778658586366,-0.007399492580592409,nan,nan,nan,nan,nan,nan,nan,nan,nan,nan
18.819520711898804,0.14902329444885254,0.9125084280967712,-4.407981872558594,-0.0009978817832691222,0.0011715888977050781,0.0,0.9723908486147992,-4.684060544076051,-0.2801113015130882,0.7638281894189805,0.8922994217273628,0.00790506653721722,-0.005431756717253534,nan,nan,nan,nan,nan,nan,nan,nan,nan,nan
18.8298659324646,0.15161284804344177,0.9051726460456848,-4.374624252319336,-0.0010859674338776493,0.0012364387512207031,0.0,0.9777669306941014,-4.662743705602417,-0.2859301524652081,0.763667802664727,1.0,0.005162128092428246,-0.003714180075810012,nan,nan,nan,nan,nan,nan,nan,nan,nan,nan
18.839646339416504,0.1529088318347931,0.9012100696563721,-4.357986927032471,-0.001128357961241666,0.001344442367553711,0.0,0.9829879518132411,-4.641446390896196,-0.29071905859758757,0.7634359339607004,1.0,0.003762425054459915,-0.001960712249454032,nan,nan,nan,nan,nan,nan,nan,nan,nan,nan
18.849841356277466,0.15420515835285187,0.8970509171485901,-4.341373920440674,-0.0011673126215518692,0.0013670921325683594,0.0,0.9880267108014922,-4.620159284380894,-0.29452835226416174,0.7632420887092641,1.0,0.0024462971080410935,-0.0008126806064774651,nan,nan,nan,nan,nan,nan,nan,nan,nan,nan
18.988963842391968,0.15420515835285187,0.8970509171485901,-4.341373920440674,-0.0011673126215518692,0.0013885498046875,0.0,0.8983154651206745,-4.319599002406927,-0.2869117784867007,0.7616356408046341,0.37786930183727696,0.0024807445838962196,-0.00010803723834018444,nan,nan,nan,nan,nan,nan,nan,nan,nan,nan
18.99445652961731,0.1793660670518875,0.7705205678939819,-4.0377116203308105,-0.0017184819843779897,0.0011265277862548828,0.0,0.8992065185187185,-4.297813269645713,-0.28261205507207576,0.76538995899468,1.0,-0.005138827131549737,-0.00012521080501256936,nan,nan,nan,nan,nan,nan,nan,nan,nan,nan
18.999659299850464,0.1793660670518875,0.7705205678939819,-4.0377116203308105,-0.0017184819843779897,0.0011272430419921875,0.0,0.8997160730405356,-4.276019959131104,-0.27782793171311043,0.7650509386938041,1.0,-0.004498424596955184,0.0007668017479011986,nan,nan,nan,nan,nan,nan,nan,nan,nan,nan
19.00992751121521,0.1802879422903061,0.760735273361206,-4.0224432945251465,-0.0017566159349082788,0.0012812614440917969,0.0,0.8998374150910217,-4.254223008312026,-0.272594830178666,0.7649150677829749,1.0,-0.005127203931562533,0.0015305502808147537,nan,nan,nan,nan,nan,nan,nan,nan,nan,nan
19.019683361053467,0.18120867013931274,0.7508918642997742,-4.007190704345703,-0.0017943141502422405,0.0012235641479492188,0.0,0.8995650790196841,-4.232426984161214,-0.26694697978558507,0.7647862252240611,1.0,-0.005478779070153937,0.0016968081559293486,nan,nan,nan,nan,nan,nan,nan,nan,nan,nan
19.02981686592102,0.18306264281272888,0.731036365032196,-3.976743221282959,-0.00187540647540467,0.0012569427490234375,0.0,0.8988948055082202,-4.210637011186967,-0.2609174345244045,0.7648570922520875,1.0,-0.006143529833946907,0.001713600768598696,nan,nan,nan,nan,nan,nan,nan,nan,nan,nan
19.03975749015808,0.18399474024772644,0.7210333347320557,-3.961555004119873,-0.0019147806836840725,0.0012319087982177734,0.0,0.8978235006195064,-4.188858699175371,-0.2545380908842287,0.7647134028385956,1.0,-0.00631766782706528,0.0013941369788925979,nan,nan,nan,nan,nan,nan,nan,nan,nan,nan
19.049898624420166,0.184929758310318,0.7109862565994263,-3.94639253616333,-0.0019542131254642117,0.0012805461883544922,0.0,0.8963491950978303,-4.167098071350397,-0.24783970620659204,0.7645744942125482,1.0,-0.006475640300360567,0.0011461874775210868,nan,nan,nan,nan,nan,nan,nan,nan,nan,nan
19.059911489486694,0.18586726486682892,0.7008996605873108,-3.931239128112793,-0.001991623179800832,0.0013606548309326172,0.0,0.8944710035858483,-4.145361493565666,-0.24085191742219642,0.7644428125304296,1.0,-0.006563264107113124,0.0009042804658572299,nan,nan,nan,nan,nan,nan,nan,nan,nan,nan
19.069636821746826,0.18586726486682892,0.7008996605873108,-3.931239128112793,-0.001991623179800832,0.0020804405212402344,0.0,0.89218908349559,-4.123655605073426,-0.23360326004696852,0.7640883939045058,1.0,-0.006510725989380326,0.0007395340505217275,nan,nan,nan,nan,nan,nan,nan,nan,nan,nan
19.21459674835205,0.18586726486682892,0.7008996605873108,-3.931239128112793,-0.001991623179800832,0.0011920928955078125,0.0,0.6933620651008274,-3.91033754104641,-0.09975433373699459,0.7554419120616959,1.0,-0.006276856592268696,0.0006090433125710368,nan,nan,nan,nan,nan,nan,nan,nan,nan,nan
19.219740867614746,0.2043852061033249,0.490536093711853,-3.643223285675049,-0.002925079929428965,0.0010242462158203125,0.0,0.685502736084833,-3.8895638514985373,-0.0897543337369946,0.7596113426731178,0.6139350444182681,-0.004776167043649324,-0.0023070590533175086,nan,nan,nan,nan,nan,nan,nan,nan,nan,nan
19.229791164398193,0.2043852061033249,0.490536093711853,-3.643223285675049,-0.002925079929428965,0.001245737075805664,0.0,0.6773331912291393,-3.868923392046002,-0.0797543337369946,0.7591497078280244,0.6307123887681629,-0.005737323841721618,-6.313642634904294e-05,nan,nan,nan,nan,nan,nan,nan,nan,nan,nan
19.23971700668335,0.20713506639003754,0.45985499024391174,-3.6014766693115234,-0.0030632939961462366,0.0012738704681396484,0.0,0.6688650415731134,-3.84842117228221,-0.0697543337369946,0.7597666651996702,0.49464448812138184,-0.00472210118749997,-0.0010422346373192958,nan,nan,nan,nan,nan,nan,nan,nan,nan,nan
19.249963521957397,0.20713506639003754,0.45985499024391174,-3.6014766693115234,-0.0030632939961462366,0.0012214183807373047,0.0,0.660109984088887,-3.828061877082597,-0.059754333736994604,0.7592941254562138,0.5165962536916576,-0.005090131979450472,3.4483554240372376e-05,nan,nan,nan,nan,nan,nan,nan,nan,nan,nan
19.260109663009644,0.20869620144367218,0.4392555058002472,-3.5746841430664062,-0.0031537801764796314,0.0014891624450683594,0.0,0.6510797942304253,-3.8078498650407724,-0.0497543337369946,0.7595315924591243,0.42945117198101357,-0.004595544720790082,-0.0003723948322491202,nan,nan,nan,nan,nan,nan,nan,nan,nan,nan
19.269688367843628,0.20869620144367218,0.4392555058002472,-3.5746841430664062,-0.0031537801764796314,0.0011544227600097656,0.0,0.6417863184524758,-3.787789167076009,-0.0397543337369946,0.7590521298263775,0.4562514852352392,-0.004752900854431506,0.0001775466699031631,nan,nan,nan,nan,nan,nan,nan,nan,nan,nan
19.280024766921997,0.21104182302951813,0.4091625213623047,-3.534548759460449,-0.003285286252042524,0.0020956993103027344,0.0,0.6322414667034244,-3.767883485212617,-0.029754333736994598,0.7597153275084396,0.31564891729415256,-0.004196473115132297,-0.00030640291362211795,nan,nan,nan,nan,nan,nan,nan,nan,nan,nan
19.2896945476532,0.21104182302951813,0.4091625213623047,-3.534548759460449,-0.003285286252042524,0.0023088455200195312,0.0,0.6224572048960976,-3.7481361915316214,-0.019754333736994596,0.7592270362112097,0.34768413692098266,-0.004381854894315594,0.0003812566503422505,nan,nan,nan,nan,nan,nan,nan,nan,nan,nan
19.426827430725098,0.21104182302951813,0.4091625213623047,-3.534548759460449,-0.003285286252042524,0.0021686553955078125,0.0,0.3971124988783093,-3.517826628083744,0.1414109031728177,0.7528104740351039,1.0,-0.004033789776163109,0.00025453046848714946,nan,nan,nan,nan,nan,nan,nan,nan,nan,nan
19.433159589767456,0.2242083102464676,0.26351550221443176,-3.3091158866882324,-0.0038554559291816004,0.0011031627655029297,0.0,0.3850308516103,-3.5012623913194836,0.15141090317281772,0.759252032022715,0.22069538406386302,-0.0018097269221584262,-0.003011853747014645,nan,nan,nan,nan,nan,nan,nan,nan,nan,nan
19.439801931381226,0.22570063173770905,0.24957528710365295,-3.2828421592712402,-0.003910838321195612,0.0020711421966552734,0.0,0.3729291342047104,-3.4848536163515322,0.16141090317281773,0.759654340494866,0.18835507987329703,-0.0033237944188526363,0.0014643479683341966,nan,nan,nan,nan,nan,nan,nan,nan,nan,nan
19.44982075691223,0.22644272446632385,0.2428354024887085,-3.269716262817383,-0.003937565396958942,0.001155853271484375,0.0,0.36081881904347274,-3.468597552674634,0.17141090317281774,0.7596317788947999,0.21310999431733335,-0.0016976576732800268,0.00011662999425027362,nan,nan,nan,nan,nan,nan,nan,nan,nan,nan
19.45988368988037,0.22718246281147003,0.23625336587429047,-3.256598949432373,-0.003964061264916191,0.0013625621795654297,0.0,0.3487112890171309,-3.4524911342002818,0.18118852037915747,0.7596125217282292,0.21760026275602584,-0.002189666770537433,0.0017913806492314845,nan,nan,nan,nan,nan,nan,nan,nan,nan,nan
19.469801902770996,0.22791984677314758,0.2298307567834854,-3.243466377258301,-0.003992274990589989,0.0016658306121826172,0.0,0.3366213799113531,-3.436528292543757,0.19009144559810529,0.7595928400172114,0.15696128933652365,-0.0014654228885872015,0.0012282228989944923,nan,nan,nan,nan,nan,nan,nan,nan,nan,nan
19.47969698905945,0.22938692569732666,0.21747159957885742,-3.217233657836914,-0.004043619568589077,0.0012378692626953125,0.0,0.32457384598134764,-3.4206948485653443,0.1981532914436288,0.759955991871647,0.03172476606462449,-0.0014503065434428345,0.0019904443559639966,nan,nan,nan,nan,nan,nan,nan,nan,nan,nan
19.48975396156311,0.23011653125286102,0.21153917908668518,-3.2041358947753906,-0.00406857855204483,0.0015854835510253906,0.0,0.3125916539235885,-3.404977045783945,0.20540718566830599,0.759912767219272,-0.032509296793427955,-0.0010743748878412267,0.0022278813155173576,nan,nan,nan,nan,nan,nan,nan,nan,nan,nan
19.499714374542236,0.23084348440170288,0.20577386021614075,-3.1910510063171387,-0.004091424458216392,0.0011970996856689453,0.0,0.3006960878207156,-3.3893616431565072,0.21188574334731816,0.759876980232617,-0.09659690417309741,-0.0009119238875680539,0.0027078715578598782,nan,nan,nan,nan,nan,nan,nan,nan,nan,nan
19.509945392608643,0.23134064674377441,0.2010575830936432,-3.1795201301574707,-0.004115142300203961,0.0013000965118408203,0.0,0.2889068490439847,-3.373835990450518,0.21762104107959385,0.7597521160232408,-0.16362228137916357,-0.0007940118008848233,0.0030834796850864473,nan,nan,nan,nan,nan,nan,nan,nan,nan,nan
19.51966381072998,0.23233261704444885,0.19209235906600952,-3.156315326690674,-0.00415171241835087,0.0011644363403320312,0.0,0.2772421506879678,-3.358388088018586,0.22264459331338277,0.7599482758022191,-0.29665808926815007,-0.000772396794130146,0.003417753600324523,nan,nan,nan,nan,nan,nan,nan,nan,nan,nan
19.6638400554657,0.23233261704444885,0.19209235906600952,-3.156315326690674,-0.00415171241835087,0.0012557506561279297,0.0,0.18294566593195594,-3.141121872177437,0.2434897212113657,0.7556829225313672,0.18037531831489595,-0.00047013737123534994,0.0037108630620436268,nan,nan,nan,nan,nan,nan,nan,nan,nan,nan
19.669556856155396,0.2435094118118286,0.142408549785614,-2.94387149810791,-0.00437254055304899,0.0011408329010009766,0.0,0.1740142253735157,-3.1259482126965246,0.24471091491110278,0.7606427194397185,-0.7213212126921159,0.00047914833069292084,0.002772321244953626,nan,nan,nan,nan,nan,nan,nan,nan,nan,nan
19.679872512817383,0.24518130719661713,0.140508770942688,-2.9200353622436523,-0.004381284651597872,0.001495361328125,0.0,0.16530857769501198,-3.1107880457656245,0.24537951896045385,0.7607923932017739,-0.7953791878969801,0.000701796936376788,0.004426493276431366,nan,nan,nan,nan,nan,nan,nan,nan,nan,nan
19.690032720565796,0.24600756168365479,0.13976925611495972,-2.90811824798584,-0.004385074200712977,0.002172231674194336,0.0,0.15683824614034778,-3.0956358524941083,0.2455247475308824,0.7606976510269402,-0.8303334485198304,0.0013805418045352365,0.005431595448032263,nan,nan,nan,nan,nan,nan,nan,nan,nan,nan
19.699740409851074,0.24682752788066864,0.13916781544685364,-2.8962032794952393,-0.004386079225064302,0.0012705326080322266,0.0,0.14861178856585705,-3.080486876104016,0.24517505465353462,0.7606014092767357,-0.8647297105651,0.0017736788419255485,0.006103705258222883,nan,nan,nan,nan,nan,nan,nan,nan,nan,nan
19.709978103637695,0.24764113128185272,0.1387028992176056,-2.8842928409576416,-0.0043865313166494,0.0014200210571289062,0.0,0.14063684494958428,-3.0653370959548347,0.2443581315234054,0.7604886358269081,-0.8996710110302686,0.002112143554867426,0.006517698613875125,nan,nan,nan,nan,nan,nan,nan,nan,nan,nan
19.719710111618042,0.24925467371940613,0.13818123936653137,-2.860442876815796,-0.004385667965211004,0.001222372055053711,0.0,0.13292018116736082,-3.0501831978499325,0.24310090545140173,0.7605092668669845,-0.9696341454984009,0.0026124220781675775,0.006776817009670153,nan,nan,nan,nan,nan,nan,nan,nan,nan,nan
19.73006296157837,0.25005462765693665,0.13812290132045746,-2.8485403060913086,-0.004395415956164189,0.0013535022735595703,0.0,0.12546772945342546,-3.0350225413229515,0.24142954033119007,0.7603521889613243,-0.99884894457796,0.002781529469973167,0.006805142978473391,nan,nan,nan,nan,nan,nan,nan,nan,nan,nan
19.740387439727783,0.25084835290908813,0.13819678127765656,-2.836653709411621,-0.004403828797890641,0.0018541812896728516,0.0,0.11828462594464505,-3.0198531245303926,0.23936943849126208,0.760210083276992,-1.0,0.0029399786937902646,0.006749427088781372,nan,nan,nan,nan,nan,nan,nan,nan,nan,nan
19.892338752746582,0.25084835290908813,0.13819678127765656,-2.836653709411621,-0.004403828797890641,0.0014183521270751953,0.0,0.13494716950222482,-2.821109282345368,0.19324129416549973,0.7559007574277361,-0.910472774509993,0.0031153835429762375,0.006741980245579487,nan,nan,nan,nan,nan,nan,nan,nan,nan,nan
19.899812936782837,0.26999717950820923,0.18183410167694092,-2.6054837703704834,-0.004512848170524775,0.0023217201232910156,0.0,0.13204468088599383,-2.805559705465086,0.1842637314805685,0.7588429182245149,-0.7356480763578446,0.007427027480502287,0.006724988746722496,nan,nan,nan,nan,nan,nan,nan,nan,nan,nan
19.909754991531372,0.2711302936077118,0.18576814234256744,-2.594158887863159,-0.0045463065429131,0.0015032291412353516,0.0,0.1294785539519285,-2.7900120149082412,0.17542086558326944,0.7587118337612203,-0.7013415297614889,0.0065533616722271,0.004460837997915348,nan,nan,nan,nan,nan,nan,nan,nan,nan,nan
19.919838428497314,0.27335381507873535,0.1936030089855194,-2.5715410709381104,-0.004610059263203124,0.0013494491577148438,0.0,0.12723790939919108,-2.7744728716701337,0.16671966459976983,0.7587503779889249,-0.6239124082255465,0.007419299623022637,0.004053656190250164,nan,nan,nan,nan,nan,nan,nan,nan,nan,nan
19.929943561553955,0.274444580078125,0.19749432802200317,-2.5602786540985107,-0.004640522979139893,0.0015881061553955078,0.0,0.1253117778797846,-2.7589485593768024,0.1581665498083343,0.7586358448773882,-0.5830051582014735,0.007525285299042663,0.003640040673599505,nan,nan,nan,nan,nan,nan,nan,nan,nan,nan
19.93988347053528,0.2755354046821594,0.20135506987571716,-2.549046754837036,-0.004670818483185613,0.001657724380493164,0.0,0.12368912693325691,-2.7434449843198907,0.14976741224240847,0.7585304735766699,-0.5401018461394529,0.007819899492353751,0.00350594343916996,nan,nan,nan,nan,nan,nan,nan,nan,nan,nan
19.950193881988525,0.27661266922950745,0.20518706738948822,-2.5378458499908447,-0.004701079047892784,0.0023560523986816406,0.0,0.12235888698085923,-2.7279676775689787,0.141527629153242,0.758415424070725,-0.4958017242714192,0.008049354804034728,0.003387006187750353,nan,nan,nan,nan,nan,nan,nan,nan,nan,nan
19.95976424217224,0.2787272036075592,0.21274539828300476,-2.515543222427368,-0.004753680122174765,0.0023703575134277344,0.0,0.12130997629484462,-2.712521798978066,0.13345208033961528,0.7584672713285381,-0.40335997296335047,0.008456346666489924,0.0031780444044152267,nan,nan,nan,nan,nan,nan,nan,nan,nan,nan
20.126303911209106,0.2787272036075592,0.21274539828300476,-2.515543222427368,-0.004753680122174765,0.0014801025390625,0.0,0.21543782292706143,-2.5011970030795134,-0.022441899417723028,0.7542039625792224,-0.8654996438875611,0.008625478076512745,0.0033994806554373033,nan,nan,nan,nan,nan,nan,nan,nan,nan,nan
20.13232445716858,0.3036823272705078,0.29751652479171753,-2.2879366874694824,-0.006149808538643206,0.0012235641479492188,0.0,0.21823946120022683,-2.4869337906340148,-0.030541691436748678,0.7575807904444409,-0.06350078111039159,0.011918267566712376,0.0009721860201697321,nan,nan,nan,nan,nan,nan,nan,nan,nan,nan
20.139689207077026,0.30499839782714844,0.29999446868896484,-2.2778451442718506,-0.00621608509080368,0.0021209716796875,0.0,0.22113272615182447,-2.472752468255721,-0.03810391773484824,0.7574607420940521,-0.019738336664443024,0.011750596102811301,0.0008883799731723759,nan,nan,nan,nan,nan,nan,nan,nan,nan,nan
20.14989185333252,0.306289404630661,0.3023715019226074,-2.2677745819091797,-0.00628125451510584,0.0013768672943115234,0.0,0.2241009652993962,-2.4586516155291798,-0.04514609359802203,0.7573413203262517,0.024940680048698316,0.011896606532764876,0.0011368624001790156,nan,nan,nan,nan,nan,nan,nan,nan,nan,nan
20.16007137298584,0.30881255865097046,0.3068135380744934,-2.2476985454559326,-0.006413967802201756,0.0015895366668701172,0.0,0.2271284366858289,-2.4446295726332856,-0.0516855928059597,0.7573737706863632,0.12063805488475199,0.011946186623761736,0.0012498040486862757,nan,nan,nan,nan,nan,nan,nan,nan,nan,nan
20.16975498199463,0.31004512310028076,0.3088741898536682,-2.2376675605773926,-0.006476421560335191,0.0012862682342529297,0.0,0.2302002834353571,-2.43068449770429,-0.05773963026972987,0.7572288837136681,0.1697046272537477,0.011941626124892543,0.0017798944329273838,nan,nan,nan,nan,nan,nan,nan,nan,nan,nan
20.180132389068604,0.31125855445861816,0.3108244240283966,-2.2276644706726074,-0.006534680554622932,0.001786947250366211,0.0,0.23330250723148288,-2.4168144178135367,-0.06332524546124328,0.7570692151886782,0.21950242460419844,0.011847869996082052,0.002224924800071715,nan,nan,nan,nan,nan,nan,nan,nan,nan,nan
20.189778327941895,0.3124527931213379,0.3126615881919861,-2.2176899909973145,-0.006593357143287695,0.0022361278533935547,0.0,0.23642194107723727,-2.403017273984794,-0.06845928668199477,0.756908755904284,0.2684249315955507,0.011719690773240662,0.002679908101637688,nan,nan,nan,nan,nan,nan,nan,nan,nan,nan
20.346132516860962,0.3124527931213379,0.3126615881919861,-2.2176899909973145,-0.006593357143287695,0.001384735107421875,0.0,0.31525741865757057,-2.204984565263578,-0.144133776297125,0.7544210834303885,-0.05426317792344448,0.011906832449518064,0.0032913071090233652,nan,nan,nan,nan,nan,nan,nan,nan,nan,nan
20.351985454559326,0.33252155780792236,0.32011979818344116,-2.019240140914917,-0.007126674372748942,0.0013709068298339844,0.0,0.3177127349576428,-2.192319241880881,-0.14433002921599955,0.7570338073985704,0.5546013917714634,0.0026536850003935205,-0.0010683468088877896,nan,nan,nan,nan,nan,nan,nan,nan,nan,nan
