time,x,y,z,yaw,ctrl_comp_time,x_ref,y_ref,z_ref,yaw_ref,throttle,roll_rate,pitch_rate,yaw_rate,save_tube_hH,save_tube_hL,save_tube_pyH,save_tube_pyL,save_tube_pzH,save_tube_pzL,save_tube_thetaH,save_tube_thetaL,save_tube_vH,save_tube_vL
15.005498886108398,0.07237639278173447,3.8378219604492188,-12.322951316833496,-0.0006712518608483278,0.08263587951660156,0.0,3.8271565807354686,-12.318812127796908,-0.050014497701515705,0.21129040107465996,-1.0,0.014421321687118125,0.015104062250411348,0.04659177193641663,0.04639177193641662,3.8268588615417483,3.826658861541748,-12.317024366760254,-12.317224366760254,-0.0399144977015157,-0.040114497701515706,-0.16694997420310975,-0.16714997420310973
15.508891582489014,0.07237639278173447,3.8378219604492188,-12.322951316833496,-0.0006712518608483278,0.1730179786682129,0.0,3.8382204829391458,-12.32459478775072,-0.05125647095018449,0.21243937682632308,-1.0,0.13684603408302276,0.23098907562458418,1095.400378409362,-1096.9906317096807,233876.5075147308,-233869.82152473155,233956.54220393416,-233977.5429795467,4288.42393689116,-4288.363599422712,4241.132302589046,-4236.261798099095
15.652783155441284,0.01127932034432888,3.9117836952209473,-12.339638710021973,0.0008821438372386171,0.0018863677978515625,0.0,3.8382204829391458,-12.32459478775072,-0.05125647095018449,0.2156738278519395,-1.0,0.33579222385811586,0.4016923529372089,nan,nan,nan,nan,nan,nan,nan,nan,nan,nan
15.657400846481323,0.01127932034432888,3.9117836952209473,-12.339638710021973,0.0008821438372386171,0.001676797866821289,0.0,3.8386078459868442,-12.325349540390373,-0.061256470950184494,0.23433662732883792,-1.0,0.4750545567006811,0.5211846470560464,nan,nan,nan,nan,nan,nan,nan,nan,nan,nan
15.664873600006104,0.010347818024456501,3.9134902954101562,-12.339943885803223,0.0008949430297503329,0.0035734176635742188,0.0,3.83899048573543,-12.325241094980731,-0.07125647095018449,0.25094135082222857,-1.0,0.5725381896904767,0.6048292529392328,nan,nan,nan,nan,nan,nan,nan,nan,nan,nan
15.674407005310059,0.010347818024456501,3.9134902954101562,-12.339943885803223,0.0008949430297503329,0.0018734931945800781,0.0,3.839374122154075,-12.324294272214138,-0.08125647095018448,0.2663740782680562,-1.0,0.6407767327833334,0.6633804770574633,nan,nan,nan,nan,nan,nan,nan,nan,nan,nan
15.684584140777588,0.009420712478458881,3.9151339530944824,-12.340399742126465,0.0009014908136356151,0.0017940998077392578,0.0,3.8397637875101216,-12.322533189691782,-0.09125647095018448,0.28035324766463515,-1.0,0.6885437129483336,0.7043663339402239,nan,nan,nan,nan,nan,nan,nan,nan,nan,nan
15.694427251815796,0.008958587422966957,3.9159297943115234,-12.340665817260742,0.0009094054353096861,0.0031061172485351562,0.0,3.840163854545189,-12.319981259207342,-0.10125647095018447,0.293438350649619,-1.0,0.7219805990638335,0.7330564337581565,nan,nan,nan,nan,nan,nan,nan,nan,nan,nan
15.704484939575195,0.008497500792145729,3.916710138320923,-12.340937614440918,0.0009382491993654742,0.002017498016357422,0.0,3.840578064334941,-12.316661184839068,-0.11125647095018447,0.3064914657472307,-1.0,0.7453864193446836,0.7531395036307095,nan,nan,nan,nan,nan,nan,nan,nan,nan,nan
15.71453070640564,0.008037511259317398,3.9174787998199463,-12.341146469116211,0.0009817325474490365,0.002321481704711914,0.0,3.841009553813683,-12.312594961820194,-0.12125647095018446,0.3193778990052651,-1.0,0.7617704935412786,0.7671976525414969,nan,nan,nan,nan,nan,nan,nan,nan,nan,nan
15.724509000778198,0.007578590419143438,3.9182372093200684,-12.341272354125977,0.0010412691443026124,0.001708984375,0.0,3.841460882946396,-12.307803876157903,-0.13125647095018447,0.33131700286373633,-1.0,0.7732393454788951,0.7770383567790478,nan,nan,nan,nan,nan,nan,nan,nan,nan,nan
15.734735488891602,0.00678532849997282,3.919524908065796,-12.34041690826416,0.0011619202038642765,0.0032825469970703125,0.0,3.8419340615322404,-12.302308504971524,-0.14125647095018448,0.34334007035807973,-1.0,0.7812675418352266,0.7839268497453336,nan,nan,nan,nan,nan,nan,nan,nan,nan,nan
15.744513034820557,0.0064608072862029076,3.920053720474243,-12.339494705200195,0.0012596467057631837,0.0028700828552246094,0.0,3.842430575624881,-12.296128717521,-0.1512564709501845,0.35380762503561236,-1.0,0.7868872792846587,0.7887487948217333,nan,nan,nan,nan,nan,nan,nan,nan,nan,nan
15.754523038864136,0.006133003626018763,3.9205751419067383,-12.338516235351562,0.0013821515492103767,0.002255678176879883,0.0,3.8429514135563045,-12.289283676897211,-0.1612564709501845,0.364073876794394,-1.0,0.790821095499261,0.7921241563752134,nan,nan,nan,nan,nan,nan,nan,nan,nan,nan
15.764365911483765,0.005801873747259378,3.9210891723632812,-12.337478637695312,0.0015264164101865402,0.0018093585968017578,0.0,3.8434970915520377,-12.281791842346143,-0.1712564709501845,0.3735507164488535,-1.0,0.7935747668494827,0.7944869094626493,nan,nan,nan,nan,nan,nan,nan,nan,nan,nan
15.774570226669312,0.0054671429097652435,3.9215946197509766,-12.336386680603027,0.0016698125997931176,0.0023338794708251953,0.0,3.8440676789268693,-12.273670972199493,-0.18125647095018452,0.3825615932024167,-1.0,0.795502336794638,0.7961408366238545,nan,nan,nan,nan,nan,nan,nan,nan,nan,nan
15.908958673477173,0.0054671429097652435,3.9215946197509766,-12.336386680603027,0.0016698125997931176,0.002206563949584961,0.0,3.921911727540875,-12.336751902649178,-0.06712071037999968,0.2542307935113279,-1.0,0.7968516357562467,0.797298585636698,nan,nan,nan,nan,nan,nan,nan,nan,nan,nan
15.916906833648682,-0.0013838830636814237,3.9276928901672363,-12.279067993164062,0.011293004651062782,0.0021543502807617188,0.0,3.922226647062294,-12.336263586663543,-0.07712071037999968,0.3423998090516626,-0.6465863533210519,0.7977961450293726,0.7981090099456883,nan,nan,nan,nan,nan,nan,nan,nan,nan,nan
15.92444133758545,-0.0018726970301941037,3.9278502464294434,-12.272746086120605,0.012110801336462043,0.0020105838775634766,0.0,3.922544775397286,-12.334946253130052,-0.08712071037999967,0.35821238009586365,-0.6699887234760845,0.7984573015205608,0.7986763069619819,nan,nan,nan,nan,nan,nan,nan,nan,nan,nan
15.934561491012573,-0.002923517720773816,3.9281396865844727,-12.259063720703125,0.013811520570531463,0.00200653076171875,0.0,3.9228708352227,-12.332823716092227,-0.09712071037999967,0.3772846649949689,-0.6517695499684834,0.7989201110643926,0.7990734148733871,nan,nan,nan,nan,nan,nan,nan,nan,nan,nan
15.944462776184082,-0.0034885937348008156,3.9282681941986084,-12.25168514251709,0.01469023795463946,0.0020856857299804688,0.0,3.9232089028962576,-12.329919080896616,-0.10712071037999966,0.3912184412864562,-0.6752227667387094,0.7992440777450749,0.7993513904113709,nan,nan,nan,nan,nan,nan,nan,nan,nan,nan
15.954658031463623,-0.004079734906554222,3.9283814430236816,-12.243951797485352,0.015583513843500763,0.0018534660339355469,0.0,3.923562436213806,-12.326254742729782,-0.11712071037999966,0.40458647974494,-0.6998147590550319,0.7994708544215524,0.7995459732879597,nan,nan,nan,nan,nan,nan,nan,nan,nan,nan
15.964660882949829,-0.0046979812905192375,3.9284844398498535,-12.23583984375,0.016490681706232177,0.00213623046875,0.0,3.923934301819708,-12.321852385918808,-0.12712071037999967,0.417498261464711,-0.7258559216459541,0.7996295980950867,0.7996821813015718,nan,nan,nan,nan,nan,nan,nan,nan,nan,nan
15.974673986434937,-0.005343824625015259,3.9285759925842285,-12.227341651916504,0.017414194223000418,0.0018312931060791016,0.0,3.924326802253757,-12.316732983965672,-0.13712071037999968,0.4297703095319623,-0.753023037586202,0.7997407186665607,0.7997775269111002,nan,nan,nan,nan,nan,nan,nan,nan,nan,nan
15.984791040420532,-0.0065118917264044285,3.9288413524627686,-12.208104133605957,0.019323304585348283,0.0020551681518554688,0.0,3.9247417026193787,-12.31091680028627,-0.1471207103799997,0.44532757078522456,-0.7390536255523279,0.7102473289032151,0.79984426883777,nan,nan,nan,nan,nan,nan,nan,nan,nan,nan
15.994558334350586,-0.00704236002638936,3.9290080070495605,-12.197396278381348,0.020307278987225966,0.003232240676879883,0.0,3.925180256859204,-12.304423389625303,-0.1571207103799997,0.4563250022444088,-0.7698504890549406,0.618349474295032,0.799890988186439,nan,nan,nan,nan,nan,nan,nan,nan,nan,nan
16.004502296447754,-0.007613628637045622,3.9291493892669678,-12.186357498168945,0.021312597783779322,0.0020067691802978516,0.0,3.925643233625375,-12.297271600118751,-0.1671207103799997,0.4667897796597067,-0.8021157095111533,0.5449103445838819,0.7999236917305073,nan,nan,nan,nan,nan,nan,nan,nan,nan,nan
16.014442443847656,-0.008889959193766117,3.9293406009674072,-12.163321495056152,0.023390236654681235,0.0019974708557128906,0.0,3.9261309417331667,-12.289479575976157,-0.1771207103799997,0.4800956897051815,-0.7932015972948976,0.41809977629243894,0.799946584211355,nan,nan,nan,nan,nan,nan,nan,nan,nan,nan
16.0244140625,-0.009596827439963818,3.92938494682312,-12.151334762573242,0.024468815959293955,0.0017461776733398438,0.0,3.9266432551876753,-12.28106476075545,-0.18712071037999972,0.48952717773757143,-0.8279926137537328,0.3261653930667417,0.7999626089479486,nan,nan,nan,nan,nan,nan,nan,nan,nan,nan
16.034581422805786,-0.010356173850595951,3.9293887615203857,-12.139046669006348,0.025590316299288027,0.002093791961669922,0.0,3.9271796377744526,-12.272043901203652,-0.19712071037999973,0.4985404084356051,-0.8638554961628444,0.25517793471290934,0.7999738262635641,nan,nan,nan,nan,nan,nan,nan,nan,nan,nan
16.167781352996826,-0.010356173850595951,3.9293887615203857,-12.139046669006348,0.025590316299288027,0.0020411014556884766,0.0,3.93259646833171,-12.125763211963411,-0.2506957400032464,0.5444354939185241,-1.0,0.24499197770351022,0.7999816783844949,nan,nan,nan,nan,nan,nan,nan,nan,nan,nan
16.17446255683899,-0.034230850636959076,3.9176950454711914,-11.865062713623047,0.06478042856724572,0.0019559860229492188,0.0,3.9358147545976236,-12.112047005294151,-0.2606957400032464,0.5926372535604153,-0.2322457192612143,-0.48365172950831525,0.6946752906414165,0.04669679532051087,0.04649679532051086,3.837921960449219,3.8377219604492185,-12.322851316833496,-12.323051316833496,-0.04115647095018449,-0.04135647095018449,-0.1624635474920273,-0.16266354749202727
16.184568643569946,-0.036237455904483795,3.916227340698242,-11.84713363647461,0.06781978733073876,0.002141714096069336,0.0,3.939039818242323,-12.097908021438268,-0.2706957400032464,0.5985534414204698,-0.26664288681693404,-0.5785562106558207,0.2100582847322478,1102.1454102069542,-1103.7457779366382,236936.18125655229,-236929.47999516714,237016.66029377928,-237037.66928583433,4330.26414438071,-4330.2032628503175,4275.21753983526,-4270.346352690623
16.19446849822998,-0.03833011910319328,3.9146621227264404,-11.828939437866211,0.07090994206305012,0.002465486526489258,0.0,3.9422676754848074,-12.083355622262873,-0.28069574000324643,0.6043209301903556,-0.3019004657979353,-0.6449893474590745,-0.3876352085486294,nan,nan,nan,nan,nan,nan,nan,nan,nan,nan
16.204543113708496,-0.04277782514691353,3.9112250804901123,-11.791790962219238,0.07723907402924998,0.001888275146484375,0.0,3.9454941796575445,-12.068398566687257,-0.29069574000324644,0.6121575668746889,-0.28224784660644475,-0.6914925432213522,-0.5113446459840406,nan,nan,nan,nan,nan,nan,nan,nan,nan,nan
16.214787244796753,-0.045143794268369675,3.909332036972046,-11.772871017456055,0.08063403062337371,0.00241851806640625,0.0,3.948715039585617,-12.053045018611773,-0.3003955927567804,0.6172820914657744,-0.2855701977885814,-0.7240447802549466,-0.5979412521888284,nan,nan,nan,nan,nan,nan,nan,nan,nan,nan
16.22452425956726,-0.047615259885787964,3.9073033332824707,-11.753756523132324,0.08432453211230517,0.0022611618041992188,0.0,3.9519211123248428,-12.037301592129756,-0.3076774463137335,0.6221340595818913,-0.07688102728462054,-0.7468313461784626,-0.6585588765321799,nan,nan,nan,nan,nan,nan,nan,nan,nan,nan
16.23449158668518,-0.05055221915245056,3.904991388320923,-11.733242988586426,0.08831945948017642,0.002153635025024414,0.0,3.9550689164662916,-12.021167693103822,-0.31273801184902933,0.6267691389771503,0.12417646915335012,-0.7627819423249238,-0.700991213572526,nan,nan,nan,nan,nan,nan,nan,nan,nan,nan
16.244434595108032,-0.053600065410137177,3.902521848678589,-11.712605476379395,0.09260732113754294,0.0035283565521240234,0.0,3.9581175753245095,-12.004643686896099,-0.31576555024896075,0.6311772501640082,0.31750684093172243,-0.7739473596274467,-0.7306938495007682,nan,nan,nan,nan,nan,nan,nan,nan,nan,nan
16.254387617111206,-0.06003832817077637,3.8970742225646973,-11.671000480651855,0.10183868263794343,0.002073526382446289,0.0,3.9610288292608327,-11.987731154165676,-0.3169397224812374,0.6368890526223491,0.5605301132836336,-0.7817631517392126,-0.7514856946505377,nan,nan,nan,nan,nan,nan,nan,nan,nan,nan
16.26444911956787,-0.06342950463294983,3.8940834999084473,-11.650049209594727,0.1066372222801156,0.0018582344055175781,0.0,3.963767045420075,-11.970433060212104,-0.31643152386392254,0.6409221943680964,0.7378417530041955,-0.7872342062174488,-0.7660399862553764,nan,nan,nan,nan,nan,nan,nan,nan,nan,nan
16.274501085281372,-0.06693361699581146,3.89090895652771,-11.629003524780273,0.1114548631870308,0.0020351409912109375,0.0,3.9662992259609613,-11.952753850019224,-0.31440328982684906,0.644842920118494,0.9067134986206596,-0.7910639443522142,-0.7762279903787634,nan,nan,nan,nan,nan,nan,nan,nan,nan,nan
16.284552574157715,-0.07054862380027771,3.8875467777252197,-11.607864379882812,0.11623245591408204,0.0019299983978271484,0.0,3.968595014327527,-11.934699480294604,-0.3110087614687642,0.6486557447701193,1.0,-0.79374476104655,-0.7833595932651344,nan,nan,nan,nan,nan,nan,nan,nan,nan,nan
16.29457950592041,-0.0742725059390068,3.88399338722229,-11.58663272857666,0.12092558316743043,0.003114461898803711,0.0,3.9706266981744616,-11.916277398900043,-0.3063932002321747,0.65236136212228,1.0,-0.7956213327325851,-0.7883517152855941,nan,nan,nan,nan,nan,nan,nan,nan,nan,nan
16.429681301116943,-0.0742725059390068,3.88399338722229,-11.58663272857666,0.12092558316743043,0.0021376609802246094,0.0,3.8896315895984137,-11.562770860289504,-0.4032348246660097,0.6995293214360659,1.0,-0.7969349329128096,-0.7918462006999158,nan,nan,nan,nan,nan,nan,nan,nan,nan,nan
16.436420440673828,-0.16821332275867462,3.77846360206604,-11.177938461303711,0.1824893157845703,0.0019876956939697266,0.0,3.8946988854657,-11.538628516416667,-0.3932348246660097,0.7211000889099152,1.0,-0.7978544530389667,-0.7942923404899411,nan,nan,nan,nan,nan,nan,nan,nan,nan,nan
16.44438934326172,-0.1745416820049286,3.770594358444214,-11.1541166305542,0.1844417702292503,0.003036975860595703,0.0,3.8991972121495984,-11.514221486634524,-0.38323482466600967,0.7229656859343309,1.0,-0.7984981171272767,-0.7960046383429588,nan,nan,nan,nan,nan,nan,nan,nan,nan,nan
16.454567670822144,-0.18091344833374023,3.7625911235809326,-11.130245208740234,0.1862282826784521,0.0021708011627197266,0.0,3.903128881058906,-11.489565404721548,-0.37323482466600966,0.7248001271921665,1.0,-0.7989486819890937,-0.7972032468400712,nan,nan,nan,nan,nan,nan,nan,nan,nan,nan
16.464468717575073,-0.19377465546131134,3.746161699295044,-11.082364082336426,0.18927669272249753,0.0023031234741210938,0.0,3.906496573674804,-11.464675738531636,-0.36323482466600965,0.7275904132684439,1.0,-0.7992640773923656,-0.7980422727880498,nan,nan,nan,nan,nan,nan,nan,nan,nan,nan
16.474488973617554,-0.2002621442079544,3.7377352714538574,-11.058379173278809,0.19054528286412573,0.0017211437225341797,0.0,3.9093033372383057,-11.439567780147069,-0.35323482466600964,0.7291384874297683,1.0,-0.799484854174656,-0.7986295909516349,nan,nan,nan,nan,nan,nan,nan,nan,nan,nan
16.48460364341736,-0.20835253596305847,3.7280056476593018,-11.032835960388184,0.1916386439496727,0.0026175975799560547,0.0,3.9115525801436397,-11.41425663621956,-0.34323482466600963,0.7305932120760569,1.0,-0.7996393979222592,-0.7990407136661444,nan,nan,nan,nan,nan,nan,nan,nan,nan,nan
16.494518280029297,-0.21644465625286102,3.7181527614593506,-11.007347106933594,0.19258960519690177,0.003325939178466797,0.0,3.9132480670453673,-11.388757218507475,-0.3332348246660096,0.7319520058151668,1.0,-0.7997475785455815,-0.799328499566301,nan,nan,nan,nan,nan,nan,nan,nan,nan,nan
16.50456714630127,-0.2326304018497467,3.698085308074951,-10.956578254699707,0.19398411000791518,0.0018393993377685547,0.0,3.914393913687283,-11.36308423461685,-0.3232348246660096,0.7338456237825812,1.0,-0.7998233049819071,-0.7995299496964108,nan,nan,nan,nan,nan,nan,nan,nan,nan,nan
16.5146164894104,-0.24071471393108368,3.6878719329833984,-10.93129825592041,0.1944198483839415,0.0021293163299560547,0.0,3.9149945814613787,-11.337252178953445,-0.3132348246660096,0.7350459426944571,1.0,-0.799876313487335,-0.7996709647874876,nan,nan,nan,nan,nan,nan,nan,nan,nan,nan
16.524476051330566,-0.24879533052444458,3.6775474548339844,-10.906091690063477,0.19467761048635082,0.0021648406982421875,0.0,3.915054871705342,-11.31127532389263,-0.3032348246660096,0.7362011835216651,1.0,-0.7999134194411345,-0.7997696753512413,nan,nan,nan,nan,nan,nan,nan,nan,nan,nan
16.534616708755493,-0.2649376392364502,3.6565818786621094,-10.855902671813965,0.19467608072773168,0.0020956993103027344,0.0,3.9145799197472693,-11.285167711173472,-0.2932348246660096,0.7378256768111924,1.0,-0.7999393936087942,-0.7891139891126578,nan,nan,nan,nan,nan,nan,nan,nan,nan,nan
16.544408082962036,-0.2729955017566681,3.6459503173828125,-10.830928802490234,0.19442361921053453,0.0033185482025146484,0.0,3.913575188706404,-11.258943143523016,-0.2832348246660096,0.7388809353293854,1.0,-0.799957575526156,-0.7793117851593474,nan,nan,nan,nan,nan,nan,nan,nan,nan,nan
16.6773464679718,-0.2729955017566681,3.6459503173828125,-10.830928802490234,0.19442361921053453,0.002369403839111328,0.0,3.641118854641262,-10.80126840022199,-0.22189035203067686,0.7630444757816538,1.0,-0.7999703028683092,-0.7755564218917599,nan,nan,nan,nan,nan,nan,nan,nan,nan,nan
16.68678593635559,-0.40809643268585205,3.4535272121429443,-10.43477725982666,0.16917551664057656,0.0020194053649902344,0.0,3.635753274342095,-10.77168765611698,-0.21189035203067685,0.7691939616221768,0.7374081862596524,-0.787613404283242,-0.6772983488429962,nan,nan,nan,nan,nan,nan,nan,nan,nan,nan
16.69430446624756,-0.4249444603919983,3.427879810333252,-10.386087417602539,0.16344541074477711,0.0019268989562988281,0.0,3.6298639958499086,-10.742196550092025,-0.20189035203067685,0.7697342632716411,0.6997695869902576,-0.7090976798625428,-0.7141088441900973,nan,nan,nan,nan,nan,nan,nan,nan,nan,nan
16.7045476436615,-0.4249444603919983,3.427879810333252,-10.386087417602539,0.16344541074477711,0.0018298625946044922,0.0,3.6234616317920594,-10.71280474960821,-0.19189035203067684,0.7695385649221451,0.7173777770938692,-0.694103109264328,-0.6980798254731246,nan,nan,nan,nan,nan,nan,nan,nan,nan,nan
16.714715003967285,-0.4496351480484009,3.389625310897827,-10.313681602478027,0.1538527417273363,0.0018863677978515625,0.0,3.6165569806456555,-10.683521605657512,-0.18189035203067683,0.7703912095464305,0.6447356046395516,-0.6545534928558038,-0.6740488821889183,nan,nan,nan,nan,nan,nan,nan,nan,nan,nan
16.72450542449951,-0.4496351480484009,3.389625310897827,-10.313681602478027,0.1538527417273363,0.0017948150634765625,0.0,3.609161019231649,-10.65435614894956,-0.17189035203067682,0.7701905643134466,0.6640953378877836,-0.6295009947763771,-0.6630015672745345,0.04669679532051087,0.04649679532051086,3.837921960449219,3.8377219604492185,-12.322851316833496,-12.323051316833496,-0.04115647095018449,-0.04135647095018449,-0.1624635474920273,-0.16266354749202727
16.734745025634766,-0.47382983565330505,3.350921869277954,-10.241011619567871,0.1431710911495699,0.002497434616088867,0.0,3.60128489512181,-10.625317086300315,-0.1618903520306768,0.7706602510849387,0.5857503253307403,-0.586836821143955,-0.6358004376050148,1102.1454102069542,-1103.7457779366382,236936.18125655229,-236929.47999516714,237016.66029377928,-237037.66928583433,4330.26414438071,-4330.2032628503175,4275.21753983526,-4270.346352690623
16.744434595108032,-0.47382983565330505,3.350921869277954,-10.241011619567871,0.1431710911495699,0.0024259090423583984,0.0,3.592939918964409,-10.59641279722424,-0.1518903520306768,0.7704547800130713,0.6069176428590941,-0.5593856165308962,-0.6214739244888063,nan,nan,nan,nan,nan,nan,nan,nan,nan,nan
16.75442385673523,-0.489834725856781,3.324363946914673,-10.191771507263184,0.1355577807020874,0.0022046566009521484,0.0,3.584137556734441,-10.567651330731323,-0.1418903520306768,0.7706217653653342,0.5654282839397432,-0.5248027552888278,-0.5945083060037045,nan,nan,nan,nan,nan,nan,nan,nan,nan,nan
16.764832735061646,-0.489834725856781,3.324363946914673,-10.191771507263184,0.1355577807020874,0.0022552013397216797,0.0,3.5748894219142553,-10.539040402330093,-0.13189035203067678,0.7704116379154967,0.5884593492445573,-0.5017358233426857,-0.5753249251727479,nan,nan,nan,nan,nan,nan,nan,nan,nan,nan
16.774660348892212,-0.5130415558815002,3.2851409912109375,-10.118894577026367,0.12345445108657735,0.0018191337585449219,0.0,3.565207267610442,-10.510587391237555,-0.12189035203067679,0.7707135136867135,0.5181189614621162,-0.4570153483791521,-0.5482526603400889,nan,nan,nan,nan,nan,nan,nan,nan,nan,nan
16.784899711608887,-0.5130415558815002,3.2851409912109375,-10.118894577026367,0.12345445108657735,0.0022666454315185547,0.0,3.5551029786128283,-10.48229933779677,-0.11189035203067679,0.7704990448023505,0.5430699306910469,-0.4293363334255964,-0.5267861443564921,nan,nan,nan,nan,nan,nan,nan,nan,nan,nan
16.794401168823242,-0.5279425382614136,3.2594430446624756,-10.070956230163574,0.11501963377018054,0.002360820770263672,0.0,3.5445885634014367,-10.454182941102587,-0.1018903520306768,0.7706134846672895,0.5066625650573322,-0.39329031353461585,-0.497500562864844,nan,nan,nan,nan,nan,nan,nan,nan,nan,nan
16.804609537124634,-0.5279425382614136,3.2594430446624756,-10.070956230163574,0.11501963377018054,0.002062559127807617,0.0,3.5336761461072115,-10.426244556835861,-0.0918903520306768,0.770394928363898,0.5335894558754872,-0.36898404720023553,-0.4727564112558936,nan,nan,nan,nan,nan,nan,nan,nan,nan,nan
16.939231872558594,-0.5279425382614136,3.2594430446624756,-10.070956230163574,0.11501963377018054,0.0018405914306640625,0.0,3.2458175905736395,-10.044455707249039,0.031983820966329506,0.7736689892777414,1.0,-0.35360404334267664,-0.4455679207173153,nan,nan,nan,nan,nan,nan,nan,nan,nan,nan
16.94473433494568,-0.6356576085090637,3.042393445968628,-9.65654182434082,0.035644533913805544,0.0016891956329345703,0.0,3.2319529789915697,-10.018205137110476,0.04198382096632951,0.7736689892777414,0.44340166683011706,-0.2365792245756944,-0.31234675956542746,nan,nan,nan,nan,nan,nan,nan,nan,nan,nan
16.954520225524902,-0.6402515769004822,3.031435489654541,-9.634355545043945,0.03120355994170096,0.0017931461334228516,0.0,3.217862636308499,-9.99220619962804,0.05198382096632951,0.7736689892777414,0.44915049730487144,-0.10514504645360628,-0.31265587187984584,nan,nan,nan,nan,nan,nan,nan,nan,nan,nan
16.964487552642822,-0.6447036862373352,3.0206379890441895,-9.612253189086914,0.026755292502148455,0.003329038619995117,0.0,3.2035599888787347,-9.966460222191616,0.06198382096632951,0.7736689892777414,0.4554051190622217,-0.051110303721873696,-0.21946853760907645,nan,nan,nan,nan,nan,nan,nan,nan,nan,nan
16.97454571723938,-0.6490128040313721,3.010002851486206,-9.590231895446777,0.022298269180435003,0.0017714500427246094,0.0,3.1890584551344494,-9.940968180085738,0.0719838209663295,0.7736689892777414,0.4621642798806693,0.013609736158015858,-0.15423568878172556,nan,nan,nan,nan,nan,nan,nan,nan,nan,nan
16.98465323448181,-0.6531774997711182,2.999532699584961,-9.568290710449219,0.0178348249130532,0.0019681453704833984,0.0,3.1743714136904844,-9.915730363883187,0.0819838209663295,0.7736689892777414,0.46935797900505316,0.07127527365017002,-0.08857526342022039,nan,nan,nan,nan,nan,nan,nan,nan,nan,nan
16.99442720413208,-0.661048948764801,2.978879690170288,-9.525189399719238,0.008934450281512907,0.002429962158203125,0.0,3.1595121381619826,-9.890745845637442,0.0919838209663295,0.7736689892777414,0.4319411334437909,0.1349776435819995,-0.02794572284824443,nan,nan,nan,nan,nan,nan,nan,nan,nan,nan
17.004552125930786,-0.6647522449493408,2.9687085151672363,-9.504024505615234,0.004545486113385885,0.0021505355834960938,0.0,3.1444938362329475,-9.866013367731734,0.10198382096632949,0.7736689892777414,0.4364689574157077,0.19142042393951467,0.0362918947130149,nan,nan,nan,nan,nan,nan,nan,nan,nan,nan
17.01446771621704,-0.6683038473129272,2.9587197303771973,-9.482929229736328,0.00026081911122669,0.001909017562866211,0.0,3.1293296426176807,-9.841531344835731,0.11198382096632949,0.7736689892777414,0.4417474199869711,0.24570795981475152,0.0975038930956273,nan,nan,nan,nan,nan,nan,nan,nan,nan,nan
17.024433135986328,-0.6716832518577576,2.948920965194702,-9.461904525756836,-0.0038866789495627385,0.0017116069793701172,0.0,3.1140326120723936,-9.817297866016757,0.12198382096632948,0.7736689892777414,0.44830988956772844,0.29728437406658104,0.15626534092043642,nan,nan,nan,nan,nan,nan,nan,nan,nan,nan
17.03474450111389,-0.6779799461364746,2.9298877716064453,-9.420061111450195,-0.011752501634083104,0.0019326210021972656,0.0,3.0986157124604747,-9.793310697003742,0.1319838209663295,0.7736689892777414,0.41060457624731894,0.3497452984878605,0.21230306230180404,nan,nan,nan,nan,nan,nan,nan,nan,nan,nan
17.044576406478882,-0.6808969974517822,2.9206581115722656,-9.399240493774414,-0.015464583595380846,0.0021600723266601562,0.0,3.0830918178748243,-9.769567282602095,0.1419838209663295,0.7736689892777414,0.41975637514812136,0.3966481697027726,0.2718935939011486,nan,nan,nan,nan,nan,nan,nan,nan,nan,nan
17.054674863815308,-0.6836599707603455,2.9116227626800537,-9.378485679626465,-0.019017702098302613,0.0019609928131103516,0.0,3.0674737018205915,-9.746064749257522,0.1519838209663295,0.7736689892777414,0.4299640222841479,0.4426746023908664,0.3243879777132573,nan,nan,nan,nan,nan,nan,nan,nan,nan,nan
17.186501502990723,-0.6836599707603455,2.9116227626800537,-9.378485679626465,-0.019017702098302613,0.0021920204162597656,0.0,2.8977640813409846,-9.355657002144717,0.1929141416341631,0.7736689892777414,-0.6965816792108135,0.4823674372728941,0.3728409925807727,nan,nan,nan,nan,nan,nan,nan,nan,nan,nan
17.19430112838745,-0.7035248279571533,2.786308526992798,-9.010296821594238,-0.04808083681665748,0.0016520023345947266,0.0,2.8842771045624307,-9.332803854513987,0.18579450692546534,0.7736689892777414,-1.0,0.49506984771284973,0.5009886948065408,nan,nan,nan,nan,nan,nan,nan,nan,nan,nan
17.20453119277954,-0.7032519578933716,2.7815144062042236,-8.990253448486328,-0.048119256423565196,0.0019526481628417969,0.0,2.871158453362968,-9.309929675536432,0.17856763065544515,0.7736689892777414,-1.0,0.5711284851493014,0.5906920863645786,nan,nan,nan,nan,nan,nan,nan,nan,nan,nan
17.214595079421997,-0.7028729319572449,2.776954174041748,-8.970267295837402,-0.04803544983080045,0.0022389888763427734,0.0,2.8584034673670895,-9.287038547514957,0.17127623298297837,0.7736689892777414,-1.0,0.639789939604511,0.653484460455205,nan,nan,nan,nan,nan,nan,nan,nan,nan,nan
17.224497079849243,-0.7017949819564819,2.768540620803833,-8.930459976196289,-0.04751923812243196,0.0018727779388427734,0.0,2.84600633172377,-9.264135062391551,0.16395934796079528,0.7736689892777414,-1.0,0.6878529577231577,0.6974391223186436,nan,nan,nan,nan,nan,nan,nan,nan,nan,nan
17.234520435333252,-0.7011011838912964,2.764692544937134,-8.910640716552734,-0.04705204659844328,0.002095460891723633,0.0,2.8339601993964,-9.241224201375795,0.15665249320056449,0.7736689892777414,-1.0,0.7214970704062104,0.7282073856230505,nan,nan,nan,nan,nan,nan,nan,nan,nan,nan
17.244609594345093,-0.6992062330245972,2.76180100440979,-8.8897705078125,-0.04636432668395196,0.0020563602447509766,0.0,2.822257308791873,-9.218311227754288,0.14938783854013513,0.7736689892777414,-1.0,0.7450479492843473,0.7497451699361354,nan,nan,nan,nan,nan,nan,nan,nan,nan,nan
17.25441598892212,-0.6972391605377197,2.7591450214385986,-8.86899471282959,-0.045371825535001575,0.0021970272064208984,0.0,2.8108890966230757,-9.195401592406245,0.14219437320426162,0.7736689892777414,-1.0,0.7615335644990431,0.7648216189552948,nan,nan,nan,nan,nan,nan,nan,nan,nan,nan
17.264508485794067,-0.695202112197876,2.7567265033721924,-8.84832763671875,-0.044099892805972346,0.003239870071411133,0.0,2.7998463058563976,-9.17250085141992,0.13509807100330393,0.7736689892777414,-1.0,0.7730734951493302,0.7753751332687063,nan,nan,nan,nan,nan,nan,nan,nan,nan,nan
17.274508953094482,-0.6909303665161133,2.7526018619537354,-8.80727481842041,-0.04081285438192925,0.0017631053924560547,0.0,2.7891190885783295,-9.149614595105314,0.12812205315916733,0.7736689892777414,-1.0,0.7811514466045312,0.7827625932880944,0.04669679532051087,0.04649679532051086,3.837921960449219,3.8377219604492185,-12.322851316833496,-12.323051316833496,-0.04115647095018449,-0.04135647095018449,-0.1624635474920273,-0.16266354749202727
17.284582138061523,-0.688702404499054,2.7508933544158936,-8.786887168884277,-0.03887207619467595,0.0019140243530273438,0.0,2.7786970227329886,-9.126747759777102,0.12128675387752262,0.7736689892777414,-1.0,0.7868060126231718,0.7879338153016661,1102.1454102069542,-1103.7457779366382,236936.18125655229,-236929.47999516714,237016.66029377928,-237037.66928583433,4330.26414438071,-4330.2032628503175,4275.21753983526,-4270.346352690623
17.294458627700806,-0.6864179968833923,2.749417781829834,-8.766592025756836,-0.03677583935991269,0.0018503665924072266,0.0,2.768569208535995,-9.10390446953443,0.11461007893010655,0.7736689892777414,-1.0,0.7904506861707715,0.7915536707111662,nan,nan,nan,nan,nan,nan,nan,nan,nan,nan
17.304731130599976,-0.6840542554855347,2.74818754196167,-8.746390342712402,-0.03453324489362525,0.0020186901092529297,0.0,2.7587244624818696,-9.081088760633556,0.10810755305764762,0.7736689892777414,-1.0,0.7803250057484955,0.7940875694978164,nan,nan,nan,nan,nan,nan,nan,nan,nan,nan
17.314716339111328,-0.679185688495636,2.7464003562927246,-8.706282615661621,-0.029653796431319462,0.0036630630493164062,0.0,2.7491513960891307,-9.058304547800946,0.10179246943455385,0.7736689892777414,-1.0,0.7458482974704802,0.7958612986484715,nan,nan,nan,nan,nan,nan,nan,nan,nan,nan
17.451370239257812,-0.679185688495636,2.7464003562927246,-8.706282615661621,-0.029653796431319462,0.0019714832305908203,0.0,2.7392927973939396,-8.683935106023327,0.2648812020269383,0.7736689892777414,-1.0,0.7280156986854653,0.7971029090539301,nan,nan,nan,nan,nan,nan,nan,nan,nan,nan
17.45738649368286,-0.6207553744316101,2.780534505844116,-8.359314918518066,0.0319313959910133,0.00177001953125,0.0,2.7326944590855478,-8.661553062259157,0.2548812020269383,0.7736689892777414,-0.8358992726257244,0.38297099353109615,0.797972036337751,nan,nan,nan,nan,nan,nan,nan,nan,nan,nan
17.46462845802307,-0.6207553744316101,2.780534505844116,-8.359314918518066,0.0319313959910133,0.001970052719116211,0.0,2.7265962231337384,-8.639147105153304,0.2448812020269383,0.7736689892777414,-0.860802747883751,0.22460327811661862,0.7985804254364257,nan,nan,nan,nan,nan,nan,nan,nan,nan,nan
17.474729537963867,-0.6141061186790466,2.7878873348236084,-8.322484970092773,0.04000894166459051,0.0019087791442871094,0.0,2.7209887569107356,-8.61672757392317,0.2348812020269383,0.7736689892777414,-0.8435321220074952,0.11896784811523099,0.7491768479909456,nan,nan,nan,nan,nan,nan,nan,nan,nan,nan
17.48448872566223,-0.6108652353286743,2.7916975021362305,-8.304203987121582,0.04411372203232469,0.002065896987915039,0.0,2.7158625200397126,-8.594304521954777,0.2248812020269383,0.7736689892777414,-0.8471281841270352,0.035306888325563834,0.654933873003896,nan,nan,nan,nan,nan,nan,nan,nan,nan,nan
17.494527101516724,-0.6062219142913818,2.7966561317443848,-8.285499572753906,0.04825627812863496,0.0018167495727539062,0.0,2.7112077711239477,-8.571887712681644,0.21488120202693828,0.7736689892777414,-0.852746871110698,-0.05534619598861118,0.5336041558321027,nan,nan,nan,nan,nan,nan,nan,nan,nan,nan
17.504903078079224,-0.60167396068573,2.8016717433929443,-8.266899108886719,0.05243402530208001,0.002434968948364258,0.0,2.707014574557238,-8.549486615608755,0.20488120202693827,0.7736689892777414,-0.8587814133675127,-0.15844600974236325,0.3836466115675707,nan,nan,nan,nan,nan,nan,nan,nan,nan,nan
17.5146746635437,-0.5928943753242493,2.81184983253479,-8.230047225952148,0.06073460993497245,0.002238035202026367,0.0,2.7032728074125574,-8.52711040248326,0.19488120202693826,0.7736689892777414,-0.8426363296561536,-0.28552311768087063,0.19747277716200706,nan,nan,nan,nan,nan,nan,nan,nan,nan,nan
17.524555206298828,-0.5886579155921936,2.817004919052124,-8.211782455444336,0.06483709031479519,0.0020513534545898438,0.0,2.699972166405912,-8.504767943613404,0.18488120202693825,0.7736689892777414,-0.8499813722902385,-0.41762367800908207,-0.026908711724185505,nan,nan,nan,nan,nan,nan,nan,nan,nan,nan
17.534587621688843,-0.5845255255699158,2.822197198867798,-8.193622589111328,0.06890424996258915,0.002057313919067383,0.0,2.697102174932312,-8.48246780433719,0.17488120202693824,0.7736689892777414,-0.8580491820272232,-0.5323365746063574,-0.2588360982069299,nan,nan,nan,nan,nan,nan,nan,nan,nan,nan
17.544412851333618,-0.5804977416992188,2.8274216651916504,-8.175567626953125,0.07292975575054522,0.002044200897216797,0.0,2.6946521901707605,-8.460218241642167,0.16488120202693823,0.7736689892777414,-0.8667512686977,-0.6126356022244502,-0.4211852687448509,nan,nan,nan,nan,nan,nan,nan,nan,nan,nan
17.554511070251465,-0.5727565884590149,2.8379499912261963,-8.139785766601562,0.08081968706456963,0.002442598342895508,0.0,2.6926114102551213,-8.438027200937688,0.15488120202693823,0.7736689892777414,-0.8510415381955558,-0.6688449215571152,-0.5348296881213956,nan,nan,nan,nan,nan,nan,nan,nan,nan,nan
17.564470529556274,-0.5690422654151917,2.843245029449463,-8.122062683105469,0.08464059268301952,0.003719806671142578,0.0,2.6909688815077066,-8.415902312980945,0.14488120202693822,0.7736689892777414,-0.8592634180236121,-0.7081914450899807,-0.614380781684977,nan,nan,nan,nan,nan,nan,nan,nan,nan,nan
17.57457447052002,-0.5654313564300537,2.8485546112060547,-8.104453086853027,0.08834661535643668,0.0022127628326416016,0.0,2.689713505732403,-8.393850890957975,0.1348812020269382,0.7736689892777414,-0.8669429175113943,-0.7357340115629865,-0.6700665471794839,nan,nan,nan,nan,nan,nan,nan,nan,nan,nan
17.707612991333008,-0.5654313564300537,2.8485546112060547,-8.104453086853027,0.08834661535643668,0.001894235610961914,0.0,2.852524059907654,-8.083438043071691,0.01573018169872939,0.7712441056416331,-1.0,-0.7550138080940906,-0.7090465830256387,nan,nan,nan,nan,nan,nan,nan,nan,nan,nan
17.714277505874634,-0.5155670642852783,2.950810194015503,-7.80366325378418,0.13046908935749613,0.0027523040771484375,0.0,2.8567303551236116,-8.062569690412815,0.0057301816987293894,0.7679893572747729,-0.3079861561341013,-0.3123047621851383,-0.652626076959495,nan,nan,nan,nan,nan,nan,nan,nan,nan,nan
17.724517107009888,-0.5132523775100708,2.9560937881469727,-7.787961006164551,0.1316647878284042,0.001953601837158203,0.0,2.8611611460360784,-8.041849382686317,-0.004269818301270611,0.7674380527288387,-0.30491329203024553,-0.18149236459003482,-0.6598089860826265,nan,nan,nan,nan,nan,nan,nan,nan,nan,nan
17.734492778778076,-0.5109460353851318,2.9612841606140137,-7.772361755371094,0.13276165414962574,0.0019104480743408203,0.0,2.8658040911095735,-8.021278160051224,-0.014269818301270611,0.7668979752765946,-0.30213447390333426,-0.11726439366478207,-0.6242084800284723,nan,nan,nan,nan,nan,nan,nan,nan,nan,nan
17.74450445175171,-0.5086424350738525,2.9663760662078857,-7.756863117218018,0.133762305161516,0.0017206668853759766,0.0,2.870646864757312,-8.000856749255876,-0.02426981830127061,0.7663705291686245,-0.29964085081051417,-0.0605140544477814,-0.5728717014172964,nan,nan,nan,nan,nan,nan,nan,nan,nan,nan
17.754610776901245,-0.5045725107192993,2.977182149887085,-7.726022720336914,0.13558739256177135,0.002051115036010742,0.0,2.8756771640080014,-7.980585564031219,-0.03426981830127061,0.7657670543562644,-0.24393167563109863,0.028132091585610506,-0.5028097815034303,nan,nan,nan,nan,nan,nan,nan,nan,nan,nan
17.764809131622314,-0.5025185942649841,2.982408285140991,-7.710755348205566,0.13632927421759644,0.002469301223754883,0.0,2.8808827151693257,-7.9604647056373485,-0.044269818301270615,0.7652524002409039,-0.24379377680644665,0.09304027736593747,-0.4200360471726049,nan,nan,nan,nan,nan,nan,nan,nan,nan,nan
17.77472758293152,-0.500444233417511,2.9875097274780273,-7.695584774017334,0.13684659332181412,0.001880645751953125,0.0,2.8862512804843123,-7.940493963563281,-0.05426981830127062,0.7647546924785047,-0.24700861229587834,0.1514741584878853,-0.33371098649394615,nan,nan,nan,nan,nan,nan,nan,nan,nan,nan
17.78486156463623,-0.4983448386192322,2.992482900619507,-7.680507659912109,0.13711450370514947,0.002053499221801758,0.0,2.891770664776805,-7.9206728163798035,-0.06426981830127061,0.7642819836544753,-0.25421149231676476,0.20431337913678363,-0.247496254264927,nan,nan,nan,nan,nan,nan,nan,nan,nan,nan
17.794498682022095,-0.49407142400741577,3.002017021179199,-7.650616645812988,0.1369167923743435,0.0017969608306884766,0.0,2.897428722082256,-7.901000432745125,-0.07426981830127061,0.7637909306581099,-0.22215811449372258,0.2647092882100477,-0.16108039436879198,nan,nan,nan,nan,nan,nan,nan,nan,nan,nan
17.80452537536621,-0.49188485741615295,3.006579875946045,-7.635804176330566,0.13650054195906836,0.0021071434020996094,0.0,2.9032133622600798,-7.881475672562867,-0.0842698183012706,0.7633710165012944,-0.23976173103970733,0.3050341953980174,-0.07908923251280528,nan,nan,nan,nan,nan,nan,nan,nan,nan,nan
17.814534664154053,-0.48966264724731445,3.0110039710998535,-7.621070384979248,0.1359028217074042,0.0031278133392333984,0.0,2.909112557583826,-7.862097088291842,-0.0942698183012706,0.7629671737304208,-0.2608133185576895,0.33748030015167824,-0.006369638141178685,nan,nan,nan,nan,nan,nan,nan,nan,nan,nan
17.8244571685791,-0.4874034821987152,3.015286922454834,-7.606412887573242,0.13515115849869141,0.0021142959594726562,0.0,2.915114349305457,-7.842862926406901,-0.10426981830127059,0.7625769458391702,-0.2849215278983924,0.36351462594374995,0.056003926948875765,0.04669679532051087,0.04649679532051086,3.837921960449219,3.8377219604492185,-12.322851316833496,-12.323051316833496,-0.04115647095018449,-0.04135647095018449,-0.1624635474920273,-0.16266354749202727
17.834694385528564,-0.4827699065208435,3.023423433303833,-7.57731819152832,0.13326308056196218,0.001947641372680664,0.0,2.92120685419005,-7.823771129010016,-0.11426981830127059,0.7621957340173666,-0.27734621411540816,0.38504140169906337,0.10642958392473431,1102.1454102069542,-1103.7457779366382,236936.18125655229,-236929.47999516714,237016.66029377928,-237037.66928583433,4330.26414438071,-4330.2032628503175,4275.21753983526,-4270.346352690623
17.966622352600098,-0.4827699065208435,3.023423433303833,-7.57731819152832,0.13326308056196218,0.002064228057861328,0.0,3.0300163308811654,-7.560797564294303,-0.23174010015606195,0.751940202425232,-1.0,0.39817130005602364,0.1497794141351324,nan,nan,nan,nan,nan,nan,nan,nan,nan,nan
17.9746036529541,-0.43822115659713745,3.0704286098480225,-7.354316711425781,0.1124075384328837,0.0018875598907470703,0.0,3.036552256178657,-7.544344801046603,-0.24174010015606195,0.7526045738710418,-0.5729769356047111,0.23529697790021606,-0.02514179825905937,nan,nan,nan,nan,nan,nan,nan,nan,nan,nan
17.98444414138794,-0.4321478307247162,3.0735106468200684,-7.327367782592773,0.10999963981093815,0.0021567344665527344,0.0,3.0430213132848865,-7.527954591567422,-0.25174010015606196,0.7526245906701002,-0.5870472335987131,0.2051032808783713,-0.038823029312168,nan,nan,nan,nan,nan,nan,nan,nan,nan,nan
17.99457573890686,-0.4321478307247162,3.0735106468200684,-7.327367782592773,0.10999963981093815,0.001920938491821289,0.0,3.049413755890593,-7.5116213457350405,-0.26174010015606197,0.7524775713339789,-0.6691989960080242,0.1998691315389051,-0.041775588474799306,nan,nan,nan,nan,nan,nan,nan,nan,nan,nan
18.004605531692505,-0.4216079115867615,3.076528787612915,-7.286311626434326,0.10646527311863331,0.0022008419036865234,0.0,3.055719993535202,-7.495339197460152,-0.271740100156062,0.7526060909833212,-0.6476681944636353,0.1620473697861946,-0.06666868907123008,nan,nan,nan,nan,nan,nan,nan,nan,nan,nan
18.014408826828003,-0.4216079115867615,3.076528787612915,-7.286311626434326,0.10646527311863331,0.002379179000854492,0.0,3.0619305977544613,-7.479102008752245,-0.281740100156062,0.7524612703327547,-0.7327045439615001,0.15643293454807108,-0.07093977314186843,nan,nan,nan,nan,nan,nan,nan,nan,nan,nan
18.024502515792847,-0.4141370952129364,3.077577829360962,-7.2588911056518555,0.10406510010217396,0.0019555091857910156,0.0,3.0680363081267803,-7.462903373912817,-0.291740100156062,0.752508734860714,-0.7386908532382384,0.13028165691435234,-0.08860966139284754,nan,nan,nan,nan,nan,nan,nan,nan,nan,nan
18.034757137298584,-0.4141370952129364,3.077577829360962,-7.2588911056518555,0.10406510010217396,0.002131938934326172,0.0,3.074028038215977,-7.446736623852168,-0.301740100156062,0.7523664036005769,-0.826635883252974,0.12710355358672254,-0.09014817636044502,nan,nan,nan,nan,nan,nan,nan,nan,nan,nan
18.044702768325806,-0.40297558903694153,3.077862024307251,-7.218127727508545,0.1007895886216249,0.0018396377563476562,0.0,3.0798968814082457,-7.4305948305265215,-0.3095957800156451,0.7525976159043707,-0.5606289524059055,0.09404430798726554,-0.11079334214137604,nan,nan,nan,nan,nan,nan,nan,nan,nan,nan
18.05466389656067,-0.40297558903694153,3.077862024307251,-7.218127727508545,0.1007895886216249,0.0021059513092041016,0.0,3.085599528418796,-7.41445854610254,-0.31519544193446686,0.7524579399286258,-0.41426564735898397,0.09164964142434748,-0.10774251751840462,nan,nan,nan,nan,nan,nan,nan,nan,nan,nan
18.0645751953125,-0.395576149225235,3.077174425125122,-7.191173076629639,0.09886306384637386,0.0024979114532470703,0.0,3.0910929411195953,-7.398309236263376,-0.31872716738180207,0.7526180179654608,-0.17158768644558667,0.07661712115392294,-0.11088853499834286,nan,nan,nan,nan,nan,nan,nan,nan,nan,nan
18.07507038116455,-0.395576149225235,3.077174425125122,-7.191173076629639,0.09886306384637386,0.0018835067749023438,0.0,3.0963391060960705,-7.382131357364742,-0.3203706003683312,0.7524807412645278,-0.04071125788402069,0.0744446452236563,-0.10738018040867392,nan,nan,nan,nan,nan,nan,nan,nan,nan,nan
18.324977159500122,-0.395576149225235,3.077174425125122,-7.191173076629639,0.09886306384637386,0.001920461654663086,0.0,3.0800784408458135,-7.175033854339431,-0.28595734981057047,0.7501916587348744,0.49371057487289205,0.07442076551824638,-0.10281405825117035,nan,nan,nan,nan,nan,nan,nan,nan,nan,nan
18.334582090377808,-0.27511805295944214,2.944053888320923,-6.750276565551758,0.0711852687556401,0.0021903514862060547,0.0,3.082619783700916,-7.158845824609862,-0.2800792708745287,0.7568731439312215,1.0,0.003630858361699304,-0.10624508925172149,nan,nan,nan,nan,nan,nan,nan,nan,nan,nan
18.34447193145752,-0.2717316448688507,2.936264753341675,-6.7371039390563965,0.07027369432789599,0.002022266387939453,0.0,3.08478721501093,-7.14261148089009,-0.2733756622013166,0.7569721722885641,1.0,-0.010104310710388583,-0.09796290709012861,nan,nan,nan,nan,nan,nan,nan,nan,nan,nan
18.35467505455017,-0.2683582901954651,2.928281784057617,-6.723954677581787,0.06935953246831483,0.0021147727966308594,0.0,3.086572157922848,-7.12633475661632,-0.26595483091950656,0.7570703601216433,1.0,-0.013257885697678145,-0.09444200156318426,nan,nan,nan,nan,nan,nan,nan,nan,nan,nan
18.36447834968567,-0.2616260349750519,2.911729574203491,-6.697734832763672,0.06754256685418994,0.0022783279418945312,0.0,3.087968530123924,-7.110020797788569,-0.2579181533165521,0.7573711223172694,1.0,-0.017290715258003762,-0.09190556745669065,nan,nan,nan,nan,nan,nan,nan,nan,nan,nan
18.37468123435974,-0.25828060507774353,2.9031620025634766,-6.684666156768799,0.0666410157635543,0.0019330978393554688,0.0,3.0889725825848604,-7.093675740275172,-0.24936029062801715,0.7574457181822518,1.0,-0.019584474652641293,-0.09045641275063307,nan,nan,nan,nan,nan,nan,nan,nan,nan,nan
18.384885549545288,-0.2551063597202301,2.8937299251556396,-6.671117305755615,0.06573971298708858,0.002168893814086914,0.0,3.089582742157363,-7.077306495846929,-0.24036941225478772,0.7575298877199191,1.0,-0.021904081973357047,-0.08943448631780197,nan,nan,nan,nan,nan,nan,nan,nan,nan,nan
18.394464015960693,-0.25194424390792847,2.884114980697632,-6.657608985900879,0.06481714448764248,0.001737356185913086,0.0,3.089799456558536,-7.060920550080026,-0.2310274240920045,0.7575859713397531,1.0,-0.02414954012614348,-0.0886689026357361,nan,nan,nan,nan,nan,nan,nan,nan,nan,nan
18.40436291694641,-0.2456580549478531,2.864335775375366,-6.630722522735596,0.06308530792898603,0.002056121826171875,0.0,3.0896250408818853,-7.044525774511496,-0.22141020012651405,0.7577950822247086,1.0,-0.027215313564947972,-0.08764036996635362,nan,nan,nan,nan,nan,nan,nan,nan,nan,nan
18.41451096534729,-0.24253477156162262,2.8541746139526367,-6.617353916168213,0.06228194699031531,0.0025174617767333984,0.0,3.0890635252781635,-7.028130254767778,-0.21158781584730008,0.7578318418021359,1.0,-0.028308525015281246,-0.08700068734988922,nan,nan,nan,nan,nan,nan,nan,nan,nan,nan
18.424411296844482,-0.23633936047554016,2.8333098888397217,-6.5907487869262695,0.06076703037909029,0.0020601749420166016,0.0,3.0881205038507593,-7.011742135804808,-0.20162478232385989,0.757997075613016,1.0,-0.029018104267302218,-0.08597200620823114,nan,nan,nan,nan,nan,nan,nan,nan,nan,nan
18.434874534606934,-0.23326773941516876,2.82261323928833,-6.577513217926025,0.06003887115320397,0.0023322105407714844,0.0,3.086802985115441,-6.995369484889233,-0.19162478232385988,0.7580057206450616,1.0,-0.029076312756507332,-0.08503144529096068,nan,nan,nan,nan,nan,nan,nan,nan,nan,nan
18.44452214241028,-0.23021043837070465,2.8117494583129883,-6.564323425292969,0.05932935063425954,0.001999378204345703,0.0,3.085119972174531,-6.979020097595118,-0.18162478232385987,0.7580079048861843,1.0,-0.028895821903775216,-0.08405760511788032,nan,nan,nan,nan,nan,nan,nan,nan,nan,nan
18.45458483695984,-0.22716763615608215,2.800723075866699,-6.5511794090271,0.05863042367049248,0.0018799304962158203,0.0,3.083081265069005,-6.962701450587361,-0.17162478232385986,0.7580035873904895,1.0,-0.028588927829576616,-0.08302695973235448,nan,nan,nan,nan,nan,nan,nan,nan,nan,nan
18.586148500442505,-0.22716763615608215,2.800723075866699,-6.5511794090271,0.05863042367049248,0.003934621810913086,0.0,2.792897110735674,-6.53234739401979,-0.29301496113397857,0.7625508660541374,1.0,-0.028457718731771536,-0.08228806689275592,nan,nan,nan,nan,nan,nan,nan,nan,nan,nan
18.594480514526367,-0.1859564632177353,2.5838615894317627,-6.334755897521973,0.0465872230584129,0.001964092254638672,0.0,2.7845803831690445,-6.513585296335397,-0.28301496113397856,0.7634326622277274,0.830018216558172,-0.02527460766004759,-0.07463480859050846,nan,nan,nan,nan,nan,nan,nan,nan,nan,nan
18.604580402374268,-0.1816723793745041,2.556302785873413,-6.31024694442749,0.045119077588973475,0.001950979232788086,0.0,2.775782668486615,-6.494903224630246,-0.27301496113397855,0.7631818427004136,0.7914485869410437,-0.023487201943073757,-0.0699273589303409,nan,nan,nan,nan,nan,nan,nan,nan,nan,nan
18.61442279815674,-0.1795397400856018,2.5424587726593018,-6.2980780601501465,0.044382046309352205,0.0019485950469970703,0.0,2.7665139444743576,-6.476311008688611,-0.26301496113397854,0.7629075260860305,0.7736765206088789,-0.02265819257320559,-0.06634774099582003,0.04669679532051087,0.04649679532051086,3.837921960449219,3.8377219604492185,-12.322851316833496,-12.323051316833496,-0.04115647095018449,-0.04135647095018449,-0.1624635474920273,-0.16266354749202727
18.62452006340027,-0.17741379141807556,2.528578996658325,-6.285962104797363,0.04364390115723571,0.001966714859008789,0.0,2.7567843850757314,-6.457818195013498,-0.25301496113397853,0.7626312227394529,0.7557235999119664,-0.022045121631699586,-0.06359492186443035,1102.1454102069542,-1103.7457779366382,236936.18125655229,-236929.47999516714,237016.66029377928,-237037.66928583433,4330.26414438071,-4330.2032628503175,4275.21753983526,-4270.346352690623
18.634442806243896,-0.17475485801696777,2.5138614177703857,-6.273510456085205,0.04290931422691146,0.0025904178619384766,0.0,2.7466043539780083,-6.439434042572173,-0.24301496113397852,0.762363282345763,0.7393355747764645,-0.021167656187804595,-0.0614860815053956,nan,nan,nan,nan,nan,nan,nan,nan,nan,nan
18.644462823867798,-0.1695234179496765,2.484398603439331,-6.248802661895752,0.04133208520134431,0.0018906593322753906,0.0,2.7359843980975076,-6.42116751869956,-0.23301496113397852,0.7620542500062268,0.6983668791180591,-0.019889948550265955,-0.05926779955605973,nan,nan,nan,nan,nan,nan,nan,nan,nan,nan
18.65480327606201,-0.16693958640098572,2.469662666320801,-6.236550807952881,0.040539284651969515,0.003671884536743164,0.0,2.724935240967768,-6.403027295162498,-0.2230149611339785,0.7617417690284921,0.682622318160604,-0.019067608102896903,-0.05740914217249131,nan,nan,nan,nan,nan,nan,nan,nan,nan,nan
18.66443943977356,-0.16437675058841705,2.454930543899536,-6.224368572235107,0.03974801779611727,0.0019910335540771484,0.0,2.7134677760347903,-6.385021744387616,-0.2130149611339785,0.7614277650183516,0.6679152913040943,-0.018453835536067408,-0.055711528033744746,nan,nan,nan,nan,nan,nan,nan,nan,nan,nan
18.67461323738098,-0.1618346869945526,2.440207004547119,-6.212265491485596,0.03896158846711431,0.002128124237060547,0.0,2.701593059863593,-6.367158935855471,-0.2030149611339785,0.7611138158669122,0.6543251583084332,-0.01791427902768911,-0.05418098669602394,nan,nan,nan,nan,nan,nan,nan,nan,nan,nan
18.684886932373047,-0.15681208670139313,2.410806179046631,-6.188262939453125,0.037407478623884,0.0025260448455810547,0.0,2.6893223052604087,-6.349446632663371,-0.19301496113397848,0.7607631070480085,0.6176671260517329,-0.017097756738388484,-0.0524060563015041,nan,nan,nan,nan,nan,nan,nan,nan,nan,nan
18.694605588912964,-0.15433108806610107,2.3961377143859863,-6.176361083984375,0.0366405939826676,0.002179384231567383,0.0,2.676666874314938,-6.331892288259132,-0.18301496113397847,0.7604522213977614,0.6064679049686167,-0.01644755310349873,-0.05095622911500212,nan,nan,nan,nan,nan,nan,nan,nan,nan,nan
18.7048237323761,-0.1518700271844864,2.3814964294433594,-6.164525032043457,0.035880476783813425,0.0020782947540283203,0.0,2.66363827136716,-6.314503043347864,-0.17301496113397846,0.7601435343626947,0.596373437117937,-0.015904653188711506,-0.04955922235190413,nan,nan,nan,nan,nan,nan,nan,nan,nan,nan
18.84102773666382,-0.1518700271844864,2.3814964294433594,-6.164525032043457,0.035880476783813425,0.0021712779998779297,0.0,2.365704464597745,-6.14966387891993,-0.031847700499517774,0.7585145225430993,1.0,-0.01554491271874048,-0.04860267719463676,nan,nan,nan,nan,nan,nan,nan,nan,nan,nan
18.847227334976196,-0.11691439151763916,2.1250710487365723,-5.962918281555176,0.022202673094480412,0.0018169879913330078,0.0,2.3497214101966173,-6.135031238563035,-0.021847700499517772,0.7577175051346704,0.5908557836379794,-0.021498345927666026,-0.030719303172050533,nan,nan,nan,nan,nan,nan,nan,nan,nan,nan
18.85457730293274,-0.115273617208004,2.1115012168884277,-5.952256679534912,0.021479042848337213,0.002132892608642578,0.0,2.333560077122538,-6.120628802679985,-0.011847700499517772,0.7574079562822633,0.5961914177311579,-0.014701342877506603,-0.034226362342207516,nan,nan,nan,nan,nan,nan,nan,nan,nan,nan
18.86434769630432,-0.11364354193210602,2.0980310440063477,-5.941642761230469,0.02076309610359126,0.0016193389892578125,0.0,2.317233286225427,-6.106457928853533,-0.0018477004995177716,0.7571030627670174,0.6022005044166707,-0.015449787975969827,-0.031196522549423317,nan,nan,nan,nan,nan,nan,nan,nan,nan,nan
18.874722719192505,-0.11202401667833328,2.0846636295318604,-5.9310832023620605,0.02005661416641326,0.001909017562866211,0.0,2.3007538609068408,-6.092519640771568,0.008152299500482229,0.7568021480585482,0.608836539445476,-0.014971309361847283,-0.02981650324877083,nan,nan,nan,nan,nan,nan,nan,nan,nan,nan
18.884483814239502,-0.10944323986768723,2.0578653812408447,-5.9095916748046875,0.01865999185112749,0.002634763717651367,0.0,2.2841346197170354,-6.078814628630287,0.01815229950048223,0.7565057650286965,0.5863882605667742,-0.015496644507686622,-0.027860195964399433,nan,nan,nan,nan,nan,nan,nan,nan,nan,nan
18.89453101158142,-0.108157679438591,2.0446391105651855,-5.898922920227051,0.01797235457662954,0.0019431114196777344,0.0,2.267388368969068,-6.065343249709974,0.02815229950048223,0.7562265829760935,0.5939894389109126,-0.015344867979517117,-0.027098088449862445,nan,nan,nan,nan,nan,nan,nan,nan,nan,nan
18.90446710586548,-0.1068754568696022,2.031531810760498,-5.888303279876709,0.0172931378722306,0.002198457717895508,0.0,2.2505278953741543,-6.052105529122271,0.03815229950048223,0.7559564023889652,0.6022136744282589,-0.015495567480791379,-0.02617147952968351,nan,nan,nan,nan,nan,nan,nan,nan,nan,nan
18.914411067962646,-0.10559659451246262,2.0185463428497314,-5.8777313232421875,0.016624200164679116,0.001802682876586914,0.0,2.233565958702427,-6.039101160727726,0.048152299500482235,0.7556936059803289,0.6111043311569444,-0.01557311559456317,-0.0254013209123255,nan,nan,nan,nan,nan,nan,nan,nan,nan,nan
18.92451548576355,-0.10304298251867294,1.9929593801498413,-5.856739521026611,0.015318653949226518,0.00218963623046875,0.0,2.216515284473194,-6.026329508222246,0.05815229950048224,0.755457200852482,0.5871963686861079,-0.015893711358491117,-0.02425964351617452,nan,nan,nan,nan,nan,nan,nan,nan,nan,nan
18.934635400772095,-0.10177070647478104,1.980359673500061,-5.846309661865234,0.014686485119542056,0.002541065216064453,0.0,2.199388556678727,-6.013789606391015,0.06815229950048224,0.7552117892890826,0.5966269012313612,-0.015759487244267175,-0.023855754538151853,nan,nan,nan,nan,nan,nan,nan,nan,nan,nan
18.94451665878296,-0.10050138086080551,1.9678928852081299,-5.835922718048096,0.01406710768838658,0.001989603042602539,0.0,2.1821984105455345,-6.001480162528265,0.07815229950048223,0.754974120187028,0.606746611693167,-0.01585559161689436,-0.023163323217202506,nan,nan,nan,nan,nan,nan,nan,nan,nan,nan
18.95445704460144,-0.09923495352268219,1.9555619955062866,-5.825576305389404,0.0134608691680871,0.0021657943725585938,0.0,2.1649574253370214,-5.9893995580212485,0.08815229950048223,0.7547436728895907,0.6175752776990009,-0.0158337740611222,-0.022552429946835494,nan,nan,nan,nan,nan,nan,nan,nan,nan,nan
18.964458465576172,-0.09671053290367126,1.9313184022903442,-5.805008411407471,0.012286106740275374,0.0018224716186523438,0.0,2.1476781172013433,-5.9775458500965835,0.09815229950048222,0.7545596897067758,0.5922940762384066,-0.015938618426394033,-0.02155681582101883,nan,nan,nan,nan,nan,nan,nan,nan,nan,nan
19.093823194503784,-0.09671053290367126,1.9313184022903442,-5.805008411407471,0.012286106740275374,0.0020499229431152344,0.0,1.915957722937765,-5.794526779660174,0.15271790533778795,0.7515982134756447,1.0,-0.015492034751423304,-0.021533384649002407,nan,nan,nan,nan,nan,nan,nan,nan,nan,nan
19.09946060180664,-0.08189068734645844,1.7532095909118652,-5.629729270935059,0.004098797104088545,0.0017521381378173828,0.0,1.9006387401342815,-5.784229332144048,0.16271790533778796,0.752832802838732,0.32567024193780536,-0.02210577086689666,-0.006878107871394871,nan,nan,nan,nan,nan,nan,nan,nan,nan,nan
19.10519814491272,-0.08189068734645844,1.7532095909118652,-5.629729270935059,0.004098797104088545,0.002114534378051758,0.0,1.885373035328148,-5.774111865759528,0.17271790533778797,0.7526137219897369,0.38563469690027774,-0.013664176246863929,-0.01869105499286169,nan,nan,nan,nan,nan,nan,nan,nan,nan,nan
19.114410161972046,-0.08107457309961319,1.7443476915359497,-5.619616985321045,0.0036980251730281827,0.001940011978149414,0.0,1.8701720713055159,-5.764169875930552,0.18271790533778798,0.7525187326388892,0.3979996745533423,-0.01765310794283109,-0.014713725269014488,nan,nan,nan,nan,nan,nan,nan,nan,nan,nan
19.1247615814209,-0.07994206994771957,1.7277512550354004,-5.599537372589111,0.002918632356831097,0.0021882057189941406,0.0,1.8550471856303947,-5.754398559722648,0.192717905337788,0.7525553098985082,0.3597458605234809,-0.01679379396626399,-0.016621592290308303,nan,nan,nan,nan,nan,nan,nan,nan,nan,nan
19.134536027908325,-0.07961693406105042,1.720011591911316,-5.5895586013793945,0.0025007619481640236,0.002222776412963867,0.0,1.8400095841635966,-5.744792819100694,0.202717905337788,0.7524712781794509,0.3721440825060788,-0.01799479112125862,-0.016169016869615728,nan,nan,nan,nan,nan,nan,nan,nan,nan,nan
19.14448070526123,-0.07927548140287399,1.7124615907669067,-5.579603672027588,0.002090404752863373,0.001950979232788086,0.0,1.8250703346635215,-5.735347264323701,0.212717905337788,0.7523912167390948,0.3861623983856963,-0.018363143617361227,-0.016709829582046185,nan,nan,nan,nan,nan,nan,nan,nan,nan,nan
19.154464960098267,-0.0789182260632515,1.7051042318344116,-5.569670677185059,0.0016910499723486183,0.002037525177001953,0.0,1.8102403604715414,-5.726056217473873,0.222717905337788,0.7523222677684692,0.4021859112550966,-0.019077203881839016,-0.01672339176355538,0.04669679532051087,0.04649679532051086,3.837921960449219,3.8377219604492185,-12.322851316833496,-12.323051316833496,-0.04115647095018449,-0.04135647095018449,-0.1624635474920273,-0.16266354749202727
19.164463758468628,-0.07815767824649811,1.6909773349761963,-5.549869537353516,0.0009155985695760149,0.001739501953125,0.0,1.7955304342846439,-5.716913716117197,0.23271790533778802,0.7524175703454028,0.3699656142340306,-0.019930744759243064,-0.016630526063401114,1102.1454102069542,-1103.7457779366382,236936.18125655229,-236929.47999516714,237016.66029377928,-237037.66928583433,4330.26414438071,-4330.2032628503175,4275.21753983526,-4270.346352690623
19.174856662750244,-0.07775487005710602,1.6842126846313477,-5.539997577667236,0.0005375075286979114,0.002069711685180664,0.0,1.7809511720179008,-5.7079135170927175,0.24271790533778803,0.7523756331693454,0.39043352677876964,-0.020254017480188978,-0.017383606737572187,nan,nan,nan,nan,nan,nan,nan,nan,nan,nan
19.184407949447632,-0.07733751088380814,1.677649974822998,-5.530141353607178,0.00016713460077510955,0.0029289722442626953,0.0,1.7665130267592255,-5.699049100427685,0.25271790533778804,0.75234041944804,0.4127197936161382,-0.02093622716590565,-0.017387760241577274,nan,nan,nan,nan,nan,nan,nan,nan,nan,nan
19.194489002227783,-0.07646110653877258,1.6651463508605957,-5.510469913482666,-0.0005560741006559455,0.0017592906951904297,0.0,1.75222628281879,-5.69031367337565,0.26271790533778805,0.7524794448791262,0.38719540965632215,-0.021506812313349534,-0.017367148931835965,nan,nan,nan,nan,nan,nan,nan,nan,nan,nan
19.204421997070312,-0.07600266486406326,1.6592093706130981,-5.500653266906738,-0.0009163442662236121,0.002246856689453125,0.0,1.7381010498753688,-5.681700174574612,0.27271790533778806,0.752461415539791,0.4125082628486687,-0.021702726169706123,-0.01793204915800851,nan,nan,nan,nan,nan,nan,nan,nan,nan,nan
19.21452498435974,-0.07553084194660187,1.6534825563430786,-5.490851879119873,-0.0012732709468666614,0.0017914772033691406,0.0,1.724147257221788,-5.673201278322265,0.28271790533778807,0.7524507318952468,0.4392317006582893,-0.022178290011926022,-0.017749230850344452,nan,nan,nan,nan,nan,nan,nan,nan,nan,nan
19.22459387779236,-0.07553084194660187,1.6534825563430786,-5.490851879119873,-0.0012732709468666614,0.0023698806762695312,0.0,1.7103746481115496,-5.664809398965377,0.29106391079872235,0.752266330522137,0.351731424533112,-0.022138988187373084,-0.017980810089863093,nan,nan,nan,nan,nan,nan,nan,nan,nan,nan
