time,x,y,z,yaw,ctrl_comp_time,x_ref,y_ref,z_ref,yaw_ref,throttle,roll_rate,pitch_rate,yaw_rate,save_tube_hH,save_tube_hL,save_tube_pyH,save_tube_pyL,save_tube_pzH,save_tube_pzL,save_tube_thetaH,save_tube_thetaL,save_tube_vH,save_tube_vL
15.008044004440308,-0.015728984028100967,3.855750322341919,-12.520919799804688,0.0011940781321091581,0.07999467849731445,0.0,3.8559718191565437,-12.520551626328736,-0.024395379341205094,0.25365271484757995,-1.0,0.01219894581232834,0.0140537981918327,nan,nan,nan,nan,nan,nan,nan,nan,nan,nan
15.491077899932861,0.018314968794584274,3.8830983638763428,-12.473823547363281,-0.0014495852620131158,0.1873319149017334,0.0,3.8559718191565437,-12.520551626328736,-0.024395379341205094,0.33747605516155077,-0.7492282353776218,0.16940511153402682,0.1818427550152759,nan,nan,nan,nan,nan,nan,nan,nan,nan,nan
15.673712015151978,0.018314968794584274,3.8830983638763428,-12.473823547363281,-0.0014495852620131158,0.0021109580993652344,0.0,3.88394594019291,-12.46574497025187,-0.07769041109948678,0.434944879101799,-1.0,0.3585835780738188,0.36728992851069314,nan,nan,nan,nan,nan,nan,nan,nan,nan,nan
15.680202960968018,0.016877304762601852,3.929503917694092,-11.649873733520508,-0.0021189671974414515,0.0021238327026367188,0.0,3.884856762051263,-12.457045439238676,-0.08769041109948678,0.6243506498417902,1.0,-0.4236908529011471,-0.29094090983247933,nan,nan,nan,nan,nan,nan,nan,nan,nan,nan
15.687690496444702,0.01674104854464531,3.9295170307159424,-11.620552062988281,-0.0022962213548631816,0.0021448135375976562,0.0,3.885831905712587,-12.447743802428452,-0.09769041109948677,0.6326026809318083,1.0,-0.14076140483928448,-0.44365863688273555,nan,nan,nan,nan,nan,nan,nan,nan,nan,nan
15.697814702987671,0.016601601615548134,3.929440498352051,-11.590812683105469,-0.0024766741505837797,0.002121448516845703,0.0,3.88687194844591,-12.437858279063375,-0.10769041109948677,0.6406274273468546,1.0,-0.21514436025706332,-0.38804969790580895,nan,nan,nan,nan,nan,nan,nan,nan,nan,nan
15.707713842391968,0.016307495534420013,3.9290027618408203,-11.530104637145996,-0.0028975710865338233,0.002585887908935547,0.0,3.887976991949289,-12.427406458735238,-0.11769041109948676,0.6514939108397222,1.0,-0.19621059118562129,-0.3916236504927194,nan,nan,nan,nan,nan,nan,nan,nan,nan,nan
15.717910289764404,0.01615152321755886,3.928600311279297,-11.49926471710205,-0.0031164530683592817,0.0019428730010986328,0.0,3.8891466854875594,-12.41640530123494,-0.12769041109948676,0.6582726192186863,1.0,-0.19989017972277126,-0.37945647013282724,nan,nan,nan,nan,nan,nan,nan,nan,nan,nan
15.727909088134766,0.016106126829981804,3.9281721115112305,-11.46785831451416,-0.0032082132010557984,0.002348184585571289,0.0,3.890380248732721,-12.4048711370155,-0.13769041109948676,0.664497999464572,1.0,-0.19724096771751962,-0.370002480681152,nan,nan,nan,nan,nan,nan,nan,nan,nan,nan
15.7378089427948,0.016045894473791122,3.927542209625244,-11.43625545501709,-0.003182314675903991,0.002066373825073242,0.0,3.8916764942941366,-12.392819668245057,-0.14769041109948677,0.6703212570468552,1.0,-0.1945303688682008,-0.3592344844206731,nan,nan,nan,nan,nan,nan,nan,nan,nan,nan
15.747881650924683,0.015877649188041687,3.9256184101104736,-11.372565269470215,-0.002886835860091308,0.002084493637084961,0.0,3.893033849926785,-12.380265970426732,-0.15769041109948678,0.677505872242288,1.0,-0.18875577708840177,-0.3461137323050654,nan,nan,nan,nan,nan,nan,nan,nan,nan,nan
15.75759243965149,0.015769168734550476,3.9243083000183105,-11.340511322021484,-0.0026849450569624567,0.0019598007202148438,0.0,3.8944503804068322,-12.367224494562523,-0.1676904110994868,0.6827070175752982,0.9905626803468093,-0.1840639381195677,-0.33140692740611516,nan,nan,nan,nan,nan,nan,nan,nan,nan,nan
15.910919904708862,0.015769168734550476,3.9243083000183105,-11.340511322021484,-0.0026849450569624567,0.0021185874938964844,0.0,3.939108502541354,-11.304441989879402,-0.45537870711491046,0.7736689892777414,1.0,-0.18142104732463799,-0.3188424997695232,nan,nan,nan,nan,nan,nan,nan,nan,nan,nan
15.91777753829956,0.012460102327167988,3.8389639854431152,-10.678330421447754,-0.004581129610989748,0.0021016597747802734,0.0,3.9531075951243815,-11.268123736572722,-0.44537870711491045,0.7736689892777414,1.0,-0.12255334504432004,-0.27211537500032373,nan,nan,nan,nan,nan,nan,nan,nan,nan,nan
15.927605152130127,0.012265990488231182,3.8319644927978516,-10.644323348999023,-0.005139738671238625,0.0020356178283691406,0.0,3.9663098348424146,-11.231573225648354,-0.43537870711491045,0.7736689892777414,1.0,-0.09798003396904108,-0.21798657768824348,nan,nan,nan,nan,nan,nan,nan,nan,nan,nan
15.93786883354187,0.012062445282936096,3.8248088359832764,-10.610246658325195,-0.005744820423282365,0.002123117446899414,0.0,3.9787198166403033,-11.194806941407172,-0.42537870711491044,0.7736689892777414,1.0,-0.07839814555986808,-0.1735617645171569,nan,nan,nan,nan,nan,nan,nan,nan,nan,nan
15.94783878326416,0.011631349101662636,3.8100361824035645,-10.541921615600586,-0.007090793454777505,0.0021364688873291016,0.0,3.9903424687724374,-11.157841182132726,-0.41537870711491043,0.7736689892777414,1.0,-0.057087615109531725,-0.13678392666244488,nan,nan,nan,nan,nan,nan,nan,nan,nan,nan
15.957629442214966,0.011406191624701023,3.8024070262908936,-10.507742881774902,-0.007847412284488847,0.001989603042602539,0.0,4.001183048107498,-11.120692053421596,-0.4053787071149104,0.7736689892777414,1.0,-0.041322171102143854,-0.10465233889925153,nan,nan,nan,nan,nan,nan,nan,nan,nan,nan
15.967776775360107,0.011176206171512604,3.794611692428589,-10.473639488220215,-0.008664310313489743,0.0020694732666015625,0.0,4.011247135300396,-11.083375461618067,-0.3953787071149104,0.7736689892777414,1.0,-0.0277027765384945,-0.07790383739490205,nan,nan,nan,nan,nan,nan,nan,nan,nan,nan
15.977701902389526,0.01094262208789587,3.786652088165283,-10.4395751953125,-0.009539307141974207,0.0029001235961914062,0.0,4.020540629833607,-11.045907107355756,-0.3853787071149104,0.7736689892777414,1.0,-0.01584925711573027,-0.055449019102099276,nan,nan,nan,nan,nan,nan,nan,nan,nan,nan
15.98765254020691,0.010370644740760326,3.767993450164795,-10.370833396911621,-0.01137690777969351,0.0019593238830566406,0.0,4.029069744930153,-11.008302479208796,-0.3753787071149104,0.7736689892777414,1.0,-0.0024151831635581965,-0.03619681387821827,nan,nan,nan,nan,nan,nan,nan,nan,nan,nan
15.99755597114563,0.010086940601468086,3.7584638595581055,-10.33656120300293,-0.012330352547551174,0.001973867416381836,0.0,4.036841002340542,-10.970576847455115,-0.3653787071149104,0.7736689892777414,1.0,0.00698526215533624,-0.018382689457810412,nan,nan,nan,nan,nan,nan,nan,nan,nan,nan
16.007901668548584,0.0098057696595788,3.748807191848755,-10.30235767364502,-0.013309453751715772,0.002470731735229492,0.0,4.043861227006021,-10.932745257954306,-0.3553787071149104,0.7736689892777414,1.0,0.015108460073799101,-0.003452935857723941,nan,nan,nan,nan,nan,nan,nan,nan,nan,nan
16.018062353134155,0.009527739137411118,3.739027738571167,-10.268270492553711,-0.014307114906834131,0.001901388168334961,0.0,4.0501375416005505,-10.89482252614255,-0.34537870711491037,0.7736689892777414,1.0,0.022109076420138162,0.009142534882756358,nan,nan,nan,nan,nan,nan,nan,nan,nan,nan
16.16746425628662,0.009527739137411118,3.739027738571167,-10.268270492553711,-0.014307114906834131,0.002637147903442383,0.0,3.738385812561432,-10.22540237240618,-0.22387891929363146,0.7736689892777414,1.0,0.026272848254202032,0.01967967813382747,nan,nan,nan,nan,nan,nan,nan,nan,nan,nan
16.173733949661255,0.006406260654330254,3.5163002014160156,-9.599863052368164,-0.03190455414461453,0.0020682811737060547,0.0,3.7370692226250117,-10.182599683324533,-0.21387891929363145,0.7736689892777414,0.5971834602880958,0.03302713356640109,0.03206397363658596,nan,nan,nan,nan,nan,nan,nan,nan,nan,nan
16.17820692062378,0.006406260654330254,3.5163002014160156,-9.599863052368164,-0.03190455414461453,0.0028426647186279297,0.0,3.73508851591261,-10.139873903826494,-0.20387891929363144,0.7736689892777414,0.617875722186563,0.03856681261764504,0.04487421947819581,nan,nan,nan,nan,nan,nan,nan,nan,nan,nan
16.187684535980225,0.006406260654330254,3.5163002014160156,-9.599863052368164,-0.03190455414461453,0.002064943313598633,0.0,3.732454446558019,-10.09723620826988,-0.19387891929363144,0.7736689892777414,0.6392981437232347,0.04347232578720586,0.05463614692240287,nan,nan,nan,nan,nan,nan,nan,nan,nan,nan
16.197827577590942,0.006316524464637041,3.4803740978240967,-9.502049446105957,-0.033800354469482846,0.002180814743041992,0.0,3.729177968645616,-10.054697462983215,-0.18387891929363143,0.7736689892777414,0.5663667915983291,0.0470305856043143,0.06255205443717571,nan,nan,nan,nan,nan,nan,nan,nan,nan,nan
16.20775604248047,0.006316524464637041,3.4803740978240967,-9.502049446105957,-0.033800354469482846,0.0023505687713623047,0.0,3.725270229104021,-10.01226822254683,-0.17387891929363142,0.7736689892777414,0.5892913983657976,0.05015348022761039,0.0697935575265301,nan,nan,nan,nan,nan,nan,nan,nan,nan,nan
16.21922469139099,0.006289438810199499,3.4565274715423584,-9.437286376953125,-0.03493002312631682,0.006820201873779297,0.0,3.720742560529033,-9.969958726225876,-0.1638789192936314,0.7736689892777414,0.5476890159653569,0.052853238354069056,0.07497769222288475,nan,nan,nan,nan,nan,nan,nan,nan,nan,nan
16.22834610939026,0.006289438810199499,3.4565274715423584,-9.437286376953125,-0.03493002312631682,0.0022177696228027344,0.0,3.715606473938979,-9.92777889455661,-0.1538789192936314,0.7736689892777414,0.5721719656292573,0.05497661161541316,0.08003311148775352,nan,nan,nan,nan,nan,nan,nan,nan,nan,nan
16.23784303665161,0.006789753213524818,3.4190940856933594,-9.340676307678223,-0.03633724301619493,0.00199127197265625,0.0,3.7098736514656565,-9.88573832608725,-0.1438789192936314,0.7736689892777414,0.5103989355006182,0.056370846730281296,0.0832540884411695,nan,nan,nan,nan,nan,nan,nan,nan,nan,nan
16.24778389930725,0.006789753213524818,3.4190940856933594,-9.340676307678223,-0.03633724301619493,0.002059459686279297,0.0,3.7035559389840547,-9.843846294274632,-0.13387891929363138,0.7736689892777414,0.5364966842582152,0.057557993982651955,0.08711705243730543,nan,nan,nan,nan,nan,nan,nan,nan,nan,nan
16.25772261619568,0.007309345994144678,3.393796682357788,-9.276620864868164,-0.03701807481230361,0.002010345458984375,0.0,3.696665338684073,-9.802111744537847,-0.12387891929363139,0.7736689892777414,0.5113925291437538,0.05866326898795064,0.08896359682949115,nan,nan,nan,nan,nan,nan,nan,nan,nan,nan
16.267833948135376,0.007309345994144678,3.393796682357788,-9.276620864868164,-0.03701807481230361,0.0021152496337890625,0.0,3.689214001587483,-9.760543291469933,-0.11387891929363139,0.7736689892777414,0.5391617101444122,0.05942881253528426,0.09120245042571805,nan,nan,nan,nan,nan,nan,nan,nan,nan,nan
16.277679681777954,0.008118858560919762,3.356384038925171,-9.181230545043945,-0.037811163708527905,0.0028913021087646484,0.0,3.6812142200133864,-9.719149216208695,-0.1038789192936314,0.7736689892777414,0.49401071736204394,0.0593668264216951,0.09178001608613419,nan,nan,nan,nan,nan,nan,nan,nan,nan,nan
16.433606147766113,0.008118858560919762,3.356384038925171,-9.181230545043945,-0.037811163708527905,0.0023386478424072266,0.0,3.3419941305700003,-9.142766059703302,0.0535018458871456,0.7736689892777414,1.0,0.05935223289788304,0.09325839257951339,nan,nan,nan,nan,nan,nan,nan,nan,nan,nan
16.439472913742065,0.01595429517328739,3.14123797416687,-8.592127799987793,-0.03683226551278457,0.0019719600677490234,0.0,3.3272689318210813,-9.104557994989879,0.0635018458871456,0.7736689892777414,0.5663790714976049,0.05432373874718914,0.06782791821668277,nan,nan,nan,nan,nan,nan,nan,nan,nan,nan
16.447607278823853,0.016465840861201286,3.1311044692993164,-8.561807632446289,-0.03655258861363305,0.0020961761474609375,0.0,3.312221898368764,-9.066608522829501,0.07350184588714559,0.7736689892777414,0.5838323800792435,0.03534321979757602,0.07985446024389792,nan,nan,nan,nan,nan,nan,nan,nan,nan,nan
16.457688331604004,0.016975626349449158,3.12109375,-8.531551361083984,-0.036256903321943305,0.0019652843475341797,0.0,3.2968664814141673,-9.028919463237601,0.08350184588714558,0.7736689892777414,0.601890849020833,0.038171557168278275,0.06468018156499943,nan,nan,nan,nan,nan,nan,nan,nan,nan,nan
16.46797800064087,0.017483538016676903,3.111207962036133,-8.501358985900879,-0.035943175214392865,0.002062082290649414,0.0,3.281216119810812,-8.991492284935827,0.09350184588714558,0.7736689892777414,0.6205399701366605,0.030665017823905454,0.06359380809858338,nan,nan,nan,nan,nan,nan,nan,nan,nan,nan
16.477672338485718,0.018489819020032883,3.091815948486328,-8.4412202835083,-0.03527469947463356,0.0026650428771972656,0.0,3.2652842322247624,-8.954328106133872,0.10350184588714557,0.7736689892777414,0.6084045467552486,0.028169903955341215,0.05553066743103561,nan,nan,nan,nan,nan,nan,nan,nan,nan,nan
16.48772406578064,0.01832723245024681,3.0827765464782715,-8.410762786865234,-0.034928888412846776,0.0018799304962158203,0.0,3.249084209316657,-8.917427695476093,0.11350184588714557,0.7736689892777414,0.6265836276570612,0.02274837893695009,0.05236852059440675,nan,nan,nan,nan,nan,nan,nan,nan,nan,nan
16.497589111328125,0.018179289996623993,3.0738606452941895,-8.380380630493164,-0.03454491376903773,0.0018856525421142578,0.0,3.232629405949006,-8.880791473152367,0.12350184588714556,0.7736689892777414,0.6449637708448777,0.019789495416519597,0.046190599897452576,nan,nan,nan,nan,nan,nan,nan,nan,nan,nan
16.507635593414307,0.018045419827103615,3.0650713443756104,-8.350071907043457,-0.03415596090622301,0.0018198490142822266,0.0,3.2159331334221077,-8.844419512172644,0.13350184588714556,0.7736689892777414,0.6634270548825667,0.015538872737245458,0.042142030272952546,nan,nan,nan,nan,nan,nan,nan,nan,nan,nan
16.518025398254395,0.017816752195358276,3.047882080078125,-8.2896728515625,-0.03337170034284369,0.0019674301147460938,0.0,3.1990086517419396,-8.808311539804492,0.14350184588714557,0.7736689892777414,0.6447024071505199,0.011886990878156346,0.036888417115526685,nan,nan,nan,nan,nan,nan,nan,nan,nan,nan
16.52789807319641,0.017720837146043777,3.0394880771636963,-8.259639739990234,-0.03298242083197335,0.0027785301208496094,0.0,3.181869161923353,-8.772466939172965,0.15350184588714558,0.7736689892777414,0.6622048018722029,0.008267215181491837,0.03305843221876242,nan,nan,nan,nan,nan,nan,nan,nan,nan,nan
16.5378360748291,0.0176364965736866,3.03123140335083,-8.229673385620117,-0.03259493713794666,0.0018820762634277344,0.0,3.164527798331889,-8.73688475102195,0.16350184588714559,0.7736689892777414,0.6799057768027008,0.005689777764045594,0.02857695223338979,nan,nan,nan,nan,nan,nan,nan,nan,nan,nan
16.689209461212158,0.0176364965736866,3.03123140335083,-8.229673385620117,-0.03259493713794666,0.003264188766479492,0.0,3.0152591339637222,-8.195191590646951,0.18122091004113167,0.7736689892777414,-0.06863016272871225,0.0029818612879287366,0.02556172169629134,nan,nan,nan,nan,nan,nan,nan,nan,nan,nan
16.698065519332886,0.023213263601064682,2.9074394702911377,-7.650638103485107,-0.025795197133268416,0.0020630359649658203,0.0,2.9995050809714123,-8.160776330542719,0.1798475860977298,0.7736689892777414,-1.0,0.014734021360302007,0.021663127013729758,nan,nan,nan,nan,nan,nan,nan,nan,nan,nan
16.70775604248047,0.02371903881430626,2.9034066200256348,-7.622467517852783,-0.025488456894789596,0.0017812252044677734,0.0,2.9839920985033395,-8.12641735532759,0.17785789545130423,0.7736689892777414,-1.0,0.020199810605323294,0.03660310804438752,nan,nan,nan,nan,nan,nan,nan,nan,nan,nan
16.717999935150146,0.024723924696445465,2.895923376083374,-7.566208839416504,-0.02489028930502632,0.0021283626556396484,0.0,2.9687398484947485,-8.092106117233218,0.17531858023214442,0.7736689892777414,-1.0,0.032563589895883,0.052478531915676634,nan,nan,nan,nan,nan,nan,nan,nan,nan,nan
16.727704286575317,0.02522333897650242,2.892479658126831,-7.538177967071533,-0.024596633879439694,0.0022144317626953125,0.0,2.953765029086078,-8.057835657131509,0.17229254356889628,0.7736689892777414,-1.0,0.04694407540553993,0.07317725503324776,nan,nan,nan,nan,nan,nan,nan,nan,nan,nan
16.737735986709595,0.025361424311995506,2.8899903297424316,-7.510430335998535,-0.02430495392334686,0.0021266937255859375,0.0,2.939081588707395,-8.023600482591116,0.16883893451723198,0.7736689892777414,-1.0,0.06478883569896021,0.09933829391890393,nan,nan,nan,nan,nan,nan,nan,nan,nan,nan
16.747836112976074,0.025507336482405663,2.887699842453003,-7.482715129852295,-0.02400468130834607,0.002043008804321289,0.0,2.924700927475244,-7.989396441317468,0.16501324179531177,0.7736689892777414,-1.0,0.08721822467777594,0.13236875647310295,nan,nan,nan,nan,nan,nan,nan,nan,nan,nan
16.75775980949402,0.025825001299381256,2.8837478160858154,-7.427395820617676,-0.02338466700938216,0.0019283294677734375,0.0,2.9106320873071247,-7.955220593086074,0.160867394856639,0.7736689892777414,-1.0,0.11643553982661989,0.17452136327586432,nan,nan,nan,nan,nan,nan,nan,nan,nan,nan
16.767825841903687,0.025996241718530655,2.8820881843566895,-7.399785995483398,-0.023079371854157232,0.0020720958709716797,0.0,2.896881931940314,-7.921071082710429,0.15644987099014676,0.7736689892777414,-1.0,0.1517641324266172,0.22827202355064705,nan,nan,nan,nan,nan,nan,nan,nan,nan,nan
16.777578115463257,0.026174582540988922,2.8806347846984863,-7.372260570526123,-0.02275163365164734,0.002225637435913086,0.0,2.883455317835842,-7.886947016087496,0.1518058072829121,0.7736689892777414,-1.0,0.19548132600778892,0.29541366438373,nan,nan,nan,nan,nan,nan,nan,nan,nan,nan
16.787721395492554,0.02655108831822872,2.8783392906188965,-7.317297458648682,-0.022000788349344658,0.001890420913696289,0.0,2.870355256760962,-7.852848340928275,0.1469771164121885,0.7736689892777414,-1.0,0.24809189135483256,0.378937626548452,nan,nan,nan,nan,nan,nan,nan,nan,nan,nan
16.79772162437439,0.026748621836304665,2.8774921894073486,-7.289860725402832,-0.021563970446171254,0.0022428035736083984,0.0,2.857583070677779,-7.81877573340228,0.1420026053506438,0.7736689892777414,-1.0,0.3120706152069972,0.48014130434863617,nan,nan,nan,nan,nan,nan,nan,nan,nan,nan
16.95077085494995,0.026748621836304665,2.8774921894073486,-7.289860725402832,-0.021563970446171254,0.0030884742736816406,0.0,2.865281799826972,-7.257013991157789,0.29147436301799823,0.7736689892777414,-1.0,0.3911834940553031,0.5760989130440454,nan,nan,nan,nan,nan,nan,nan,nan,nan,nan
16.957510948181152,0.039720840752124786,2.907909393310547,-6.757226943969727,0.006686107265867061,0.0017366409301757812,0.0,2.8537104183785207,-7.2240666155914965,0.2814743630179982,0.7736689892777414,-0.7883503652734253,0.23890464033645298,0.6432692391308318,nan,nan,nan,nan,nan,nan,nan,nan,nan,nan
16.96791386604309,0.040405724197626114,2.9109926223754883,-6.73122501373291,0.00879096232130222,0.0022857189178466797,0.0,2.842769888564691,-7.191031014573493,0.2714743630179982,0.7736689892777414,-0.7886592529451575,0.22580687876113106,0.6437683182799993,nan,nan,nan,nan,nan,nan,nan,nan,nan,nan
16.97752594947815,0.041054658591747284,2.9141504764556885,-6.705317974090576,0.010933885957675554,0.002416849136352539,0.0,2.8324518115562767,-7.157919337978086,0.2614743630179982,0.7736689892777414,-0.7886570299539322,0.20877439906332912,0.6349475481991332,nan,nan,nan,nan,nan,nan,nan,nan,nan,nan
16.987701416015625,0.041666410863399506,2.917377233505249,-6.679451942443848,0.013127539091032661,0.0019443035125732422,0.0,2.8227475525638805,-7.1247434649396295,0.2514743630179982,0.7736689892777414,-0.7883434486697763,0.1868354783052899,0.6167117738746847,nan,nan,nan,nan,nan,nan,nan,nan,nan,nan
16.99802875518799,0.04431001469492912,2.927189350128174,-6.627369403839111,0.017681830635746312,0.003949642181396484,0.0,2.813648247302705,-7.0915149992462085,0.24147436301799818,0.7736689892777414,-0.7650713809716955,0.14582260516322265,0.5846415291003783,nan,nan,nan,nan,nan,nan,nan,nan,nan,nan
17.007524251937866,0.04554477706551552,2.93213152885437,-6.60141134262085,0.02003088755925478,0.001832723617553711,0.0,2.805144808547538,-7.058245264873568,0.23147436301799817,0.7736689892777414,-0.7678357561447934,0.11239333910060903,0.5369888074785825,nan,nan,nan,nan,nan,nan,nan,nan,nan,nan
17.017935752868652,0.04672039672732353,2.9370920658111572,-6.5755109786987305,0.022425722997199672,0.0019435882568359375,0.0,2.7972279327750056,-7.024945301661039,0.22147436301799817,0.7736689892777414,-0.7716871560697466,0.07511154714464216,0.48033496097247064,nan,nan,nan,nan,nan,nan,nan,nan,nan,nan
17.027567148208618,0.047836028039455414,2.9420666694641113,-6.54971981048584,0.02486573136540722,0.001947641372680664,0.0,2.7898881068901393,-6.991625861131184,0.21147436301799816,0.7736689892777414,-0.7766667406356984,0.03541981642065034,0.4147208007337352,nan,nan,nan,nan,nan,nan,nan,nan,nan,nan
17.037678241729736,0.04989302158355713,2.9520375728607178,-6.4983038902282715,0.02987833762409806,0.0019524097442626953,0.0,2.7831156150342635,-6.958297402454807,0.20147436301799815,0.7736689892777414,-0.7581034849665585,-0.014908509378064573,0.33737558705695286,nan,nan,nan,nan,nan,nan,nan,nan,nan,nan
17.048028469085693,0.05083337798714638,2.957026243209839,-6.472679615020752,0.03244831508093175,0.0022363662719726562,0.0,2.7769005454711815,-6.924970088562911,0.19147436301799814,0.7736689892777414,-0.7650008976843529,-0.058564487620648656,0.2504993183179475,nan,nan,nan,nan,nan,nan,nan,nan,nan,nan
17.202422618865967,0.05083337798714638,2.957026243209839,-6.472679615020752,0.03244831508093175,0.001941680908203125,0.0,2.9585759346912868,-6.439876180691772,0.04398268573265624,0.7736689892777414,-1.0,-0.09793522856097195,0.16033175700024585,nan,nan,nan,nan,nan,nan,nan,nan,nan,nan
17.207584619522095,0.0624726265668869,3.0660340785980225,-5.977647304534912,0.08354627886332593,0.001729726791381836,0.0,2.960511403901406,-6.407200432723348,0.03398268573265624,0.7736689892777414,-0.43574046761838436,-0.11208660444034518,0.057582917929516544,nan,nan,nan,nan,nan,nan,nan,nan,nan,nan
17.218141078948975,0.06258432567119598,3.071176767349243,-5.953578948974609,0.08602094548260139,0.002278566360473633,0.0,2.962820459680129,-6.374657183309123,0.023982685732656238,0.7736689892777414,-0.443547794583004,-0.12211653724460175,-0.028257790389995093,nan,nan,nan,nan,nan,nan,nan,nan,nan,nan
17.22758197784424,0.06264402717351913,3.076221466064453,-5.92960786819458,0.08848843605524194,0.004362821578979492,0.0,2.9654908463187226,-6.342250904414338,0.013982685732656238,0.7736689892777414,-0.40689195984782345,-0.13942153399092738,-0.1001236812644298,nan,nan,nan,nan,nan,nan,nan,nan,nan,nan
17.23769998550415,0.06264137476682663,3.0860862731933594,-5.881997585296631,0.09337603491886774,0.0027990341186523438,0.0,2.9685102513299237,-6.309985726850273,0.0039826857326562375,0.7736689892777414,-0.36023066435860096,-0.14569101464252374,-0.15855966803425592,nan,nan,nan,nan,nan,nan,nan,nan,nan,nan
17.248522520065308,0.06257981061935425,3.0908942222595215,-5.858358383178711,0.09576191807190308,0.0049381256103515625,0.0,2.9718663132320113,-6.277865439513762,-0.006017314267343763,0.7736689892777414,-0.36221414326962,-0.15264769786054347,-0.20626337689570673,nan,nan,nan,nan,nan,nan,nan,nan,nan,nan
17.2592613697052,0.06247071176767349,3.095590114593506,-5.834765911102295,0.09809835844063944,0.00449681282043457,0.0,2.9755466293434134,-6.245893488792031,-0.016017314267343763,0.7736689892777414,-0.36556943154460486,-0.15686350830852092,-0.24329561738540303,nan,nan,nan,nan,nan,nan,nan,nan,nan,nan
17.267662048339844,0.062315355986356735,3.1001698970794678,-5.811222076416016,0.10037225602002683,0.0029184818267822266,0.0,2.9795387635844492,-6.214072978132985,-0.026017314267343765,0.7736689892777414,-0.37088862884897433,-0.158194450272719,-0.27086405337375513,nan,nan,nan,nan,nan,nan,nan,nan,nan,nan
17.27765679359436,0.06187085062265396,3.108966588973999,-5.76434326171875,0.10472301169222467,0.003069162368774414,0.0,2.983830254282799,-6.182406667781023,-0.03601731426734377,0.7736689892777414,-0.3290609727473143,-0.15018062297095383,-0.2870356177209454,nan,nan,nan,nan,nan,nan,nan,nan,nan,nan
17.28784680366516,0.06158388778567314,3.1131772994995117,-5.741008281707764,0.10679178856376417,0.003033876419067383,0.0,2.9884086219792985,-6.1508969746784,-0.04601731426734377,0.7736689892777414,-0.3397454587854647,-0.14638291188111627,-0.2987690363503241,nan,nan,nan,nan,nan,nan,nan,nan,nan,nan
17.297757625579834,0.061255279928445816,3.1172592639923096,-5.717724800109863,0.10878617513626833,0.002897977828979492,0.0,2.9932613772306524,-6.119545972532064,-0.05601731426734377,0.7736689892777414,-0.35259248402853394,-0.14110325077056998,-0.3046630460247927,nan,nan,nan,nan,nan,nan,nan,nan,nan,nan
17.46902370452881,0.061255279928445816,3.1172592639923096,-5.717724800109863,0.10878617513626833,0.0030183792114257812,0.0,3.124225358430375,-5.688414882296039,-0.1581874629303473,0.7736689892777414,-1.0,-0.1422962421565716,-0.30913734953728417,nan,nan,nan,nan,nan,nan,nan,nan,nan,nan
17.477615356445312,0.041963472962379456,3.1740169525146484,-5.246162414550781,0.1314250912115861,0.0028684139251708984,0.0,3.131323596153246,-5.659263795200318,-0.1681874629303473,0.7736689892777414,-0.06415777290261837,0.06758618016356184,-0.07245004604305301,nan,nan,nan,nan,nan,nan,nan,nan,nan,nan
17.48794984817505,0.03834633156657219,3.1768007278442383,-5.180898666381836,0.13206984903983485,0.002899646759033203,0.0,3.138541987779879,-5.6302694494360095,-0.17818746293034732,0.7736689892777414,0.017353546492635763,0.025285264190832553,-0.10461878639784634,nan,nan,nan,nan,nan,nan,nan,nan,nan,nan
17.497817516326904,0.03834633156657219,3.1768007278442383,-5.180898666381836,0.13206984903983485,0.003034353256225586,0.0,3.1458686355536267,-5.60142942863362,-0.18818746293034733,0.7736689892777414,-0.06644680285766646,0.027231791152004893,-0.12176209861832972,nan,nan,nan,nan,nan,nan,nan,nan,nan,nan
17.507872819900513,0.03606988489627838,3.177913188934326,-5.137670516967773,0.13221192440635937,0.002676725387573242,0.0,3.1532917407370378,-5.572740991817405,-0.19818746293034734,0.7736689892777414,-0.0395139507475728,0.0371041037245905,-0.13205477213380176,nan,nan,nan,nan,nan,nan,nan,nan,nan,nan
17.51803231239319,0.03606988489627838,3.177913188934326,-5.137670516967773,0.13221192440635937,0.0029497146606445312,0.0,3.1607996109528163,-5.544201075938047,-0.20818746293034734,0.7736689892777414,-0.12666586159701465,0.035903232882743594,-0.14099877796396756,nan,nan,nan,nan,nan,nan,nan,nan,nan,nan
17.527669668197632,0.032655153423547745,3.1782028675079346,-5.073153018951416,0.13211317951587107,0.0028488636016845703,0.0,3.168380667467748,-5.515806298560299,-0.21818746293034735,0.7736689892777414,-0.032769200234184837,0.052621774877794084,-0.1420521571525574,nan,nan,nan,nan,nan,nan,nan,nan,nan,nan
17.537879705429077,0.032655153423547745,3.1782028675079346,-5.073153018951416,0.13211317951587107,0.0027723312377929688,0.0,3.176023452416413,-5.4875529607043765,-0.22818746293034736,0.7736689892777414,-0.12342035263983142,0.05118826361247278,-0.14645115913963455,nan,nan,nan,nan,nan,nan,nan,nan,nan,nan
17.54783296585083,0.030399875715374947,3.1774487495422363,-5.030401229858398,0.13175248506186232,0.002911806106567383,0.0,3.18371663596154,-5.459437049839814,-0.23818746293034737,0.7736689892777414,-0.09794691731991578,0.058447355074797154,-0.14726594428353826,nan,nan,nan,nan,nan,nan,nan,nan,nan,nan
17.716084718704224,0.030399875715374947,3.1774487495422363,-5.030401229858398,0.13175248506186232,0.0030405521392822266,0.0,3.1822973674048125,-5.0030665181135525,-0.25991623442363876,0.7736689892777414,-0.13552443802293723,0.05792292244106128,-0.1496735898797105,nan,nan,nan,nan,nan,nan,nan,nan,nan,nan
17.723204374313354,0.01168917678296566,3.114170789718628,-4.565560817718506,0.11699799704515224,0.0027565956115722656,0.0,3.1869126055023362,-4.975779679779061,-0.25969660822973906,0.7736689892777414,1.0,0.0007140554333799399,-0.1652053760420066,nan,nan,nan,nan,nan,nan,nan,nan,nan,nan
17.727993488311768,0.01168917678296566,3.114170789718628,-4.565560817718506,0.11699799704515224,0.002523183822631836,0.0,3.191250207762227,-4.948532797267053,-0.25804976916168704,0.7736689892777414,1.0,0.004780934859950931,-0.15003604544901597,nan,nan,nan,nan,nan,nan,nan,nan,nan,nan
17.73786950111389,0.010955587029457092,3.1090128421783447,-4.544822692871094,0.11611949234653658,0.002847433090209961,0.0,3.195271557562264,-4.921320283749452,-0.25511646135057053,0.7736689892777414,1.0,0.00038160010202779095,-0.13859112787694763,nan,nan,nan,nan,nan,nan,nan,nan,nan,nan
17.74769139289856,0.010437887161970139,3.103271961212158,-4.52423620223999,0.11522802421157216,0.0028400421142578125,0.0,3.1989433134742953,-4.89413880279707,-0.25103049595323834,0.7736689892777414,1.0,-0.002107251061067652,-0.1324485369515829,nan,nan,nan,nan,nan,nan,nan,nan,nan,nan
17.757941722869873,0.009915268048644066,3.097351551055908,-4.5036821365356445,0.11434308645081026,0.0028107166290283203,0.0,3.202237073307977,-4.866987131999482,-0.24591877366745774,0.7736689892777414,1.0,-0.005124358431360573,-0.12896635737306647,nan,nan,nan,nan,nan,nan,nan,nan,nan,nan
17.767923831939697,0.008855706080794334,3.0849695205688477,-4.462679862976074,0.1125460561971735,0.003009796142578125,0.0,3.205129061348089,-4.839865985475283,-0.23990134238612876,0.7736689892777414,1.0,-0.01167726295689114,-0.12682489409022607,nan,nan,nan,nan,nan,nan,nan,nan,nan,nan
17.777747631072998,0.0083190081641078,3.078502893447876,-4.4422430992126465,0.11165673312692766,0.0029747486114501953,0.0,3.207599834096093,-4.812777807944292,-0.23309148406699065,0.7736689892777414,1.0,-0.013551055185838455,-0.12705975458788207,nan,nan,nan,nan,nan,nan,nan,nan,nan,nan
17.787920475006104,0.0077776541002094746,3.0718517303466797,-4.421905517578125,0.11078525149312979,0.0030786991119384766,0.0,3.209634000438456,-4.785726551066453,-0.22559582573002562,0.7736689892777414,1.0,-0.016171506156541556,-0.12721730968718298,nan,nan,nan,nan,nan,nan,nan,nan,nan,nan
17.960005283355713,0.0077776541002094746,3.0718517303466797,-4.421905517578125,0.11078525149312979,0.0024209022521972656,0.0,3.0708253174525106,-4.394631107818748,-0.26701351565866854,0.7736689892777414,1.0,-0.015496350879652468,-0.12818427271377805,nan,nan,nan,nan,nan,nan,nan,nan,nan,nan
17.967809438705444,-0.0064203799702227116,2.8647162914276123,-3.962341547012329,0.09126822063055133,0.0026161670684814453,0.0,3.0692388243964452,-4.367402545774434,-0.25701351565866853,0.7736689892777414,0.9724180522335066,-0.0711559418530257,-0.09231185020038234,nan,nan,nan,nan,nan,nan,nan,nan,nan,nan
17.9777410030365,-0.0071371812373399734,2.854142904281616,-3.942904472351074,0.0903690131676261,0.0025186538696289062,0.0,3.067102152104186,-4.340230996997187,-0.24701351565866853,0.7736689892777414,0.9505295920539663,-0.04669266593356184,-0.11788616046474493,nan,nan,nan,nan,nan,nan,nan,nan,nan,nan
17.98788547515869,-0.007866044528782368,2.8435285091400146,-3.923586368560791,0.0894641208140036,0.0028290748596191406,0.0,3.064425422112523,-4.313127338083246,-0.23701351565866852,0.7736689892777414,0.9286971435157745,-0.0626434271402699,-0.10981955220830306,nan,nan,nan,nan,nan,nan,nan,nan,nan,nan
17.99777603149414,-0.008607410825788975,2.832878351211548,-3.904329538345337,0.0885551295303791,0.0030188560485839844,0.0,3.0612189698593615,-4.2861021523304315,-0.2270135156586685,0.7736689892777414,0.9069169825235918,-0.0578125184198083,-0.11771885786302067,nan,nan,nan,nan,nan,nan,nan,nan,nan,nan
18.00785541534424,-0.007552554365247488,2.8086981773376465,-3.867626905441284,0.08679397046737324,0.0023555755615234375,0.0,3.0574933378883977,-4.259165725539419,-0.2170135156586685,0.7736689892777414,0.8665332456644848,-0.06389252633310367,-0.11557622180643431,nan,nan,nan,nan,nan,nan,nan,nan,nan,nan
18.01820707321167,-0.007086084224283695,2.796619415283203,-3.8493382930755615,0.08594388024027638,0.0027632713317871094,0.0,3.053259268971438,-4.232328041960625,-0.2070135156586685,0.7736689892777414,0.8499004230284645,-0.06204452285195373,-0.11982536743299053,nan,nan,nan,nan,nan,nan,nan,nan,nan,nan
18.027785539627075,-0.006653821095824242,2.784546375274658,-3.8310928344726562,0.08509434322671143,0.0024542808532714844,0.0,3.0485276991513706,-4.205598780388306,-0.19701351565866848,0.7736689892777414,0.8333997231334315,-0.06431878920325289,-0.1196847064324969,nan,nan,nan,nan,nan,nan,nan,nan,nan,nan
18.03788709640503,-0.006261046975851059,2.7724924087524414,-3.812941789627075,0.0842440323059554,0.0024137496948242188,0.0,3.0433097507088407,-4.178987310403439,-0.18701351565866847,0.7736689892777414,0.8170627237404556,-0.06390340502579275,-0.12106077113723163,nan,nan,nan,nan,nan,nan,nan,nan,nan,nan
18.203935861587524,-0.006261046975851059,2.7724924087524414,-3.812941789627075,0.0842440323059554,0.0022716522216796875,0.0,2.760847405474813,-3.7888270793193457,-0.02611332219290754,0.7736689892777414,1.0,-0.0642694927891293,-0.1218972192648133,nan,nan,nan,nan,nan,nan,nan,nan,nan,nan
18.209595441818237,0.0002989890053868294,2.518242120742798,-3.4260034561157227,0.06453116425840802,0.0020036697387695312,0.0,2.748923495942105,-3.7649421360642545,-0.016113322192907537,0.7735224102358866,0.2355994562731829,-0.06227900059578677,-0.08289251865561598,nan,nan,nan,nan,nan,nan,nan,nan,nan,nan
18.217939138412476,0.0004315210971981287,2.507617473602295,-3.408994674682617,0.06358241691914507,0.002174854278564453,0.0,2.7367339141364093,-3.741290308349371,-0.006113322192907536,0.7736112518661511,0.22483259861648064,-0.03701699683659256,-0.10981779039692231,nan,nan,nan,nan,nan,nan,nan,nan,nan,nan
18.22766661643982,0.0005290071712806821,2.497119426727295,-3.392028331756592,0.06263060308774071,0.0019779205322265625,0.0,2.7242919360964675,-3.7178745936095083,0.003886677807092464,0.7736689892777414,0.2144872120944863,-0.05100322980410819,-0.10051808325075053,nan,nan,nan,nan,nan,nan,nan,nan,nan,nan
18.23781418800354,0.0006161112105473876,2.4765207767486572,-3.358325242996216,0.06071236534177249,0.002246379852294922,0.0,2.7116108720325895,-3.6946976376827543,0.013886677807092464,0.7736689892777414,0.1548759164739193,-0.04420624689002974,-0.10754531126812333,nan,nan,nan,nan,nan,nan,nan,nan,nan,nan
18.247843980789185,0.0006915541598573327,2.46663236618042,-3.342501163482666,0.059756852224377106,0.0027353763580322266,0.0,2.698704058434582,-3.6717617344328564,0.023886677807092464,0.7736689892777414,0.14456174568285995,-0.047723701754544594,-0.10608233108540222,nan,nan,nan,nan,nan,nan,nan,nan,nan,nan
18.257734060287476,0.0007330262451432645,2.456883668899536,-3.3266987800598145,0.05881288035435197,0.0019443035125732422,0.0,2.6855848501761,-3.6490688255380337,0.033886677807092466,0.7736689892777414,0.13697767209885103,-0.04644680387874257,-0.10817369916594606,nan,nan,nan,nan,nan,nan,nan,nan,nan,nan
18.267725467681885,0.0007411554688587785,2.447279214859009,-3.3109190464019775,0.05787318019973175,0.0019299983978271484,0.0,2.672266612618839,-3.626620500446239,0.04388667780709247,0.7736689892777414,0.13293098649681756,-0.047499455511085135,-0.1076164482236294,nan,nan,nan,nan,nan,nan,nan,nan,nan,nan
18.277631282806396,0.0007166096474975348,2.4378223419189453,-3.2951602935791016,0.056938678159521125,0.0019359588623046875,0.0,2.6587627137199736,-3.6044179964968097,0.05388667780709247,0.7736689892777414,0.13275224825639742,-0.047235097208647214,-0.1078103079103637,nan,nan,nan,nan,nan,nan,nan,nan,nan,nan
18.287816047668457,0.0005719579057767987,2.419363021850586,-3.263751268386841,0.05507309258843211,0.002123594284057617,0.0,2.6450865161462658,-3.582462199208384,0.06388667780709247,0.7736689892777414,0.09661362564159948,-0.04777716105449079,-0.10642152470856746,nan,nan,nan,nan,nan,nan,nan,nan,nan,nan
18.440080881118774,0.0005719579057767987,2.419363021850586,-3.263751268386841,0.05507309258843211,0.0024209022521972656,0.0,2.405537141245335,-3.2448206112655944,0.20099020297862175,0.7736689892777414,0.9727215131359985,-0.047088413984752796,-0.10762025447350425,nan,nan,nan,nan,nan,nan,nan,nan,nan,nan
18.447589874267578,-0.00124105135910213,2.2792956829071045,-2.952435255050659,0.03597021399364242,0.002607107162475586,0.0,2.3917326108844983,-3.2260969703329505,0.20888412401468007,0.7736689892777414,0.21811062234257317,-0.06708829977922788,-0.02346962731098467,nan,nan,nan,nan,nan,nan,nan,nan,nan,nan
18.45796799659729,-0.0013622447149828076,2.2744228839874268,-2.93705153465271,0.034993219671608566,0.0023932456970214844,0.0,2.3779952119089285,-3.207550749865432,0.21507833408929153,0.7736689892777414,0.07787473305979464,-0.000209638062709289,-0.09378105981781269,nan,nan,nan,nan,nan,nan,nan,nan,nan,nan
18.46784257888794,-0.001692506019026041,2.2651479244232178,-2.9063780307769775,0.033031645725020944,0.002254962921142578,0.0,2.3643654823324307,-3.1891547182933264,0.21970220292320253,0.7736689892777414,-0.08979088996459572,-0.04610531689159073,-0.046864914208287874,nan,nan,nan,nan,nan,nan,nan,nan,nan,nan
18.47768521308899,-0.001899890718050301,2.2607479095458984,-2.891096591949463,0.03205546303249188,0.002131223678588867,0.0,2.3508791824105026,-3.170884179989346,0.22288061859381886,0.7736689892777414,-0.22425956723927898,-0.01742834452694941,-0.07559508594938834,nan,nan,nan,nan,nan,nan,nan,nan,nan,nan
18.487854480743408,-0.0021343007683753967,2.2565078735351562,-2.8759095668792725,0.03108946726565054,0.0021681785583496094,0.0,2.3375677135972035,-3.152717058943355,0.2247337745115682,0.7736689892777414,-0.3567213442710512,-0.03405151404863362,-0.06743937215985557,nan,nan,nan,nan,nan,nan,nan,nan,nan,nan
18.4977605342865,-0.0021721734665334225,2.2535321712493896,-2.8614416122436523,0.030134663552536134,0.002225160598754883,0.0,2.324458493744245,-3.134633911125698,0.22537700710688408,0.7736689892777414,-0.4885177902050548,-0.029414843271216344,-0.07777257048983521,nan,nan,nan,nan,nan,nan,nan,nan,nan,nan
18.508000373840332,-0.002239845460280776,2.2507002353668213,-2.8469982147216797,0.02917865037161428,0.0020287036895751953,0.0,2.311575292275328,-3.116617880069886,0.22492067947173294,0.7736689892777414,-0.6159240246061136,-0.035442435607719425,-0.08280312756125982,nan,nan,nan,nan,nan,nan,nan,nan,nan,nan
18.517808198928833,-0.0023365886881947517,2.2480149269104004,-2.832580327987671,0.02823774570530259,0.0020935535430908203,0.0,2.2989385296373603,-3.0986546081504063,0.22347010617284596,0.7736689892777414,-0.737471365575364,-0.038703293924837706,-0.09148155769387482,nan,nan,nan,nan,nan,nan,nan,nan,nan,nan
18.527679681777954,-0.002594280056655407,2.2430853843688965,-2.8038179874420166,0.026372921946905853,0.001947641372680664,0.0,2.2865655455176044,-3.0807321142000412,0.2211255145934244,0.7736689892777414,-0.889849160588251,-0.044896164374928466,-0.10065540706572207,nan,nan,nan,nan,nan,nan,nan,nan,nan,nan
18.537750959396362,-0.0027637993916869164,2.240846633911133,-2.789519786834717,0.025441940517454575,0.0019936561584472656,0.0,2.274470840228917,-3.0628406464957654,0.21798203841165711,0.7736689892777414,-0.9939910538573641,-0.05053345482105238,-0.11169344527498241,nan,nan,nan,nan,nan,nan,nan,nan,nan,nan
18.547672271728516,-0.0029594283550977707,2.2387590408325195,-2.775242567062378,0.024512031594626227,0.0028429031372070312,0.0,2.2626662933905872,-3.044972518727171,0.21412973914478994,0.7736689892777414,-1.0,-0.0567683417080774,-0.12312337510171714,nan,nan,nan,nan,nan,nan,nan,nan,nan,nan
18.702990293502808,-0.0029594283550977707,2.2387590408325195,-2.775242567062378,0.024512031594626227,0.0036575794219970703,0.0,2.2307279414323027,-2.7574549909643293,0.22428523130384165,0.7736689892777414,-1.0,-0.06222490405684478,-0.13502524617791212,nan,nan,nan,nan,nan,nan,nan,nan,nan,nan
18.711946725845337,-0.00907835178077221,2.2355096340179443,-2.5083367824554443,0.005424203390788335,0.00186920166015625,0.0,2.2231215369166195,-2.7396446665459906,0.21428523130384164,0.7736689892777414,-0.937997628245729,-0.03099596175216655,-0.11738757321984991,nan,nan,nan,nan,nan,nan,nan,nan,nan,nan
18.717920780181885,-0.009946813806891441,2.238191843032837,-2.481003522872925,0.003325343407834039,0.002263784408569336,0.0,2.215930178263522,-2.72182058509545,0.20428523130384163,0.7736689892777414,-0.9086748675941486,-0.02506132397602721,-0.09919527906822022,nan,nan,nan,nan,nan,nan,nan,nan,nan,nan
18.72770357131958,-0.009946813806891441,2.238191843032837,-2.481003522872925,0.003325343407834039,0.0019316673278808594,0.0,2.2091440341339865,-2.703991442921805,0.19428523130384162,0.7736689892777414,-0.9368358142300488,-0.019916745992260235,-0.0841175262100887,nan,nan,nan,nan,nan,nan,nan,nan,nan,nan
18.737972259521484,-0.011309853754937649,2.242579936981201,-2.440399408340454,0.00018537778797380472,0.002156972885131836,0.0,2.2027530978099,-2.6861656377287377,0.1842852313038416,0.7736689892777414,-0.8707071226789161,-0.006770737937599606,-0.06504963851488821,nan,nan,nan,nan,nan,nan,nan,nan,nan,nan
18.747676849365234,-0.011309853754937649,2.242579936981201,-2.440399408340454,0.00018537778797380472,0.002164602279663086,0.0,2.1967471942035246,-2.668351265137595,0.1742852313038416,0.7736689892777414,-0.9013837611602367,-0.004090109691103475,-0.050872743144276304,nan,nan,nan,nan,nan,nan,nan,nan,nan,nan
18.75766921043396,-0.011742117814719677,2.2487571239471436,-2.4139208793640137,-0.0019372046066637796,0.001825094223022461,0.0,2.191115986935336,-2.650556115361366,0.1642852313038416,0.7736689892777414,-0.8699609252725624,0.005103094302127721,-0.03591170721454757,nan,nan,nan,nan,nan,nan,nan,nan,nan,nan
18.768130779266357,-0.011742117814719677,2.2487571239471436,-2.4139208793640137,-0.0019372046066637796,0.0037374496459960938,0.0,2.185848985477109,-2.632787670030907,0.15428523130384159,0.7736689892777414,-0.9032028451613751,0.007210331716534769,-0.024729874909636445,nan,nan,nan,nan,nan,nan,nan,nan,nan,nan
18.777552127838135,-0.012488307431340218,2.258000135421753,-2.374558687210083,-0.005102005159902686,0.0018901824951171875,0.0,2.180935552357083,-2.6150530991746828,0.14428523130384158,0.7736689892777414,-0.8356073452815769,0.015113573760921185,-0.012613438145492525,nan,nan,nan,nan,nan,nan,nan,nan,nan,nan
18.78783655166626,-0.012488307431340218,2.258000135421753,-2.374558687210083,-0.005102005159902686,0.002069234848022461,0.0,2.1763649104240326,-2.5973592583532343,0.13428523130384157,0.7736689892777414,-0.8714643499290714,0.016022860452483235,-0.00432952436304948,nan,nan,nan,nan,nan,nan,nan,nan,nan,nan
18.7978036403656,-0.01304190419614315,2.264094352722168,-2.3486568927764893,-0.007132134111763194,0.0023336410522460938,0.0,2.172126150167033,-2.579712685949526,0.12428523130384157,0.7736689892777414,-0.8370619063630698,0.01918400905944954,0.002968162874435903,nan,nan,nan,nan,nan,nan,nan,nan,nan,nan
18.94666361808777,-0.01304190419614315,2.264094352722168,-2.3486568927764893,-0.007132134111763194,0.002462148666381836,0.0,2.2645356829196475,-2.3317496487448284,0.00463590436120411,0.7736689892777414,-1.0,0.01996593555981037,0.008203243168690567,nan,nan,nan,nan,nan,nan,nan,nan,nan,nan
18.953113555908203,-0.017465926706790924,2.3238704204559326,-2.1191766262054443,-0.022881935674583395,0.002229928970336914,0.0,2.2651609364689924,-2.314960733430555,-0.0053640956387958905,0.7716785790959743,-0.23546158022972974,-0.0008621039292911869,0.0005308125668474708,nan,nan,nan,nan,nan,nan,nan,nan,nan,nan
18.957504749298096,-0.017465926706790924,2.3238704204559326,-2.1191766262054443,-0.022881935674583395,0.002101421356201172,0.0,2.265957984059068,-2.298292081527413,-0.01536409563879589,0.7718309866657399,-0.290897151236839,0.006481418188777395,0.010645453848618225,nan,nan,nan,nan,nan,nan,nan,nan,nan,nan
18.967804193496704,-0.017658943310379982,2.3266525268554688,-2.107848644256592,-0.023540115169224787,0.003492593765258789,0.0,2.2669146777978706,-2.2817452875986706,-0.02536409563879589,0.77186467933901,-0.29558224865082516,0.004231847365628192,0.016331627308406736,nan,nan,nan,nan,nan,nan,nan,nan,nan,nan
18.9776771068573,-0.018072841688990593,2.3318333625793457,-2.0852978229522705,-0.024810924943593632,0.0020973682403564453,0.0,2.2680188589892363,-2.265321605955257,-0.03536409563879589,0.7717783255224772,-0.24603042767148986,0.0027795919756249186,0.020551749481165723,nan,nan,nan,nan,nan,nan,nan,nan,nan,nan
18.987919092178345,-0.01829366385936737,2.3342244625091553,-2.074075698852539,-0.02542061737551783,0.0020411014556884766,0.0,2.2692583659085623,-2.2490219506991393,-0.04536409563879589,0.7718156851566765,-0.24997240885599414,0.0020390300943664793,0.02384884817890519,nan,nan,nan,nan,nan,nan,nan,nan,nan,nan
18.997690439224243,-0.0185235608369112,2.336477518081665,-2.0629355907440186,-0.026012101957337275,0.0018572807312011719,0.0,2.2706210415741457,-2.232846895931883,-0.05536409563879589,0.7718419182479859,-0.2541425564558457,0.0010814588634822189,0.0261081308137616,nan,nan,nan,nan,nan,nan,nan,nan,nan,nan
19.008033752441406,-0.018762536346912384,2.338587522506714,-2.0518345832824707,-0.026585760206976478,0.0024950504302978516,0.0,2.2720947415107355,-2.216796676128237,-0.06536409563879589,0.7718622126867194,-0.2600693567223058,0.0002080746693482801,0.027716741249531236,nan,nan,nan,nan,nan,nan,nan,nan,nan,nan
19.018047332763672,-0.01895112916827202,2.343230724334717,-2.0308523178100586,-0.027721531127421345,0.003451108932495117,0.0,2.273667341501909,-2.2008711866745543,-0.07536409563879588,0.771719393053953,-0.21769455516740066,-0.001037056363649893,0.02884421991098609,nan,nan,nan,nan,nan,nan,nan,nan,nan,nan
19.027673482894897,-0.01906515844166279,2.345313787460327,-2.0203967094421387,-0.028292414909515146,0.0019431114196777344,0.0,2.2753267453278747,-2.1850699845717503,-0.08536409563879588,0.7717595308344019,-0.23363428427146515,-0.0011386255674368094,0.030239742766007157,nan,nan,nan,nan,nan,nan,nan,nan,nan,nan
19.037962913513184,-0.019188886508345604,2.3472349643707275,-2.0099635124206543,-0.02884020462624698,0.002031087875366211,0.0,2.2770608924853226,-2.1693922893024644,-0.09536409563879587,0.7718108204788888,-0.2532067824681673,-0.0014278704002225078,0.03115872895163517,nan,nan,nan,nan,nan,nan,nan,nan,nan,nan
19.047816514968872,-0.019322214648127556,2.3489925861358643,-1.9995930194854736,-0.029369926874943733,0.002510547637939453,0.0,2.2788577658859452,-2.1538369838620026,-0.10536409563879587,0.7718678901260905,-0.2760956311155591,-0.001586153952425578,0.03181904107664272,nan,nan,nan,nan,nan,nan,nan,nan,nan,nan
19.20065999031067,-0.019322214648127556,2.3489925861358643,-1.9995930194854736,-0.029369926874943733,0.0039288997650146484,0.0,2.3508578507100286,-1.9851698550608474,-0.19378717588568325,0.7736689892777414,0.2390353932407303,-0.0016667124732660543,0.032162042921797064,nan,nan,nan,nan,nan,nan,nan,nan,nan,nan
19.209935426712036,-0.023707181215286255,2.3420379161834717,-1.7882732152938843,-0.03611575402519321,0.0027327537536621094,0.0,2.3524796990778927,-1.9708143664225515,-0.19059587372874656,0.7717610460670137,1.0,-0.0006784575857086495,0.03610948384717655,nan,nan,nan,nan,nan,nan,nan,nan,nan,nan
19.217629194259644,-0.024310942739248276,2.3369388580322266,-1.7671140432357788,-0.03645440788443652,0.0024716854095458984,0.0,2.3538492712507852,-1.956527021802565,-0.18669472367627532,0.7718193606594145,1.0,-0.001491991433369907,0.03725604974155619,nan,nan,nan,nan,nan,nan,nan,nan,nan,nan
19.2276508808136,-0.024637917056679726,2.334120273590088,-1.7565979957580566,-0.03660583493089796,0.0018308162689208984,0.0,2.354959933663852,-1.9423091325115824,-0.18216974829690216,0.7719717605870876,1.0,-0.0013659101878970982,0.03789937913664167,nan,nan,nan,nan,nan,nan,nan,nan,nan,nan
19.237828969955444,-0.0249727014452219,2.3311243057250977,-1.746124029159546,-0.036749760946024154,0.002039670944213867,0.0,2.3558071073943574,-1.9281627332648819,-0.1771019579157577,0.7721255499726621,1.0,-0.0015991102078302007,0.0385281605822776,nan,nan,nan,nan,nan,nan,nan,nan,nan,nan
19.247685432434082,-0.025315357372164726,2.3279497623443604,-1.735740303993225,-0.03688273197332595,0.0020074844360351562,0.0,2.3563881043830044,-1.9140904617097672,-0.17156743424272394,0.7722632621043805,1.0,-0.0017352948997925827,0.03903467740254091,nan,nan,nan,nan,nan,nan,nan,nan,nan,nan
19.258078575134277,-0.02558179572224617,2.3212335109710693,-1.7156412601470947,-0.03711267749905224,0.0023887157440185547,0.0,2.3567019705884373,-1.900095440311209,-0.16563742947435708,0.772197045120343,1.0,-0.001679887872887883,0.03956754607542392,nan,nan,nan,nan,nan,nan,nan,nan,nan,nan
19.267810344696045,-0.02551574818789959,2.317683219909668,-1.7059223651885986,-0.03721016497323963,0.0030345916748046875,0.0,2.356749335284402,-1.8861811630959597,-0.15937847855271195,0.7722597414249258,1.0,-0.0013959223197758212,0.039974177551215496,nan,nan,nan,nan,nan,nan,nan,nan,nan,nan
19.277616262435913,-0.02546732872724533,2.313943386077881,-1.6962437629699707,-0.03729294717192233,0.0020449161529541016,0.0,2.356532265960747,-1.8723513891791395,-0.15285252255102943,0.7723355834482537,1.0,-0.001065052582302966,0.04030868694453709,nan,nan,nan,nan,nan,nan,nan,nan,nan,nan
19.28773808479309,-0.025436311960220337,2.310015916824341,-1.6866036653518677,-0.03736155140499245,0.0020568370819091797,0.0,2.3560541285061145,-1.858610044493376,-0.1461170414077737,0.7724224291943969,1.0,-0.0006541323316800401,0.04055813422348909,nan,nan,nan,nan,nan,nan,nan,nan,nan,nan
19.297685384750366,-0.025427009910345078,2.3016157150268555,-1.6674824953079224,-0.037463254842928895,0.0021698474884033203,0.0,2.3553194525281604,-1.8449611327025213,-0.1392251944477757,0.7723438119416658,1.0,0.0005493712391814905,0.040567708467799404,nan,nan,nan,nan,nan,nan,nan,nan,nan,nan
19.44793462753296,-0.025427009910345078,2.3016157150268555,-1.6674824953079224,-0.037463254842928895,0.002089262008666992,0.0,2.2982215123332526,-1.6536969232083127,-0.23765500182199734,0.7736689892777414,1.0,2.7629986443068013e-05,0.04095193293152162,nan,nan,nan,nan,nan,nan,nan,nan,nan,nan
19.457854747772217,-0.033216770738363266,2.174777030944824,-1.4868899583816528,-0.03646004889867731,0.0022072792053222656,0.0,2.294430181081112,-1.6399960060806045,-0.22765500182199733,0.770336776342647,0.7588926397604433,0.010594115255600202,0.03207904643017413,nan,nan,nan,nan,nan,nan,nan,nan,nan,nan
19.46794366836548,-0.03390573337674141,2.1669259071350098,-1.478408694267273,-0.03633081936024003,0.0028171539306640625,0.0,2.290252312588216,-1.626388715982382,-0.21765500182199732,0.7704169462116082,0.7396838423379773,0.004303414981940177,0.037401877731097474,nan,nan,nan,nan,nan,nan,nan,nan,nan,nan
19.477802276611328,-0.03459173068404198,2.159034252166748,-1.4699779748916626,-0.03619444973589645,0.002313375473022461,0.0,2.2856986855116905,-1.6128837231246855,-0.2076550018219973,0.770497328339317,0.7204620295427138,0.00749445930466782,0.03650944430284321,nan,nan,nan,nan,nan,nan,nan,nan,nan,nan
19.48769760131836,-0.03527466207742691,2.1511073112487793,-1.4615986347198486,-0.03604961178377216,0.002015352249145508,0.0,2.2807802588911232,-1.5994893920899713,-0.1976550018219973,0.7705756598852495,0.7012099660706089,0.006340232759816742,0.03782272877190597,nan,nan,nan,nan,nan,nan,nan,nan,nan,nan
19.497738361358643,-0.036631032824516296,2.1351709365844727,-1.4450446367263794,-0.03574195849502623,0.0018661022186279297,0.0,2.275508165116524,-1.58621377819879,-0.1876550018219973,0.7704445028757058,0.6487237710059637,0.00762445667677954,0.03730709551407692,nan,nan,nan,nan,nan,nan,nan,nan,nan,nan
19.507766485214233,-0.03670746833086014,2.1265816688537598,-1.437021017074585,-0.03558264344992,0.002114534378051758,0.0,2.269893702824202,-1.5730646240266655,-0.17765500182199728,0.7705095431564103,0.6312218497486808,0.007635411174799629,0.037992344489871335,nan,nan,nan,nan,nan,nan,nan,nan,nan,nan
19.518070697784424,-0.03679284453392029,2.1179897785186768,-1.4290473461151123,-0.03540137861728772,0.0030896663665771484,0.0,2.263948329723671,-1.560049356072594,-0.16765500182199727,0.7705812261187733,0.6151805875495173,0.008367422185467897,0.03815474698665918,nan,nan,nan,nan,nan,nan,nan,nan,nan,nan
19.527711391448975,-0.03688666597008705,2.109400510787964,-1.4211230278015137,-0.03521419816019544,0.0019872188568115234,0.0,2.2576836553587114,-1.5471750815805174,-0.15765500182199726,0.7706602628904113,0.6006954614545812,0.008731270658721,0.038493103871035925,nan,nan,nan,nan,nan,nan,nan,nan,nan,nan
19.537785530090332,-0.03709784150123596,2.092249631881714,-1.4054206609725952,-0.0348238206819648,0.0020694732666015625,0.0,2.2511114338057547,-1.5344485855150656,-0.14765500182199726,0.7705529040224256,0.5565559371608659,0.009836690420410603,0.038301611865077835,nan,nan,nan,nan,nan,nan,nan,nan,nan,nan
19.547749519348145,-0.03721437230706215,2.0836973190307617,-1.3976858854293823,-0.03461998837994447,0.001969575881958008,0.0,2.2442435563127763,-1.5218763276927938,-0.13765500182199725,0.7706467942192712,0.5456963929384187,0.00979247798850997,0.039079581725952724,nan,nan,nan,nan,nan,nan,nan,nan,nan,nan
19.693708658218384,-0.03721437230706215,2.0836973190307617,-1.3976858854293823,-0.03461998837994447,0.0022385120391845703,0.0,2.074087455779601,-1.38744893178051,0.009470320777655814,0.7736689892777414,1.0,0.009880434235848277,0.0395872178080535,nan,nan,nan,nan,nan,nan,nan,nan,nan,nan
19.699288606643677,-0.041337016969919205,1.9258049726486206,-1.2681986093521118,-0.030084232384877632,0.0024552345275878906,0.0,2.0643762573577593,-1.3774217368348995,0.019470320777655814,0.7704758451917116,0.4587850468187561,0.017425704874863952,0.021343376816820324,nan,nan,nan,nan,nan,nan,nan,nan,nan,nan
19.707947254180908,-0.04162503033876419,1.9179900884628296,-1.2622642517089844,-0.029815119029640756,0.002378702163696289,0.0,2.0545767617399235,-1.3676050962920923,0.029470320777655816,0.770600908940291,0.4697156665695338,0.00435349711224622,0.03510153859972617,nan,nan,nan,nan,nan,nan,nan,nan,nan,nan
19.717729806900024,-0.04191097617149353,1.910261631011963,-1.2563573122024536,-0.029543458258746866,0.0025606155395507812,0.0,2.0447020078760803,-1.357999456783162,0.03947032077765582,0.7707298370970372,0.48163974613457217,0.01383830623313441,0.027609502186407352,nan,nan,nan,nan,nan,nan,nan,nan,nan,nan
19.727760553359985,-0.04219572991132736,1.9026341438293457,-1.2504782676696777,-0.029269859033663533,0.002140045166015625,0.0,2.034765027829374,-1.3486049160487281,0.04947032077765582,0.7708595961029368,0.4944253314448136,0.007921558134905981,0.03367479980181296,nan,nan,nan,nan,nan,nan,nan,nan,nan,nan
19.737973928451538,-0.04276124760508537,1.8876936435699463,-1.238816261291504,-0.0287214260473276,0.002156496047973633,0.0,2.024778838920423,-1.339421223282971,0.05947032077765582,0.7707802464632828,0.46808113220888514,0.012609782293758781,0.029037320155474958,nan,nan,nan,nan,nan,nan,nan,nan,nan,nan
19.747662782669067,-0.04304167255759239,1.880387306213379,-1.2330759763717651,-0.02844636754865535,0.0019290447235107422,0.0,2.014756435881489,-1.3304477796434713,0.06947032077765582,0.7708965394399481,0.4799234291804386,0.009254804106222179,0.03241188821658469,nan,nan,nan,nan,nan,nan,nan,nan,nan,nan
19.75794744491577,-0.04297293722629547,1.8733774423599243,-1.2284889221191406,-0.02817519117852111,0.002137422561645508,0.0,2.004710783023917,-1.3216836389266289,0.07947032077765581,0.770990141306159,0.4924315290468396,0.012246548812734046,0.029461270209128827,nan,nan,nan,nan,nan,nan,nan,nan,nan,nan
19.76758313179016,-0.04291035234928131,1.866480827331543,-1.2239058017730713,-0.027899284210007855,0.002646923065185547,0.0,1.9946548064222274,-1.3131275084083487,0.0894703207776558,0.7710963038262937,0.5063681535390652,0.01051331915217638,0.031184302127685762,nan,nan,nan,nan,nan,nan,nan,nan,nan,nan
19.77785611152649,-0.04280272498726845,1.853039026260376,-1.21475088596344,-0.027347723722317654,0.002010822296142578,0.0,1.9846013861182572,-1.3047777498496094,0.0994703207776558,0.7710340914300929,0.48017191970307727,0.012954167390242455,0.028688677171059593,nan,nan,nan,nan,nan,nan,nan,nan,nan,nan
19.787562131881714,-0.04274406284093857,1.846513032913208,-1.2101795673370361,-0.027070468094119976,0.002095460891723633,0.0,1.9745633483487322,-1.2966323806664646,0.1094703207776558,0.7711660540025782,0.49705782209423055,0.011437907012142418,0.030754132440992326,nan,nan,nan,nan,nan,nan,nan,nan,nan,nan
19.94761896133423,-0.04274406284093857,1.846513032913208,-1.2101795673370361,-0.027070468094119976,0.0022695064544677734,0.0,1.8381342443814053,-1.203408688664657,0.16362838236841568,0.7736689892777414,0.6758888519798048,0.0128524219405104,0.029349030374406195,nan,nan,nan,nan,nan,nan,nan,nan,nan,nan
19.957902193069458,-0.04284434765577316,1.7501394748687744,-1.1216306686401367,-0.021436417627978266,0.0022728443145751953,0.0,1.82987923950947,-1.1967799078264982,0.16895978655476201,0.7715135320469158,-0.3743683274652021,0.021542340119048237,0.017051135154640885,nan,nan,nan,nan,nan,nan,nan,nan,nan,nan
19.967589855194092,-0.042954232543706894,1.7444819211959839,-1.1130980253219604,-0.020856479757177332,0.0025207996368408203,0.0,1.8217652485311084,-1.1902784194412428,0.17297072722699602,0.7716793472663429,-0.570393686545142,0.013815577740099928,0.032996058561762305,nan,nan,nan,nan,nan,nan,nan,nan,nan,nan
19.977729320526123,-0.042954232543706894,1.7444819211959839,-1.1130980253219604,-0.020856479757177332,0.001972198486328125,0.0,1.8138068768913376,-1.1838910224089978,0.17576482894670956,0.7719859313207117,-0.6506309157218364,0.022769363956173596,0.03866335616972463,nan,nan,nan,nan,nan,nan,nan,nan,nan,nan
19.98757314682007,-0.0431034155189991,1.7373014688491821,-1.100371241569519,-0.019982695178167142,0.002080678939819336,0.0,1.8060163499523942,-1.1776061196268917,0.17744210371770644,0.7720801137464258,-0.9013831957130449,0.02625170930729058,0.048267588065812723,nan,nan,nan,nan,nan,nan,nan,nan,nan,nan
19.997682571411133,-0.0431034155189991,1.7373014688491821,-1.100371241569519,-0.019982695178167142,0.001890420913696289,0.0,1.7984037337272527,-1.1714136835840632,0.17809877753114792,0.7723875419059936,-0.973292776604942,0.0314406240479432,0.05791864247563201,nan,nan,nan,nan,nan,nan,nan,nan,nan,nan
20.007810354232788,-0.043219611048698425,1.7334270477294922,-1.092025637626648,-0.0194051643984101,0.002026796340942383,0.0,1.7909771337211222,-1.1653051955085467,0.17782715621834325,0.7724818271397036,-1.0,0.03742837936495497,0.06838361052625119,nan,nan,nan,nan,nan,nan,nan,nan,nan,nan
20.017860651016235,-0.043219611048698425,1.7334270477294922,-1.092025637626648,-0.0194051643984101,0.002248048782348633,0.0,1.7837428741889392,-1.1592735646459913,0.1767155270393568,0.7727908787128954,-1.0,0.04229087172166975,0.0793120472959616,nan,nan,nan,nan,nan,nan,nan,nan,nan,nan
20.02790880203247,-0.04259870573878288,1.7305868864059448,-1.0804623365402222,-0.018498257222579667,0.0019214153289794922,0.0,1.776705660163595,-1.1533130332663846,0.1748480925093651,0.7727334318379591,-1.0,0.049532550330176936,0.09101451165080007,nan,nan,nan,nan,nan,nan,nan,nan,nan,nan
20.037663459777832,-0.04259870573878288,1.7305868864059448,-1.0804623365402222,-0.018498257222579667,0.002185344696044922,0.0,1.7698687245276097,-1.1474190721183517,0.1723049331135049,0.7730449308010937,-1.0,0.05503723676073513,0.1036347990848767,nan,nan,nan,nan,nan,nan,nan,nan,nan,nan
20.186618328094482,-0.04259870573878288,1.7305868864059448,-1.0804623365402222,-0.018498257222579667,0.002653360366821289,0.0,1.7276382737866616,-1.074833193147001,0.2627519269433337,0.7736689892777414,-1.0,0.06118926997146933,0.11631776292061982,nan,nan,nan,nan,nan,nan,nan,nan,nan,nan
20.192985773086548,-0.034998536109924316,1.7614319324493408,-1.0066643953323364,-0.009550825205511815,0.0025053024291992188,0.0,1.725029492596076,-1.0692114611226393,0.2527519269433337,0.7714057162172833,-1.0,0.024529074543942313,0.1037366967793938,nan,nan,nan,nan,nan,nan,nan,nan,nan,nan
