time,x,y,z,yaw,ctrl_comp_time,rollout_comptime,y_ref,z_ref,yaw_ref,throttle,roll_rate,pitch_rate,yaw_rate,save_tube_pyH,save_tube_pyL,save_tube_pzH,save_tube_pzL,wy,wz
15.095923900604248,-0.014117678627371788,3.7975637912750244,-12.278154373168945,0.0021597822941177482,0.16100573539733887,0.09402585029602051,3.803004378932448,-12.281016422494023,-0.10647936051058027,0.5788212005944545,-1.0,0.02445672944983911,0.015617317565177133,3.820320915754887,3.7849978592076714,-12.264513490503889,-12.300652887042096,-0.029732154079202832,0.12809979760951842
15.682840824127197,-0.04606344923377037,3.828418016433716,-12.252150535583496,0.0032623095437083194,0.16863322257995605,0.07324576377868652,3.8035686224830596,-12.27681662664022,-0.12647936051058026,0.6141155448461685,-0.2964011761620853,0.027473127262549007,0.06989952896704318,3.83014389063657,3.7764730230875103,-12.251699233726793,-12.306487935638966,-0.009132220895961031,-5.84390682106635
15.771809339523315,-0.05332103371620178,3.8049774169921875,-12.037381172180176,0.0036139392596559183,0.0024034976959228516,0.06882309913635254,3.8039448751416503,-12.271207538868115,-0.14647936051058028,0.6701436998142506,1.0,0.019409823840848536,0.10071863424246032,3.8426167664978617,3.764946847811225,-12.234773020356243,-12.313601733348374,-0.009132220895961031,-5.84390682106635
15.781136751174927,-0.05332103371620178,3.8049774169921875,-12.037381172180176,0.0036139392596559183,0.002735614776611328,0.06882309913635254,3.804107799608144,-12.26420227553261,-0.1664793605105803,0.6689307865723436,1.0,0.03437159343755338,0.05470319997918541,3.858454689802226,3.7496545630622005,-12.213151826051929,-12.322605552429017,0.31859148755748384,-0.8385083297750535
15.788662195205688,-0.05382145196199417,3.796032428741455,-12.006218910217285,0.003764933034534429,0.002045154571533203,0.06882309913635254,3.8040310765135046,-12.255811889688193,-0.1864793605105803,0.6748805593092201,1.0,0.013597968210935393,0.057762979281671824,3.8786911124976284,3.729511037042497,-12.185972477950582,-12.334386750832092,0.31859148755748384,-0.8385083297750535
15.79831075668335,-0.054108209908008575,3.7892069816589355,-11.984889030456543,0.0038748544270088836,0.0026743412017822266,0.06882309913635254,3.8036874988063154,-12.246045310537843,-0.20647936051058033,0.6784441514867781,1.0,0.00588052808464371,0.034178766617050535,3.904834205583056,3.7029545483269337,-12.151934994755365,-12.350265306704006,0.31859148755748384,-0.8385083297750535
15.80819845199585,-0.054108209908008575,3.7892069816589355,-11.984889030456543,0.0038748544270088836,0.0047838687896728516,0.06882309913635254,3.8030490693306933,-12.234909287304227,-0.22647936051058035,0.6771966103734519,1.0,-0.006839834830229888,0.016166597842845246,3.9391159926570496,3.667697844333339,-12.109055435108912,-12.372240853295486,0.31859148755748384,-0.8385083297750535
15.821338891983032,-0.054108209908008575,3.7892069816589355,-11.984889030456543,0.0038748544270088836,0.004127025604248047,0.06882309913635254,3.802087101375254,-12.222408337669476,-0.24647936051058036,0.6759318692218795,1.0,-0.019086413059250674,-0.005265586213121006,3.9848768343052763,3.6203438551176985,-12.05428729741397,-12.403371171416758,0.31859148755748384,-0.8385083297750535
15.834698915481567,-0.05524101480841637,3.7775590419769287,-11.950390815734863,0.004113243091582536,0.002261638641357422,0.06882309913635254,3.800772321966901,-12.208544700918463,-0.26647936051058035,0.6815638040752728,1.0,-0.035204425474008545,-0.027514791389894426,4.047143875432846,3.5558074499418426,-11.982959990103243,-12.448333620718461,0.4645315512215442,0.3978169361578543
15.84012746810913,-0.05524101480841637,3.7775590419769287,-11.950390815734863,0.004113243091582536,0.003186464309692383,0.06882309913635254,3.799074977677899,-12.193318295908892,-0.28647936051058037,0.6802772669878977,1.0,-0.04961707612174058,-0.05357873750725995,4.13343854674845,3.4665081449486776,-11.888011879623328,-12.5141920027917,0.4645315512215442,0.3978169361578543
15.850090503692627,-0.056932784616947174,3.7687246799468994,-11.924887657165527,0.004349401577183082,0.0022602081298828125,0.06882309913635254,3.7969649427099528,-12.176726683979844,-0.3064793605105804,0.6830511632507249,1.0,-0.06731891033166354,-0.07924571746991754,4.254717269952319,3.3414296119249904,-11.759151301883383,-12.611235470571588,0.4645315512215442,0.3978169361578543
15.857142448425293,-0.05931323394179344,3.7538981437683105,-11.886507034301758,0.004817316303765085,0.002928495407104492,0.06882309913635254,3.7944118290148765,-12.158765036898458,-0.3264793605105804,0.6873063072709298,1.0,-0.08615826548778917,-0.10564151435200493,4.425913715145901,3.1655776391570924,-11.58260979133692,-12.753225230087263,0.4645315512215442,0.3978169361578543
15.86808967590332,-0.05931323394179344,3.7538981437683105,-11.886507034301758,0.004817316303765085,0.001995086669921875,0.06882309913635254,3.8022764087394605,-12.283791811590328,-0.08647936051058028,0.6860084413822402,1.0,-0.10285013728878821,-0.13439629807366174,3.812651104669148,3.791065482809892,-12.273618191294211,-12.295662009974638,0.4645315512215442,0.3978169361578543
15.877401351928711,-0.060064978897571564,3.748540163040161,-11.87370491027832,0.005004137560269989,0.002577066421508789,0.06882309913635254,3.8030043789323895,-12.281016422494078,-0.10647936051058027,0.6864433184070563,1.0,-0.12052080116746598,-0.16152177275255025,3.820320915754838,3.784997859207625,-12.264513490503935,-12.30065288704214,0.4645315512215442,0.3978169361578543
15.887457370758057,-0.060798343271017075,3.7429757118225098,-11.860886573791504,0.005211464042193276,0.002053976058959961,0.06882309913635254,3.803568622482976,-12.276816626640297,-0.12647936051058026,0.686819715822302,1.0,-0.1377090299500292,-0.1878378570862783,3.830143890636496,3.776473023087443,-12.25169923372686,-12.30648793563903,0.4645315512215442,0.3978169361578543
15.8983793258667,-0.06221224367618561,3.731236457824707,-11.835206031799316,0.005695669535019571,0.002805948257446289,0.06882309913635254,3.803944875141537,-12.271207538868216,-0.14647936051058028,0.6886959980487284,1.0,-0.15432919910161932,-0.21051003894324824,3.8426167664977577,3.764946847811133,-12.234773020356336,-12.31360173334846,0.4645315512215442,0.3978169361578543
15.987562656402588,-0.06221224367618561,3.731236457824707,-11.835206031799316,0.005695669535019571,0.001890420913696289,0.08162760734558105,3.8041077996079964,-12.264202275532737,-0.1664793605105803,0.6632411232085557,-1.0,-0.16917974044681325,-0.23431034733960165,3.858454689802085,3.7496545630620823,-12.213151826052053,-12.322605552429124,0.4645315512215442,0.3978169361578543
15.999413967132568,-0.07219359278678894,3.6353180408477783,-11.671966552734375,0.008144902436655416,0.0026929378509521484,0.08162760734558105,3.8040310765133185,-12.255811889688353,-0.1864793605105803,0.6809629768639841,-0.7442582249151154,-0.18883287348003613,-0.36645828756629956,3.8786911124974424,3.7295110370423514,-12.185972477950743,-12.334386750832216,-0.4511881972448404,-1.7170675955860955
16.007485151290894,-0.07305809110403061,3.625765085220337,-11.657912254333496,0.008151367842755969,0.0030951499938964844,0.08162760734558105,3.8036874988060854,-12.246045310538038,-0.20647936051058033,0.6814123892064946,-0.8973075750065042,-0.22835191109767933,-0.4934123899512589,3.904834205582815,3.702954548326761,-12.151934994755576,-12.350265306704143,-0.4511881972448404,-1.7170675955860955
16.01787543296814,-0.07472572475671768,3.606311798095703,-11.62983512878418,0.008034248645633665,0.0019769668579101562,0.08162760734558105,3.803049069330415,-12.234909287304456,-0.22647936051058035,0.6831133179900574,-1.0,-0.28659171328921146,-0.6453403116515323,3.9391159926567396,3.667697844333142,-12.109055435109187,-12.372240853295626,-0.4511881972448404,-1.7170675955860955
16.02860116958618,-0.07552219182252884,3.596414089202881,-11.615836143493652,0.007909705234313766,0.004102230072021484,0.08162760734558105,3.802087101374922,-12.222408337669744,-0.24647936051058036,0.6835426946999097,-1.0,-0.36329581045952086,-0.7226701558257661,3.984876834304879,3.6203438551174862,-12.05428729741433,-12.403371171416886,-0.2680068700829433,-1.6878234242343737
16.037638902664185,-0.07629358023405075,3.5864081382751465,-11.601851463317871,0.007749189764638023,0.001789093017578125,0.08162760734558105,3.8007723219665097,-12.208544700918774,-0.26647936051058035,0.6839666895322134,-1.0,-0.42262585995650925,-0.761335077912883,4.047143875432332,3.555807449941635,-11.98295999010373,-12.448333620718543,-0.2680068700829433,-1.6878234242343737
16.047653913497925,-0.07629358023405075,3.5864081382751465,-11.601851463317871,0.007749189764638023,0.00400853157043457,0.08162760734558105,3.7990749776774426,-12.193318295909247,-0.28647936051058037,0.6832747795113958,-1.0,-0.46534659832549274,-0.7806675389564416,4.133438546747766,3.4665081449485164,-11.88801187962401,-12.514192002791672,-0.2680068700829433,-1.6878234242343737
16.05686330795288,-0.07703977078199387,3.5762975215911865,-11.587883949279785,0.007553934000666784,0.0028443336486816406,0.08162760734558105,3.7969649427094256,-12.176726683980245,-0.3064793605105804,0.6837227953520023,-1.0,-0.48878452586224375,-0.7903337694782208,4.254717269951362,3.341429611924966,-11.759151301884385,-12.611235470571328,-0.2680068700829433,-1.6878234242343737
16.068227529525757,-0.07912326604127884,3.5453615188598633,-11.546093940734863,0.006742857661310206,0.00200653076171875,0.08162760734558105,3.830640773917589,-12.224385576287878,-0.1894127435056943,0.6863437502699697,-1.0,-0.4768120327454417,-0.7951668847391105,3.84043833315272,3.820686210520325,-12.219151272539797,-12.238918444680754,-0.2680068700829433,-1.6878234242343737
16.07814860343933,-0.07989051192998886,3.533396005630493,-11.530375480651855,0.006350093978095356,0.0032396316528320312,0.08162760734558105,3.8305911389619034,-12.214088812736184,-0.2094127435056943,0.6869044331580543,-1.0,-0.45862160760418885,-0.7975834423695553,3.8478859277558977,3.8134173316883704,-12.202237707835591,-12.23656880392238,-0.2680068700829433,-1.6878234242343737
16.173601865768433,-0.07989051192998886,3.533396005630493,-11.530375480651855,0.006350093978095356,0.0034685134887695312,0.087127685546875,3.8302410777627958,-12.20246654640021,-0.22941274350569432,0.6702436674809911,-1.0,-0.45085543863927063,-0.7987917211847776,3.857810938647473,3.8031001673376994,-12.181422006803572,-12.235464049009924,-0.2680068700829433,-1.6878234242343737
16.188469886779785,-0.08684208244085312,3.356846809387207,-11.315457344055176,-0.006495709695102686,0.0028982162475585938,0.087127685546875,3.82956007431495,-12.18952338328586,-0.24941274350569434,0.6865971572298957,0.7578611627919445,-0.11831548300977401,-0.3456756118906674,3.870840213352193,3.7890475402716124,-12.156224801037185,-12.236094950010099,-0.23017697670170692,-2.5548770307486857
16.199076414108276,-0.08739160746335983,3.344024181365967,-11.299396514892578,-0.007916408021766325,0.0021119117736816406,0.087127685546875,3.828516983147347,-12.175261701186937,-0.26941274350569433,0.686961674448386,0.7593215926484489,0.02975933568857694,-0.21837515464310348,3.887894784321942,3.7702767320241297,-12.125937398475337,-12.2391771952679,-0.23017697670170692,-2.5548770307486857
16.207321643829346,-0.0878828763961792,3.331052780151367,-11.28336238861084,-0.00949628762538679,0.0029404163360595703,0.087127685546875,3.8270801288860796,-12.15968160201415,-0.28941274350569435,0.6873368225238228,0.7602575558069709,0.12832857292896555,-0.06917396359578148,3.910331782258838,3.7453677658115176,-12.089491500210809,-12.245781574742168,-0.23017697670170692,-2.5548770307486857
16.217939138412476,-0.08868516981601715,3.30464506149292,-11.251355171203613,-0.012822665115947901,0.00208282470703125,0.087127685546875,3.825217408500537,-12.14278086873752,-0.30941274350569437,0.6892147721523159,0.9316624518056544,0.2216775723890629,0.057617532645357836,3.940159215723989,3.71224882878887,-12.045256517674913,-12.257536572060156,-0.23017697670170692,-2.5548770307486857
16.227981567382812,-0.0889960378408432,3.2912027835845947,-11.235401153564453,-0.014535152855696565,0.003327608108520508,0.087127685546875,3.8228963960050883,-12.124554927065198,-0.3294127435056944,0.6896195523851945,0.9321865835146674,0.291069082359325,0.1590481473944224,3.9803538174114395,3.667878632781612,-11.990731841152604,-12.276936014594355,-0.03862587530944253,-1.7503453117854462
16.23732566833496,-0.089242123067379,3.2775888442993164,-11.219461441040039,-0.016316583100266513,0.002023935317993164,0.087127685546875,3.8200844493836583,-12.10499681197008,-0.3494127435056944,0.6899620576749944,0.9266280267709441,0.34646735729568867,0.2364870640520788,4.035380699556535,3.6077269705620916,-11.922073328579053,-12.307812512844952,-0.03862587530944253,-1.7503453117854462
16.248632669448853,-0.08942126482725143,3.263795852661133,-11.203539848327637,-0.018199141471425484,0.0020956993103027344,0.087127685546875,3.816748819500453,-12.08409713916384,-0.3694127435056944,0.6902792547969872,0.9104817977656272,0.39034395922041804,0.29416404596467455,4.111942205532865,3.5250260801475997,-11.833419884410063,-12.356010819546643,-0.03862587530944253,-1.7503453117854462
16.257287740707397,-0.08957178890705109,3.2356553077697754,-11.171745300292969,-0.022453761419547275,0.0025129318237304688,0.087127685546875,3.812856760756555,-12.061844081606141,-0.38941274350569444,0.6919608674971167,1.0,0.4317595305899788,0.33259679188803914,4.219886273285186,3.4098625009952244,-11.716103665831932,-12.430177571421561,-0.03862587530944253,-1.7503453117854462
16.268179655075073,-0.08954088389873505,3.221302032470703,-11.15587043762207,-0.02486126353956189,0.002089262008666992,0.087127685546875,3.8083756432491715,-12.038223351124813,-0.40941274350569445,0.692245838700131,0.9743631444051593,0.4593510826009571,0.35774123394643365,4.372933050866631,3.2484506813416183,-11.557887744035453,-12.542523586017234,-0.03862587530944253,-1.7503453117854462
16.366872310638428,-0.08954088389873505,3.221302032470703,-11.15587043762207,-0.02486126353956189,0.0019254684448242188,0.09167742729187012,3.8306516297221327,-12.219403255878987,-0.1994127435056943,0.6947743379152098,-0.7512281848875038,0.47324133118081574,0.38187614919648644,3.84043833315272,3.820686210520325,-12.219151272539797,-12.238918444680754,-0.03862587530944253,-1.7503453117854462
16.377931833267212,-0.08276228606700897,3.001567840576172,-10.928690910339355,-0.06347794244466648,0.0033676624298095703,0.09167742729187012,3.8304555529925848,-12.208443027906748,-0.2194127435056943,0.7115476960158005,0.3824340770518966,0.4281884699855156,0.20520651580984467,3.8478859277558977,3.8134173316883704,-12.202237707835591,-12.23656880392238,-0.25368335647236767,-1.9101413750399783
16.387306451797485,-0.08186660706996918,2.9846701622009277,-10.912235260009766,-0.06570418576982508,0.001928567886352539,0.09167742729187012,3.8299438768119014,-12.196159875523643,-0.23941274350569433,0.7119536770817322,0.3876544600878258,0.41513164202315894,0.25000000635553127,3.857810938647473,3.8031001673376994,-12.181422006803572,-12.235464049009924,-0.25368335647236767,-1.9101413750399783
16.398701906204224,-0.0809202715754509,2.9676356315612793,-10.895788192749023,-0.06782069274629762,0.0023040771484375,0.09167742729187012,3.8290857581730346,-12.18255729687162,-0.2594127435056943,0.7123494602928132,0.39101142393784305,0.40552897282395967,0.2699745918242372,3.870840213352193,3.7890475402716124,-12.156224801037185,-12.236094950010099,-0.25368335647236767,-1.9101413750399783
16.407238006591797,-0.079924575984478,2.950467586517334,-10.879359245300293,-0.0698390044578023,0.0029304027557373047,0.09167742729187012,3.827849774035177,-12.16763653747649,-0.27941274350569434,0.7126502152533449,0.3982371923129031,0.3959429284948448,0.27720881014562054,3.887894784321942,3.7702767320241297,-12.125937398475337,-12.2391771952679,-0.25368335647236767,-1.9101413750399783
16.417901515960693,-0.0777912512421608,2.915745258331299,-10.846588134765625,-0.07364144306073396,0.0019998550415039062,0.09167742729187012,3.8262040222564284,-12.151396544867538,-0.29941274350569436,0.7137013264034073,0.4843633596638812,0.37741792339594205,0.2751528416992288,3.910331782258838,3.7453677658115176,-12.089491500210809,-12.245781574742168,-0.25368335647236767,-1.9101413750399783
16.42748498916626,-0.07665813714265823,2.8981974124908447,-10.830280303955078,-0.07542812838990533,0.002969026565551758,0.09167742729187012,3.8241162250965246,-12.133833927873484,-0.3194127435056944,0.7139092896074066,0.5135116778579951,0.36060720431355464,0.27127582634338576,3.940159215723989,3.71224882878887,-12.045256517674913,-12.257536572060156,0.07456179138536911,-1.6249613958740206
16.437284469604492,-0.07548423856496811,2.8805410861968994,-10.814009666442871,-0.07711191249561652,0.0019457340240478516,0.09167742729187012,3.821553835059313,-12.114942920712007,-0.3394127435056944,0.7141089956507762,0.545783652079832,0.3443943893913534,0.2647002653420046,3.9803538174114395,3.667878632781612,-11.990731841152604,-12.276936014594355,0.07456179138536911,-1.6249613958740206
16.545376777648926,-0.07548423856496811,2.8805410861968994,-10.814009666442871,-0.07711191249561652,0.002671957015991211,0.09918642044067383,3.818484142840232,-12.094715351978358,-0.3594127435056944,0.695602773910283,0.7494481320387483,0.3367475820659151,0.25901105160284643,4.035380699556535,3.6077269705620916,-11.922073328579053,-12.307812512844952,0.07456179138536911,-1.6249613958740206
16.554726600646973,-0.04821385070681572,2.609292984008789,-10.572025299072266,-0.08924956005525646,0.005306243896484375,0.09918642044067383,3.814874387140205,-12.073140618626752,-0.3794127435056944,0.7053912232761269,1.0,0.23289665494300044,0.2562242997032576,4.111942205532865,3.5250260801475997,-11.833419884410063,-12.356010819546643,-0.05006742533127008,-2.3423933762795994
16.564751148223877,-0.04821385070681572,2.609292984008789,-10.572025299072266,-0.08924956005525646,0.0030813217163085938,0.09918642044067383,3.8106918661041242,-12.050205665026349,-0.39941274350569445,0.7046765549675326,1.0,0.19539217397851244,0.22031889901780066,4.219886273285186,3.4098625009952244,-11.716103665831932,-12.430177571421561,-0.05006742533127008,-2.3423933762795994
16.571914196014404,-0.04415284842252731,2.569152593612671,-10.538115501403809,-0.08963014360224421,0.0025408267974853516,0.09918642044067383,3.805904050139462,-12.025894967161557,-0.41941274350569446,0.7053549072008678,1.0,0.16485156520002658,0.19485534135109658,4.372933050866631,3.2484506813416183,-11.557887744035453,-12.542523586017234,-0.05006742533127008,-2.3423933762795994
16.579457759857178,-0.04415284842252731,2.569152593612671,-10.538115501403809,-0.08963014360224421,0.004039287567138672,0.09918642044067383,3.8305911389619034,-12.214088812736184,-0.2094127435056943,0.7046411536722561,1.0,0.1518207643381784,0.17279990581818666,3.84043833315272,3.820686210520325,-12.219151272539797,-12.238918444680754,-0.05006742533127008,-2.3423933762795994
16.58788824081421,-0.038319751620292664,2.505514621734619,-10.486204147338867,-0.08980523669252168,0.0025005340576171875,0.09918642044067383,3.8302410777627958,-12.20246654640021,-0.22941274350569432,0.7061595533493455,1.0,0.12347486042794138,0.16518721831273214,3.8478859277558977,3.8134173316883704,-12.202237707835591,-12.23656880392238,-0.05006742533127008,-2.3423933762795994
16.598626852035522,-0.038319751620292664,2.505514621734619,-10.486204147338867,-0.08980523669252168,0.005190610885620117,0.09918642044067383,3.82956007431495,-12.18952338328586,-0.24941274350569434,0.7054505824886717,1.0,0.11293327186330722,0.1502946969652036,3.857810938647473,3.8031001673376994,-12.181422006803572,-12.235464049009924,-0.05006742533127008,-2.3423933762795994
16.613258838653564,-0.03447427973151207,2.462921380996704,-10.45179557800293,-0.08963495463211255,0.004559755325317383,0.09918642044067383,3.828516983147347,-12.175261701186937,-0.26941274350569433,0.7063523603295551,1.0,0.09326431354089504,0.14493622591010732,3.870840213352193,3.7890475402716124,-12.156224801037185,-12.236094950010099,-0.05006742533127008,-2.3423933762795994
16.621185541152954,-0.03447427973151207,2.462921380996704,-10.45179557800293,-0.08963495463211255,0.0028150081634521484,0.09918642044067383,3.8270801288860796,-12.15968160201415,-0.28941274350569435,0.7056399421060311,1.0,0.08599126379602227,0.13454115643461384,3.887894784321942,3.7702767320241297,-12.125937398475337,-12.2391771952679,-0.05006742533127008,-2.3423933762795994
16.632213830947876,-0.02880045399069786,2.3988308906555176,-10.400474548339844,-0.08885473072826844,0.002955198287963867,0.09918642044067383,3.825217408500537,-12.14278086873752,-0.30941274350569437,0.7071549358334451,1.0,0.0641603440656204,0.13352985171660314,3.910331782258838,3.7453677658115176,-12.089491500210809,-12.245781574742168,0.23274844742893852,-1.6035225897876226
16.63827681541443,-0.02880045399069786,2.3988308906555176,-10.400474548339844,-0.08885473072826844,0.0023157596588134766,0.09918642044067383,3.8228963960050883,-12.124554927065198,-0.3294127435056944,0.7064533472275725,1.0,0.05666425113575808,0.1233633024532666,3.940159215723989,3.71224882878887,-12.045256517674913,-12.257536572060156,0.23274844742893852,-1.6035225897876226
16.736430644989014,-0.008397783152759075,2.1381568908691406,-10.196695327758789,-0.08216581093313521,0.0018281936645507812,0.08781075477600098,3.8200844493836583,-12.10499681197008,-0.3494127435056944,0.699940776398572,1.0,0.02233324235834642,0.12446372012573892,3.9803538174114395,3.667878632781612,-11.990731841152604,-12.276936014594355,0.23274844742893852,-1.6035225897876226
16.7442843914032,-0.005505208857357502,2.093832015991211,-10.162641525268555,-0.08092866723148531,0.002255678176879883,0.08781075477600098,3.816748819500453,-12.08409713916384,-0.3694127435056944,0.7007812641689327,1.0,0.009515028892687898,0.10336767880523898,4.035380699556535,3.6077269705620916,-11.922073328579053,-12.307812512844952,0.37489810518367983,-1.5668786075298864
16.75096607208252,-0.005505208857357502,2.093832015991211,-10.162641525268555,-0.08092866723148531,0.0019843578338623047,0.08781075477600098,3.812856760756555,-12.061844081606141,-0.38941274350569444,0.6998974568108556,1.0,0.00332454056349757,0.09073270349001643,4.111942205532865,3.5250260801475997,-11.833419884410063,-12.356010819546643,0.37489810518367983,-1.5668786075298864
16.75702452659607,-0.0026861964724957943,2.049736976623535,-10.128662109375,-0.07963821027526254,0.0021343231201171875,0.08781075477600098,3.8083756432491715,-12.038223351124813,-0.40941274350569445,0.7007644669404014,1.0,-0.002798594270811726,0.08380462109518753,4.219886273285186,3.4098625009952244,-11.716103665831932,-12.430177571421561,0.37489810518367983,-1.5668786075298864
16.767685174942017,-0.001304238336160779,2.0277860164642334,-10.11169719696045,-0.07897466299096861,0.00211334228515625,0.08781075477600098,3.803273066187974,-12.013218185210718,-0.42941274350569447,0.7007676818374514,1.0,-0.006742524567997339,0.07827149451081326,4.372933050866631,3.2484506813416183,-11.557887744035453,-12.542523586017234,0.37489810518367983,-1.5668786075298864
16.77722477912903,0.0014050540048629045,1.9840983152389526,-10.077850341796875,-0.07762410163350482,0.0025844573974609375,0.08781075477600098,3.8304555529925848,-12.208443027906748,-0.2194127435056943,0.7017284266042406,1.0,-0.010940274621111858,0.07406120691005286,3.84043833315272,3.820686210520325,-12.219151272539797,-12.238918444680754,0.37489810518367983,-1.5668786075298864
16.7869074344635,0.0027371468022465706,1.962374210357666,-10.060937881469727,-0.07694444212540195,0.0019178390502929688,0.08781075477600098,3.8299438768119014,-12.196159875523643,-0.23941274350569433,0.7017926507776558,1.0,-0.013579487299539096,0.07000842978426162,3.8478859277558977,3.8134173316883704,-12.202237707835591,-12.23656880392238,0.37489810518367983,-1.5668786075298864
16.797795295715332,0.004051501397043467,1.9407325983047485,-10.04403018951416,-0.0762626476874317,0.003031015396118164,0.08781075477600098,3.8290857581730346,-12.18255729687162,-0.2594127435056943,0.7018701813755647,1.0,-0.015618800063823095,0.06695908155410155,3.857810938647473,3.8031001673376994,-12.181422006803572,-12.235464049009924,0.37489810518367983,-1.5668786075298864
16.806798934936523,0.00534832151606679,1.919177770614624,-10.027124404907227,-0.07558512209639728,0.003326416015625,0.08781075477600098,3.827849774035177,-12.16763653747649,-0.27941274350569434,0.701959588473789,1.0,-0.017069604493073088,0.06428233654663214,3.870840213352193,3.7890475402716124,-12.156224801037185,-12.236094950010099,0.37489810518367983,-1.5668786075298864
16.817420721054077,0.00534832151606679,1.919177770614624,-10.027124404907227,-0.07558512209639728,0.002223968505859375,0.08781075477600098,3.8262040222564284,-12.151396544867538,-0.29941274350569436,0.7010770968928877,1.0,-0.017868471814925724,0.06292359242502585,3.887894784321942,3.7702767320241297,-12.125937398475337,-12.2391771952679,0.37489810518367983,-1.5668786075298864
16.82715916633606,0.008518565446138382,1.8549375534057617,-9.975411415100098,-0.07359878059549942,0.002621173858642578,0.08781075477600098,3.8241162250965246,-12.133833927873484,-0.3194127435056944,0.7032261057376664,1.0,-0.018904833812747393,0.059096507991097766,3.910331782258838,3.7453677658115176,-12.089491500210809,-12.245781574742168,0.46131372346498234,-1.3418969650109824
16.836936235427856,0.009137002751231194,1.8336336612701416,-9.957531929016113,-0.07312238010043329,0.001918792724609375,0.08781075477600098,3.821553835059313,-12.114942920712007,-0.3394127435056944,0.7034134067370068,1.0,-0.020550723387988683,0.057852688699969554,3.940159215723989,3.71224882878887,-12.045256517674913,-12.257536572060156,0.46131372346498234,-1.3418969650109824
16.848523378372192,0.009746013209223747,1.8124374151229858,-9.939671516418457,-0.0726550938029728,0.0034759044647216797,0.08781075477600098,3.818484142840232,-12.094715351978358,-0.3594127435056944,0.7036135176838596,0.9830457298392142,-0.02164980770770354,0.055764368146237586,3.9803538174114395,3.667878632781612,-11.990731841152604,-12.276936014594355,0.46131372346498234,-1.3418969650109824
16.85681462287903,0.010922486893832684,1.7704020738601685,-9.904001235961914,-0.07175618715165501,0.0022819042205810547,0.08781075477600098,3.814874387140205,-12.073140618626752,-0.3794127435056944,0.7049261858987214,0.9287937050270584,-0.02290843476013133,0.053592281381267245,4.035380699556535,3.6077269705620916,-11.922073328579053,-12.307812512844952,0.46131372346498234,-1.3418969650109824
16.937233924865723,0.010922486893832684,1.7704020738601685,-9.904001235961914,-0.07175618715165501,0.001971721649169922,0.07238292694091797,3.8106918661041242,-12.050205665026349,-0.39941274350569445,0.7000863274903792,1.0,-0.023718424998187073,0.05389556793223316,4.111942205532865,3.5250260801475997,-11.833419884410063,-12.356010819546643,0.46131372346498234,-1.3418969650109824
16.94892144203186,0.016578545793890953,1.549074649810791,-9.70788288116455,-0.06733967897974369,0.004109621047973633,0.07238292694091797,3.805904050139462,-12.025894967161557,-0.41941274350569446,0.7119034784451282,0.6309800459502083,-0.019417183158429562,0.03269615085809023,4.219886273285186,3.4098625009952244,-11.716103665831932,-12.430177571421561,0.5097061766703859,-1.3050753678945746
16.960174798965454,0.016578545793890953,1.549074649810791,-9.70788288116455,-0.06733967897974369,0.0026404857635498047,0.07238292694091797,3.8004786958685077,-12.000190522034384,-0.4394127435056945,0.7111018106812278,0.6598235567252755,-0.025517014294954295,0.051118008494445914,4.372933050866631,3.2484506813416183,-11.557887744035453,-12.542523586017234,0.5097061766703859,-1.3050753678945746
16.968657970428467,0.0169784314930439,1.511462688446045,-9.670709609985352,-0.06675407999566148,0.002024412155151367,0.07238292694091797,3.8302410777627958,-12.20246654640021,-0.22941274350569432,0.7128404415208585,0.5920197545810097,-0.022326687269279114,0.041728212079530126,3.84043833315272,3.820686210520325,-12.219151272539797,-12.238918444680754,0.5097061766703859,-1.3050753678945746
16.97736668586731,0.0169784314930439,1.511462688446045,-9.670709609985352,-0.06675407999566148,0.0024268627166748047,0.07238292694091797,3.82956007431495,-12.18952338328586,-0.24941274350569434,0.7120499817384959,0.6268900041398041,-0.02391842264406591,0.04703003982658409,3.8478859277558977,3.8134173316883704,-12.202237707835591,-12.23656880392238,0.5097061766703859,-1.3050753678945746
16.987120866775513,0.017583051696419716,1.4562904834747314,-9.615087509155273,-0.0659345818346385,0.002062082290649414,0.07238292694091797,3.828516983147347,-12.175261701186937,-0.26941274350569433,0.7151182577496785,0.49971171635629763,-0.02174813374421799,0.0403102516007119,3.857810938647473,3.8031001673376994,-12.181422006803572,-12.235464049009924,0.5097061766703859,-1.3050753678945746
16.997883796691895,0.017583051696419716,1.4562904834747314,-9.615087509155273,-0.0659345818346385,0.002510547637939453,0.07238292694091797,3.8270801288860796,-12.15968160201415,-0.28941274350569435,0.7143410325808994,0.540709292112698,-0.023090620968700723,0.04585713446989018,3.870840213352193,3.7890475402716124,-12.156224801037185,-12.236094950010099,0.5097061766703859,-1.3050753678945746
17.006824254989624,0.018026437610387802,1.4203946590423584,-9.578035354614258,-0.06540063548573663,0.0021157264709472656,0.07238292694091797,3.825217408500537,-12.14278086873752,-0.30941274350569437,0.7161031132473273,0.46966251417396565,-0.020978396803796262,0.040686228266431576,3.887894784321942,3.7702767320241297,-12.125937398475337,-12.2391771952679,0.5097061766703859,-1.3050753678945746
17.018266201019287,0.018026437610387802,1.4203946590423584,-9.578035354614258,-0.06540063548573663,0.0020461082458496094,0.07238292694091797,3.8228963960050883,-12.124554927065198,-0.3294127435056944,0.7153382230339503,0.48896752927076215,-0.021812898375816823,0.04471537296930753,3.910331782258838,3.7453677658115176,-12.089491500210809,-12.245781574742168,0.5097061766703859,-1.3050753678945746
17.02704620361328,0.018712712451815605,1.3679697513580322,-9.522515296936035,-0.06460778489017197,0.0025882720947265625,0.07238292694091797,3.8200844493836583,-12.10499681197008,-0.3494127435056944,0.718414946613583,0.29065649670950855,-0.019043853257354734,0.038928457042888324,3.940159215723989,3.71224882878887,-12.045256517674913,-12.257536572060156,0.501746543820793,-1.0060706262495067
17.03697180747986,0.018712712451815605,1.3679697513580322,-9.522515296936035,-0.06460778489017197,0.0019626617431640625,0.07238292694091797,3.816748819500453,-12.08409713916384,-0.3694127435056944,0.7176655857815006,0.266305934162963,-0.01988988322980073,0.04581583060745636,3.9803538174114395,3.667878632781612,-11.990731841152604,-12.276936014594355,0.501746543820793,-1.0060706262495067
17.047571659088135,0.019189193844795227,1.3340073823928833,-9.485540390014648,-0.06408876934211072,0.002842426300048828,0.07238292694091797,3.812856760756555,-12.061844081606141,-0.38941274350569444,0.7195007506666908,0.1259127190606888,-0.01716427479516385,0.043346490508824984,4.035380699556535,3.6077269705620916,-11.922073328579053,-12.307812512844952,0.501746543820793,-1.0060706262495067
17.130136489868164,0.019189193844795227,1.3340073823928833,-9.485540390014648,-0.06408876934211072,0.0025300979614257812,0.07422113418579102,3.8083756432491715,-12.038223351124813,-0.40941274350569445,0.7099665240281866,0.0339792081075494,-0.016816838446917507,0.04821035005960048,4.111942205532865,3.5250260801475997,-11.833419884410063,-12.356010819546643,0.501746543820793,-1.0060706262495067
17.138293743133545,0.020414406433701515,1.1824417114257812,-9.293326377868652,-0.06170295953661406,0.0017955303192138672,0.07422113418579102,3.803273066187974,-12.013218185210718,-0.42941274350569447,0.7228652507318732,-0.5679009564499774,-0.009613154019731576,0.04060826861718185,4.219886273285186,3.4098625009952244,-11.716103665831932,-12.430177571421561,0.5844761834524902,-1.2221148765139551
17.147226333618164,0.020634181797504425,1.1551411151885986,-9.254435539245605,-0.06121422713680827,0.002863168716430664,0.07422113418579102,3.7975169723212416,-11.986809339038993,-0.4494127435056945,0.7249494133475887,-0.6967082652203633,-0.007015005140118767,0.054122204727508456,4.372933050866631,3.2484506813416183,-11.557887744035453,-12.542523586017234,0.5844761834524902,-1.2221148765139551
17.156826496124268,0.020760593935847282,1.1418113708496094,-9.235000610351562,-0.06095941097131327,0.002608776092529297,0.07422113418579102,3.8299438768119014,-12.196159875523643,-0.23941274350569433,0.7256600510196715,-0.7713286627340652,-0.0022547174343567145,0.06261774408819547,3.84043833315272,3.820686210520325,-12.219151272539797,-12.238918444680754,0.5844761834524902,-1.2221148765139551
17.167288064956665,0.020898154005408287,1.1286966800689697,-9.215570449829102,-0.06070211934224856,0.002088308334350586,0.07422113418579102,3.8290857581730346,-12.18255729687162,-0.2594127435056943,0.7263692558311826,-0.8456481273044751,0.002148163942211905,0.06934108404404261,3.8478859277558977,3.8134173316883704,-12.202237707835591,-12.23656880392238,0.5844761834524902,-1.2221148765139551
17.1775963306427,0.021047063171863556,1.115797996520996,-9.196144104003906,-0.060439567427328894,0.0026078224182128906,0.07422113418579102,3.827849774035177,-12.16763653747649,-0.27941274350569434,0.7270507620600293,-0.919527492398031,0.0060807769085209785,0.07503417606954553,3.857810938647473,3.8031001673376994,-12.181422006803572,-12.235464049009924,0.5844761834524902,-1.2221148765139551
17.186930418014526,0.02137952670454979,1.0906603336334229,-9.157367706298828,-0.05989357665814174,0.0019125938415527344,0.07422113418579102,3.8262040222564284,-12.151396544867538,-0.29941274350569436,0.7290053684333753,-1.0,0.010367538103943294,0.07978725697024745,3.870840213352193,3.7890475402716124,-12.156224801037185,-12.236094950010099,0.5844761834524902,-1.2221148765139551
17.197771310806274,0.021563488990068436,1.0784236192703247,-9.137991905212402,-0.05960342873589475,0.002629995346069336,0.07422113418579102,3.8241162250965246,-12.133833927873484,-0.3194127435056944,0.7296246023005296,-1.0,0.013697444898542334,0.08422102822438675,3.887894784321942,3.7702767320241297,-12.125937398475337,-12.2391771952679,0.5844761834524902,-1.2221148765139551
17.20676565170288,0.02152116782963276,1.0677752494812012,-9.11823558807373,-0.0592970594819856,0.001966714859008789,0.07422113418579102,3.821553835059313,-12.114942920712007,-0.3394127435056944,0.7302745730181913,-1.0,0.01609810239172563,0.0874383688633085,3.910331782258838,3.7453677658115176,-12.089491500210809,-12.245781574742168,0.5844761834524902,-1.2221148765139551
17.21748995780945,0.02149662934243679,1.0573190450668335,-9.098496437072754,-0.058976733001176646,0.0022614002227783203,0.07422113418579102,3.818484142840232,-12.094715351978358,-0.3594127435056944,0.7309120462466481,-1.0,0.017822867465567396,0.08971679616059282,3.940159215723989,3.71224882878887,-12.045256517674913,-12.257536572060156,0.5844761834524902,-1.2221148765139551
17.227036476135254,0.021498749032616615,1.0369834899902344,-9.059063911437988,-0.058340455701209326,0.002198457717895508,0.07422113418579102,3.814874387140205,-12.073140618626752,-0.3794127435056944,0.7328291418107665,-1.0,0.019172027182134295,0.09110487224664082,3.9803538174114395,3.667878632781612,-11.990731841152604,-12.276936014594355,0.5006051807913731,-0.923321513229448
17.23705220222473,0.021524956449866295,1.0271021127700806,-9.039401054382324,-0.05799571655472249,0.002106904983520508,0.07422113418579102,3.8106918661041242,-12.050205665026349,-0.39941274350569445,0.7334018816648874,-1.0,0.019875052977705365,0.09195232304237734,4.035380699556535,3.6077269705620916,-11.922073328579053,-12.307812512844952,0.5006051807913731,-0.923321513229448
17.320460081100464,0.021524956449866295,1.0271021127700806,-9.039401054382324,-0.05799571655472249,0.0018591880798339844,0.07625412940979004,3.805904050139462,-12.025894967161557,-0.41941274350569446,0.7200740310929878,-1.0,0.020353512604849987,0.09257175418183429,4.111942205532865,3.5250260801475997,-11.833419884410063,-12.356010819546643,0.5006051807913731,-0.923321513229448
17.32902240753174,0.022815506905317307,0.9302456378936768,-8.824578285217285,-0.05310553486646988,0.0031881332397460938,0.07625412940979004,3.8004786958685077,-12.000190522034384,-0.4394127435056945,0.7320911942325864,-1.0,0.01478200830075681,0.08682648026686868,4.219886273285186,3.4098625009952244,-11.716103665831932,-12.430177571421561,0.6356812782721475,-1.3164015799606452
17.33696150779724,0.023164357990026474,0.9237370491027832,-8.803361892700195,-0.05257794807940014,0.001847982406616211,0.07625412940979004,3.7943839609662993,-11.973071842314475,-0.4594127435056945,0.7325557714069392,-1.0,0.011701763645489437,0.08217247564655074,4.372933050866631,3.2484506813416183,-11.557887744035453,-12.542523586017234,0.6356812782721475,-1.3164015799606452
17.347371339797974,0.023886719718575478,0.9110751748085022,-8.761143684387207,-0.05146384373392543,0.0026369094848632812,0.07625412940979004,3.82956007431495,-12.18952338328586,-0.24941274350569434,0.7341033628111713,-1.0,0.008695702639368977,0.07766527010216735,3.84043833315272,3.820686210520325,-12.219151272539797,-12.238918444680754,0.6356812782721475,-1.3164015799606452
17.35685443878174,0.02425810880959034,0.9049055576324463,-8.740137100219727,-0.05089047462035452,0.003030538558959961,0.07625412940979004,3.828516983147347,-12.175261701186937,-0.26941274350569433,0.7345051995687831,-1.0,0.006501522801565619,0.07423366674923385,3.8478859277558977,3.8134173316883704,-12.202237707835591,-12.23656880392238,0.6356812782721475,-1.3164015799606452
17.36831021308899,0.024636372923851013,0.8988422751426697,-8.719194412231445,-0.05031447391392288,0.002047300338745117,0.07625412940979004,3.8270801288860796,-12.15968160201415,-0.28941274350569435,0.7349038222907736,-1.0,0.004660448191513574,0.07146666343699082,3.857810938647473,3.8031001673376994,-12.181422006803572,-12.235464049009924,0.6356812782721475,-1.3164015799606452
17.377299308776855,0.025020992383360863,0.8928805589675903,-8.698314666748047,-0.049735463279677164,0.0025866031646728516,0.07625412940979004,3.825217408500537,-12.14278086873752,-0.30941274350569437,0.7352650420233074,-1.0,0.0030657720626629326,0.06911813890307208,3.870840213352193,3.7890475402716124,-12.156224801037185,-12.236094950010099,0.6356812782721475,-1.3164015799606452
17.387193202972412,0.025807583704590797,0.8812451958656311,-8.656805992126465,-0.04856780839191935,0.0020258426666259766,0.07625412940979004,3.8228963960050883,-12.124554927065198,-0.3294127435056944,0.7366241233027423,-1.0,0.001041546716650562,0.06611649223254674,3.887894784321942,3.7702767320241297,-12.125937398475337,-12.2391771952679,0.6356812782721475,-1.3164015799606452
17.397363424301147,0.02620893344283104,0.8755630254745483,-8.63614559173584,-0.04797866089895361,0.0030519962310791016,0.07625412940979004,3.8200844493836583,-12.10499681197008,-0.3494127435056944,0.7368829266445958,-1.0,-0.0003767685515006703,0.06383591663082827,3.910331782258838,3.7453677658115176,-12.089491500210809,-12.245781574742168,0.6356812782721475,-1.3164015799606452
17.406831741333008,0.026615114882588387,0.8699653744697571,-8.615548133850098,-0.04738396452810841,0.0023720264434814453,0.07625412940979004,3.816748819500453,-12.08409713916384,-0.3694127435056944,0.7371081472089812,-1.0,-0.001596427512202226,0.061904013241274196,3.940159215723989,3.71224882878887,-12.045256517674913,-12.257536572060156,0.6356812782721475,-1.3164015799606452
17.41754913330078,0.02702559530735016,0.8644477128982544,-8.595012664794922,-0.04678759519893119,0.0020835399627685547,0.07625412940979004,3.812856760756555,-12.061844081606141,-0.38941274350569444,0.7373035685293955,-1.0,-0.0026583857781087078,0.06018406127593295,3.9803538174114395,3.667878632781612,-11.990731841152604,-12.276936014594355,0.6356812782721475,-1.3164015799606452
17.427006483078003,0.02783588506281376,0.8536360263824463,-8.554132461547852,-0.04559850244471978,0.0023059844970703125,0.07625412940979004,3.8083756432491715,-12.038223351124813,-0.40941274350569445,0.7383899322190187,-1.0,-0.004055075306506561,0.05768120244201884,4.035380699556535,3.6077269705620916,-11.922073328579053,-12.307812512844952,0.3957122137649111,-0.9530317847481768
17.50833225250244,0.02783588506281376,0.8536360263824463,-8.554132461547852,-0.04559850244471978,0.0033102035522460938,0.07328534126281738,3.803273066187974,-12.013218185210718,-0.42941274350569447,0.7275155831473334,-0.9814237468846189,-0.004441720380692572,0.05682305080873689,4.111942205532865,3.5250260801475997,-11.833419884410063,-12.356010819546643,0.3957122137649111,-0.9530317847481768
17.517311811447144,0.03148173913359642,0.8132880330085754,-8.351627349853516,-0.03959988411822224,0.002381563186645508,0.07328534126281738,3.7975169723212416,-11.986809339038993,-0.4494127435056945,0.7351858899355448,-0.5283641485844267,-0.010338911589318097,0.04546181481417536,4.219886273285186,3.4098625009952244,-11.716103665831932,-12.430177571421561,0.3957122137649111,-0.9530317847481768
17.526963472366333,0.03216923028230667,0.8062559366226196,-8.31175422668457,-0.03842041317578778,0.0025539398193359375,0.07328534126281738,3.7910757631233727,-11.958975082756284,-0.4694127435056945,0.7359018798941099,-0.4299156324976251,-0.011241241411025393,0.046169056796212186,4.372933050866631,3.2484506813416183,-11.557887744035453,-12.542523586017234,0.3099141260006884,-1.112998677421592
17.536890983581543,0.03251228854060173,0.8027189373970032,-8.291939735412598,-0.037831748341097426,0.0019779205322265625,0.07328534126281738,3.8290857581730346,-12.18255729687162,-0.2594127435056943,0.7358353367145744,-0.38663363112442706,-0.01181264994090094,0.046395904930174196,3.84043833315272,3.820686210520325,-12.219151272539797,-12.238918444680754,0.3099141260006884,-1.112998677421592
17.54755926132202,0.033195365220308304,0.7955806255340576,-8.252492904663086,-0.0366593462103482,0.0028312206268310547,0.07328534126281738,3.827849774035177,-12.16763653747649,-0.27941274350569434,0.7364882692371008,-0.2741759616443594,-0.012653553598813096,0.04576754802053708,3.8478859277558977,3.8134173316883704,-12.202237707835591,-12.23656880392238,0.3099141260006884,-1.112998677421592
17.55687117576599,0.033534757792949677,0.7919703125953674,-8.232858657836914,-0.036074865943485225,0.002299070358276367,0.07328534126281738,3.8262040222564284,-12.151396544867538,-0.29941274350569436,0.7363827389119942,-0.22481473743099,-0.013195699244085072,0.04530504472093694,3.857810938647473,3.8031001673376994,-12.181422006803572,-12.235464049009924,0.3099141260006884,-1.112998677421592
17.56708550453186,0.03387172892689705,0.7883312106132507,-8.21328353881836,-0.03549357009472016,0.002100706100463867,0.07328534126281738,3.8241162250965246,-12.133833927873484,-0.3194127435056944,0.7362598466503443,-0.17535436035441,-0.013745352681657863,0.044784866986489966,3.870840213352193,3.7890475402716124,-12.156224801037185,-12.236094950010099,0.3099141260006884,-1.112998677421592
17.577660083770752,0.034206267446279526,0.7846538424491882,-8.193768501281738,-0.03490879723085337,0.002459287643432617,0.07328534126281738,3.821553835059313,-12.114942920712007,-0.3394127435056944,0.7361256088865633,-0.12690414069693168,-0.0142915058662858,0.0442330984174623,3.887894784321942,3.7702767320241297,-12.125937398475337,-12.2391771952679,0.3099141260006884,-1.112998677421592
17.586906909942627,0.03483697026968002,0.778282105922699,-8.151970863342285,-0.03372922421498652,0.0019915103912353516,0.07328534126281738,3.818484142840232,-12.094715351978358,-0.3594127435056944,0.7368574739313124,-0.02235372734130292,-0.015235169389514178,0.043346595225083585,3.910331782258838,3.7453677658115176,-12.089491500210809,-12.245781574742168,0.3099141260006884,-1.112998677421592
17.59847331047058,0.03514520078897476,0.7750102877616882,-8.131208419799805,-0.03313211784232938,0.0023446083068847656,0.07328534126281738,3.814874387140205,-12.073140618626752,-0.3794127435056944,0.7368151966307892,0.017746198734296836,-0.0157682441354755,0.04253068935135198,3.940159215723989,3.71224882878887,-12.045256517674913,-12.257536572060156,0.3099141260006884,-1.112998677421592
17.606820583343506,0.03544839099049568,0.7716774344444275,-8.11053466796875,-0.032538252837662006,0.0019638538360595703,0.07328534126281738,3.8106918661041242,-12.050205665026349,-0.39941274350569445,0.7367692098450064,0.055788846071569864,-0.016219851737236404,0.041792470025296236,3.9803538174114395,3.667878632781612,-11.990731841152604,-12.276936014594355,0.3099141260006884,-1.112998677421592
17.617756128311157,0.035746462643146515,0.7682812213897705,-8.089945793151855,-0.03194657841942966,0.0022449493408203125,0.07328534126281738,3.805904050139462,-12.025894967161557,-0.41941274350569446,0.7367191411768675,0.09177460282656946,-0.0166021342016893,0.041081220685132175,4.035380699556535,3.6077269705620916,-11.922073328579053,-12.307812512844952,0.3099141260006884,-1.112998677421592
17.627294778823853,0.03632652014493942,0.7612901329994202,-8.0490140914917,-0.030774205594255186,0.003343820571899414,0.07328534126281738,3.8004786958685077,-12.000190522034384,-0.4394127435056945,0.7374108954767066,0.1759066612755712,-0.017102095289810333,0.04014707701368544,4.111942205532865,3.5250260801475997,-11.833419884410063,-12.356010819546643,0.18787253433821643,-1.077633911102124
17.70576548576355,0.03632652014493942,0.7612901329994202,-8.0490140914917,-0.030774205594255186,0.001943826675415039,0.06975769996643066,3.7943839609662993,-11.973071842314475,-0.4594127435056945,0.7323318801469348,0.12496830995133662,-0.017113437976513116,0.03928685750688888,4.219886273285186,3.4098625009952244,-11.716103665831932,-12.430177571421561,0.18787253433821643,-1.077633911102124
17.71257185935974,0.03866485506296158,0.7219667434692383,-7.847896099090576,-0.025211530168243016,0.0025835037231445312,0.06975769996643066,3.7875885196354617,-11.944515956270424,-0.4794127435056945,0.7387965637599719,0.49248310395962647,-0.01799042087133173,0.036489785283777366,4.372933050866631,3.2484506813416183,-11.557887744035453,-12.542523586017234,0.18787253433821643,-1.077633911102124
17.719285249710083,0.03866485506296158,0.7219667434692383,-7.847896099090576,-0.025211530168243016,0.0019893646240234375,0.06975769996643066,3.828516983147347,-12.175261701186937,-0.26941274350569433,0.7380560651049443,0.4749584348810608,-0.017758603733265675,0.03261636918100125,3.84043833315272,3.820686210520325,-12.219151272539797,-12.238918444680754,0.18787253433821643,-1.077633911102124
17.727293491363525,0.038726504892110825,0.713117241859436,-7.806153297424316,-0.024126856462555586,0.002256155014038086,0.06975769996643066,3.8270801288860796,-12.15968160201415,-0.28941274350569435,0.7388207710786627,0.5144073722497835,-0.017831553103644062,0.030337054741766786,3.8478859277558977,3.8134173316883704,-12.202237707835591,-12.23656880392238,0.12951961484381516,-1.0527060422131533
17.736913681030273,0.038754019886255264,0.7085912823677063,-7.785458087921143,-0.023590133975118117,0.0020112991333007812,0.06975769996643066,3.825217408500537,-12.14278086873752,-0.30941274350569437,0.7388286479605616,0.5238412941330048,-0.01782445854178237,0.028553443682704696,3.857810938647473,3.8031001673376994,-12.181422006803572,-12.235464049009924,0.12951961484381516,-1.0527060422131533
17.747602224349976,0.03880193084478378,0.6993417739868164,-7.7443318367004395,-0.02253036167656584,0.002815723419189453,0.06975769996643066,3.8228963960050883,-12.124554927065198,-0.3294127435056944,0.7395882315433363,0.5575117923475856,-0.017904219347282216,0.026974252232411945,3.870840213352193,3.7890475402716124,-12.156224801037185,-12.236094950010099,0.12951961484381516,-1.0527060422131533
17.7568199634552,0.03882218152284622,0.6946198344230652,-7.723897933959961,-0.02200965164348982,0.001962900161743164,0.06975769996643066,3.8200844493836583,-12.10499681197008,-0.3494127435056944,0.7395692003034106,0.5635926157029933,-0.01788843786769379,0.025560527967294428,3.887894784321942,3.7702767320241297,-12.125937398475337,-12.2391771952679,0.12951961484381516,-1.0527060422131533
17.767441987991333,0.0388399213552475,0.6898344159126282,-7.703550338745117,-0.02149534226921772,0.0023691654205322266,0.06975769996643066,3.816748819500453,-12.08409713916384,-0.3694127435056944,0.7395438007684434,0.5672557807893497,-0.017860240300075755,0.024481164822719784,3.910331782258838,3.7453677658115176,-12.089491500210809,-12.245781574742168,0.12951961484381516,-1.0527060422131533
17.776867389678955,0.038858331739902496,0.6849850416183472,-7.683286666870117,-0.020986530000340738,0.0023555755615234375,0.06975769996643066,3.812856760756555,-12.061844081606141,-0.38941274350569444,0.7395155577337686,0.5682969266203779,-0.017801691706302403,0.023564173660349873,3.940159215723989,3.71224882878887,-12.045256517674913,-12.257536572060156,0.12951961484381516,-1.0527060422131533
17.787282943725586,0.038887832313776016,0.6751065850257874,-7.643072128295898,-0.01998472544899733,0.0019788742065429688,0.06975769996643066,3.8083756432491715,-12.038223351124813,-0.40941274350569445,0.7401812867108583,0.5792095766149419,-0.01767879821054887,0.022322753796877454,3.9803538174114395,3.667878632781612,-11.990731841152604,-12.276936014594355,0.12951961484381516,-1.0527060422131533
17.79748773574829,0.03889894485473633,0.6700814366340637,-7.62308406829834,-0.01949536229198577,0.0028862953186035156,0.06975769996643066,3.803273066187974,-12.013218185210718,-0.42941274350569447,0.7401393366971649,0.5720209546564113,-0.017559970149671054,0.021250452745245167,4.035380699556535,3.6077269705620916,-11.922073328579053,-12.307812512844952,0.12951961484381516,-1.0527060422131533
17.80687975883484,0.03891332074999809,0.6598708033561707,-7.583338737487793,-0.01853482568308915,0.0033080577850341797,0.06975769996643066,3.7975169723212416,-11.986809339038993,-0.4494127435056945,0.7407743459608173,0.5673438431675648,-0.017211940137952887,0.019908068997911362,4.111942205532865,3.5250260801475997,-11.833419884410063,-12.356010819546643,0.12951961484381516,-1.0527060422131533
17.81737971305847,0.03891647234559059,0.6546906232833862,-7.563579559326172,-0.018064529376285013,0.0023572444915771484,0.06975769996643066,3.7910757631233727,-11.958975082756284,-0.4694127435056945,0.7407183768563839,0.5531093744960797,-0.016996828086859622,0.018965350235272738,4.219886273285186,3.4098625009952244,-11.716103665831932,-12.430177571421561,0.12951961484381516,-1.0527060422131533
17.827418565750122,0.03891687095165253,0.6494641304016113,-7.543894290924072,-0.017603514569335878,0.0024137496948242188,0.06975769996643066,3.783918414494784,-11.929691204061516,-0.4894127435056945,0.7406601124805715,0.5368141401478996,-0.016807925562277434,0.018240156655670563,4.372933050866631,3.2484506813416183,-11.557887744035453,-12.542523586017234,0.11102086531728785,-1.0099715191765029
17.836905241012573,0.03895755112171173,0.6442979574203491,-7.523377895355225,-0.017148059597995736,0.0019750595092773438,0.06975769996643066,3.827849774035177,-12.16763653747649,-0.27941274350569434,0.7406519212091872,0.5182101294892261,-0.016648270760041307,0.0176231924699484,3.84043833315272,3.820686210520325,-12.219151272539797,-12.238918444680754,0.11102086531728785,-1.0099715191765029
17.848907947540283,0.03899545222520828,0.6390912532806396,-7.502956390380859,-0.01665768230600906,0.0030603408813476562,0.06975769996643066,3.8262040222564284,-12.151396544867538,-0.29941274350569436,0.7406400692577835,0.49773209466381796,-0.0164505864174255,0.0170250684105923,3.8478859277558977,3.8134173316883704,-12.202237707835591,-12.23656880392238,0.11102086531728785,-1.0099715191765029
17.92903780937195,0.03899545222520828,0.6390912532806396,-7.502956390380859,-0.01665768230600906,0.0024907588958740234,0.07168102264404297,3.8241162250965246,-12.133833927873484,-0.3194127435056944,0.7373677510158568,0.41054639266690823,-0.016413907507764454,0.01697366675902636,3.857810938647473,3.8031001673376994,-12.181422006803572,-12.235464049009924,0.11102086531728785,-1.0099715191765029
18.055102109909058,0.04562962427735329,0.5039594173431396,-7.007689476013184,-0.006802009804063543,0.0018115043640136719,0.07168102264404297,3.821553835059313,-12.114942920712007,-0.3394127435056944,0.75484580736217,-0.024930005506544672,-0.0011612381313416283,0.0007707239583322303,3.870840213352193,3.7890475402716124,-12.156224801037185,-12.236094950010099,0.10830296689223037,-1.1380240061040645
18.06126308441162,0.04562962427735329,0.5039594173431396,-7.007689476013184,-0.006802009804063543,0.0027914047241210938,0.07168102264404297,3.818484142840232,-12.094715351978358,-0.3594127435056944,0.7541559658660392,-0.04120638834168866,-0.0018820430678351998,0.004585294442972085,3.887894784321942,3.7702767320241297,-12.125937398475337,-12.2391771952679,0.10830296689223037,-1.1380240061040645
18.143091440200806,0.04550755023956299,0.44791939854621887,-6.794180870056152,-0.0037489014001503215,0.002657651901245117,0.07242655754089355,3.814874387140205,-12.073140618626752,-0.3794127435056944,0.7495834785533292,-0.4830906532077548,0.0034294135126918097,0.003365992701056866,3.910331782258838,3.7453677658115176,-12.089491500210809,-12.245781574742168,0.10830296689223037,-1.1380240061040645
18.151826858520508,0.04550755023956299,0.44791939854621887,-6.794180870056152,-0.0037489014001503215,0.0020170211791992188,0.07242655754089355,3.8106918661041242,-12.050205665026349,-0.39941274350569445,0.7489057878396121,-0.4979035339424978,0.00394951955383969,0.004215343712446396,3.940159215723989,3.71224882878887,-12.045256517674913,-12.257536572060156,0.184550259094667,-1.1655233883770653
18.157885789871216,0.04475831240415573,0.43369820713996887,-6.737104415893555,-0.0030040546991351377,0.0018880367279052734,0.07242655754089355,3.805904050139462,-12.025894967161557,-0.41941274350569446,0.7500224076774529,-0.5576502172685062,0.004011499661560909,0.004153846607211553,3.9803538174114395,3.667878632781612,-11.990731841152604,-12.276936014594355,0.184550259094667,-1.1655233883770653
18.167540550231934,0.04475831240415573,0.43369820713996887,-6.737104415893555,-0.0030040546991351377,0.0022630691528320312,0.07242655754089355,3.8004786958685077,-12.000190522034384,-0.4394127435056945,0.7493475954438992,-0.5722840838651646,0.004006091020334879,0.004017055038063775,4.035380699556535,3.6077269705620916,-11.922073328579053,-12.307812512844952,0.184550259094667,-1.1655233883770653
18.17708683013916,0.044268589466810226,0.4245375096797943,-6.699506759643555,-0.0025337990074880065,0.002579212188720703,0.07242655754089355,3.7943839609662993,-11.973071842314475,-0.4594127435056945,0.749850407377612,-0.6123419601591579,0.003902853554664968,0.003626576736341755,4.111942205532865,3.5250260801475997,-11.833419884410063,-12.356010819546643,0.184550259094667,-1.1655233883770653
18.18755865097046,0.044268589466810226,0.4245375096797943,-6.699506759643555,-0.0025337990074880065,0.0031385421752929688,0.07242655754089355,3.7875885196354617,-11.944515956270424,-0.4794127435056945,0.7491780636191661,-0.6267997396045996,0.0038645980540994726,0.0033722463750008153,4.219886273285186,3.4098625009952244,-11.716103665831932,-12.430177571421561,0.184550259094667,-1.1655233883770653
18.197035789489746,0.04353979229927063,0.4112943410873413,-6.643864154815674,-0.0018668854427517853,0.0031676292419433594,0.07242655754089355,3.7800616784689214,-11.914497413003915,-0.49940112623463645,0.7502322196554656,-0.6645160746434473,0.0034854041110319507,0.0027328055305776483,4.372933050866631,3.2484506813416183,-11.557887744035453,-12.542523586017234,0.184550259094667,-1.1655233883770653
18.206841945648193,0.04353979229927063,0.4112943410873413,-6.643864154815674,-0.0018668854427517853,0.0019295215606689453,0.07242655754089355,3.8270801288860796,-12.15968160201415,-0.28941274350569435,0.7495629435443283,-0.6788005314462315,0.0034185770244899946,0.002421610548770659,3.84043833315272,3.820686210520325,-12.219151272539797,-12.238918444680754,0.184550259094667,-1.1655233883770653
18.217674493789673,0.0414896085858345,0.40395066142082214,-6.606109142303467,-0.001426608756509809,0.002115964889526367,0.07242655754089355,3.825217408500537,-12.14278086873752,-0.30941274350569437,0.7501472045881983,-0.6954459024744992,0.0016883882258896693,0.0015772434864739786,3.8478859277558977,3.8134173316883704,-12.202237707835591,-12.23656880392238,0.184550259094667,-1.1655233883770653
18.227375507354736,0.0414896085858345,0.40395066142082214,-6.606109142303467,-0.001426608756509809,0.0023374557495117188,0.07242655754089355,3.8228963960050883,-12.124554927065198,-0.3294127435056944,0.7494806725384131,-0.7095596368123525,0.0015653061997408708,0.001568865349177349,3.857810938647473,3.8031001673376994,-12.181422006803572,-12.235464049009924,0.21436730990969127,-1.0461155813131289
18.2369122505188,0.03855046257376671,0.39331290125846863,-6.550175189971924,-0.000791757210536273,0.002043008804321289,0.07242655754089355,3.8200844493836583,-12.10499681197008,-0.3494127435056944,0.7506660226588717,-0.6974427153296482,-0.0011059754466110417,0.00046215575492218825,3.870840213352193,3.7890475402716124,-12.156224801037185,-12.236094950010099,0.21436730990969127,-1.0461155813131289
18.24778723716736,0.03855046257376671,0.39331290125846863,-6.550175189971924,-0.000791757210536273,0.002664327621459961,0.07242655754089355,3.816748819500453,-12.08409713916384,-0.3694127435056944,0.7500028342662955,-0.7113881633517705,-0.0012332324901508118,0.0007507905639171308,3.887894784321942,3.7702767320241297,-12.125937398475337,-12.2391771952679,0.21436730990969127,-1.0461155813131289
18.25680708885193,0.036674655973911285,0.38645491003990173,-6.5133562088012695,-0.0003889535769137642,0.0018231868743896484,0.07242655754089355,3.812856760756555,-12.061844081606141,-0.38941274350569444,0.750527301124883,-0.6901056562118939,-0.003038224142559519,0.0001981244683614191,3.910331782258838,3.7453677658115176,-12.089491500210809,-12.245781574742168,0.21436730990969127,-1.0461155813131289
18.267531633377075,0.036674655973911285,0.38645491003990173,-6.5133562088012695,-0.0003889535769137642,0.0020945072174072266,0.07242655754089355,3.8083756432491715,-12.038223351124813,-0.40941274350569445,0.7498669379953451,-0.7038850922822278,-0.0031024308253970946,0.0005292135623532995,3.940159215723989,3.71224882878887,-12.045256517674913,-12.257536572060156,0.21436730990969127,-1.0461155813131289
18.34858465194702,0.036674655973911285,0.38645491003990173,-6.5133562088012695,-0.0003889535769137642,0.002549886703491211,0.07361555099487305,3.803273066187974,-12.013218185210718,-0.42941274350569447,0.7448283871852843,-0.6415732156666739,-0.003078081780393567,0.0007236599630346184,3.9803538174114395,3.667878632781612,-11.990731841152604,-12.276936014594355,0.21436730990969127,-1.0461155813131289
18.356809377670288,0.025298718363046646,0.3498286306858063,-6.298157691955566,0.0015601703603881616,0.0017616748809814453,0.07361555099487305,3.7975169723212416,-11.986809339038993,-0.4494127435056945,0.7506263524575795,-0.23463720705401397,-0.01257511652595509,-0.0033412192242460374,4.035380699556535,3.6077269705620916,-11.922073328579053,-12.307812512844952,0.22802306642008688,-1.2029292668735418
