time,x,y,z,yaw,ctrl_comp_time,x_ref,y_ref,z_ref,yaw_ref,throttle,roll_rate,pitch_rate,yaw_rate,save_tube_hH,save_tube_hL,save_tube_pyH,save_tube_pyL,save_tube_pzH,save_tube_pzL,save_tube_thetaH,save_tube_thetaL,save_tube_vH,save_tube_vL
15.004133462905884,-0.02633451297879219,4.00601863861084,-12.547090530395508,0.0006324287949199675,0.08988547325134277,0.0,4.000663960869743,-12.537323454168904,-0.04675638164523698,0.26054187759068914,-0.9848235103193708,0.009340313921289378,0.014580642008353972,-0.04231691529750824,-0.04251691529750824,4.001172406768799,4.000972406768799,-12.537658827209473,-12.537858827209472,-0.03665638164523698,-0.03685638164523698,0.042106935924291614,0.04190693592429161
15.530993223190308,-0.02633451297879219,4.00601863861084,-12.547090530395508,0.0006324287949199675,0.18045973777770996,0.0,4.005518139110339,-12.546532954072266,-0.047925060242195075,0.2627353059855566,-1.0,0.04419860946449616,0.11355386759528663,1203.064196857735,-1204.6885421274512,285019.67965693097,-285012.7407973539,285107.6493322903,-285128.88174027076,4932.276898458814,-4932.217702208362,4777.586677975595,-4772.615552610145
15.675798416137695,-0.026292821392416954,3.991617441177368,-12.544844627380371,0.0003264026825209529,0.0020132064819335938,0.0,4.005518139110339,-12.546532954072266,-0.047925060242195075,0.2647166705556769,-0.9765835040752895,0.27093902662514735,0.3194877073167007,nan,nan,nan,nan,nan,nan,nan,nan,nan,nan
15.683241128921509,-0.02646830677986145,3.9909753799438477,-12.544692039489746,0.00034208286622340947,0.0018815994262695312,0.0,4.0050267042402705,-12.545122077958677,-0.05792506024219508,0.27945598858296705,-1.0,0.42965731863760326,0.4636413951216904,nan,nan,nan,nan,nan,nan,nan,nan,nan,nan
15.693119049072266,-0.026636878028512,3.990328311920166,-12.544534683227539,0.0003584415620231686,0.002167224884033203,0.0,4.004550122228407,-12.542882490827775,-0.06792506024219508,0.29310135438735496,-1.0,0.5407601230463223,0.5645489765851833,nan,nan,nan,nan,nan,nan,nan,nan,nan,nan
15.703106164932251,-0.0267986748367548,3.9896764755249023,-12.544371604919434,0.0003755864214078433,0.0019404888153076172,0.0,4.004093492615865,-12.5398381019494,-0.07792506024219507,0.3058025882586793,-1.0,0.6185320861324256,0.6351842836096282,nan,nan,nan,nan,nan,nan,nan,nan,nan,nan
15.71357250213623,-0.027111059054732323,3.988339900970459,-12.543956756591797,0.0004455402791604182,0.0034987926483154297,0.0,4.003661253763604,-12.53601213748978,-0.08792506024219507,0.31902732583242194,-1.0,0.6729724602926979,0.6846289985267398,nan,nan,nan,nan,nan,nan,nan,nan,nan,nan
15.723013162612915,-0.02725788950920105,3.9876701831817627,-12.543598175048828,0.000498405543307219,0.0019440650939941406,0.0,4.003257210083036,-12.531427137726569,-0.09792506024219506,0.33141425161520566,-1.0,0.7110807222048885,0.7192402989687179,nan,nan,nan,nan,nan,nan,nan,nan,nan,nan
15.733356237411499,-0.028133956715464592,3.9852936267852783,-12.542757034301758,0.0006774432588897185,0.0026314258575439453,0.0,4.0028845589707105,-12.5261049550502,-0.10792506024219506,0.34478866436221456,-1.0,0.7377565055434221,0.7434682092781023,nan,nan,nan,nan,nan,nan,nan,nan,nan,nan
15.743641138076782,-0.028554057702422142,3.9841222763061523,-12.542136192321777,0.0007818979035353925,0.003449678421020508,0.0,4.002545917428513,-12.520066752722833,-0.11792506024219505,0.3555579592074961,-1.0,0.7564295538803953,0.7604277464946718,nan,nan,nan,nan,nan,nan,nan,nan,nan,nan
15.753062725067139,-0.02896304614841938,3.982959747314453,-12.541411399841309,0.0009483802222223919,0.0018436908721923828,0.0,4.00224334835219,-12.513333004366352,-0.12792506024219505,0.3661321788047813,-1.0,0.7695006877162767,0.7722994225462704,nan,nan,nan,nan,nan,nan,nan,nan,nan,nan
15.763166666030884,-0.029361484572291374,3.981809139251709,-12.540501594543457,0.0011857151660195422,0.001836538314819336,0.0,4.001978386472378,-12.505923494151357,-0.13792506024219506,0.37717322405011977,-1.0,0.7786504814013936,0.7806095957823895,nan,nan,nan,nan,nan,nan,nan,nan,nan,nan
15.773212432861328,-0.02975228801369667,3.980673313140869,-12.539325714111328,0.001489226986448565,0.0025784969329833984,0.0,4.001752063933613,-12.497857317659403,-0.14792506024219507,0.38828011242821425,-1.0,0.7850553369809755,0.7864267170476725,nan,nan,nan,nan,nan,nan,nan,nan,nan,nan
15.783653497695923,-0.03013344667851925,3.979552745819092,-12.537842750549316,0.0018563395656889803,0.002160310745239258,0.0,4.001564935498032,-12.489152883391208,-0.15792506024219508,0.3992274731837808,-1.0,0.7895387358866829,0.7904987019333708,nan,nan,nan,nan,nan,nan,nan,nan,nan,nan
15.793231964111328,-0.030870268121361732,3.977357864379883,-12.533849716186523,0.002755356010223496,0.0020012855529785156,0.0,4.001417103361721,-12.479827914894003,-0.16792506024219508,0.41330885307756254,-1.0,0.7926771151206781,0.7933490913533596,nan,nan,nan,nan,nan,nan,nan,nan,nan,nan
15.930105924606323,-0.030870268121361732,3.977357864379883,-12.533849716186523,0.002755356010223496,0.0019850730895996094,0.0,3.9767700894702207,-12.53046262979656,-0.05676547942011246,0.33769979364931935,-1.0,0.7948739805844747,0.795344363947352,nan,nan,nan,nan,nan,nan,nan,nan,nan,nan
15.936153411865234,-0.034586530178785324,3.9634933471679688,-12.442749977111816,0.016817627758026685,0.0017673969268798828,0.0,3.976213817900773,-12.526304011030152,-0.06676547942011246,0.4130700425687649,-0.45269721119322703,0.7964117864091322,0.7967410547631465,nan,nan,nan,nan,nan,nan,nan,nan,nan,nan
15.943335771560669,-0.034833379089832306,3.9627456665039062,-12.4342041015625,0.017891044842189938,0.0020215511322021484,0.0,3.9756931272192397,-12.521396356251548,-0.07676547942011246,0.42525143957299527,-0.46957153928807105,0.7974882504863926,0.7977187383342027,nan,nan,nan,nan,nan,nan,nan,nan,nan,nan
15.953214883804321,-0.03542023524641991,3.9611730575561523,-12.416029930114746,0.02009139169851716,0.002103567123413086,0.0,3.9752114755436376,-12.515761502454476,-0.08676547942011245,0.44033879477868826,-0.43920469980245025,0.7446673426260548,0.7984031168339419,nan,nan,nan,nan,nan,nan,nan,nan,nan,nan
15.963237762451172,-0.035763852298259735,3.9603443145751953,-12.406401634216309,0.021214094086173627,0.002148866653442383,0.0,3.974771727524287,-12.509420624639343,-0.09676547942011245,0.45140839614460937,-0.45657989816198274,0.6645187278338335,0.7988821817837592,nan,nan,nan,nan,nan,nan,nan,nan,nan,nan
15.973141431808472,-0.03614337742328644,3.959484100341797,-12.396405220031738,0.022356699456167306,0.002166271209716797,0.0,3.974376180029349,-12.50239423393998,-0.10676547942011244,0.46201317823065063,-0.474966405798397,0.5959319076237479,0.7992175272486315,nan,nan,nan,nan,nan,nan,nan,nan,nan,nan
15.983594179153442,-0.036561019718647,3.958589553833008,-12.3860502243042,0.02352817746026384,0.0020966529846191406,0.0,3.974026587536111,-12.494702176472822,-0.11676547942011244,0.4721713846005788,-0.4951341029867822,0.5308456518357848,0.7994522690740421,nan,nan,nan,nan,nan,nan,nan,nan,nan,nan
15.993125200271606,-0.037420134991407394,3.957885980606079,-12.363934516906738,0.02597761819659984,0.001983642578125,0.0,3.9737241872115434,-12.486363632881837,-0.12676547942011243,0.4850344492282186,-0.4737617413358767,0.417446140222886,0.7996165883518295,nan,nan,nan,nan,nan,nan,nan,nan,nan,nan
16.003212928771973,-0.037917789071798325,3.957453966140747,-12.352362632751465,0.02727560127255492,0.0021524429321289062,0.0,3.973469723666918,-12.47739711855269,-0.13676547942011244,0.494279930167615,-0.5014522275715776,0.33683799397813624,0.7997316118462806,nan,nan,nan,nan,nan,nan,nan,nan,nan,nan
16.013333797454834,-0.038464631885290146,3.9569644927978516,-12.340455055236816,0.028639649287623747,0.0020706653594970703,0.0,3.973263473372513,-12.467820484470142,-0.14676547942011245,0.5031456138188066,-0.531872017799483,0.27464013773822366,0.7998121282923965,nan,nan,nan,nan,nan,nan,nan,nan,nan,nan
16.023216724395752,-0.03906392678618431,3.956414222717285,-12.328215599060059,0.03008381466675321,0.002026796340942383,0.0,3.9731052687195976,-12.457650918692954,-0.15676547942011246,0.5116451951053896,-0.564761034913726,0.2188114197014076,0.7998684898046775,nan,nan,nan,nan,nan,nan,nan,nan,nan,nan
16.03337049484253,-0.040433041751384735,3.955118179321289,-12.30278205871582,0.03327843070808904,0.001967191696166992,0.0,3.972994521718044,-12.446904948421029,-0.16676547942011247,0.5224713887739912,-0.5602008671518595,0.12755109918562102,0.7999079428632743,nan,nan,nan,nan,nan,nan,nan,nan,nan,nan
16.043062210083008,-0.041209448128938675,3.9543654918670654,-12.289605140686035,0.035066362856843655,0.0017971992492675781,0.0,3.9729302473189927,-12.435598442629976,-0.17676547942011248,0.5302173816609705,-0.5981041390974164,0.06339413292597022,0.799935560004292,nan,nan,nan,nan,nan,nan,nan,nan,nan,nan
16.053500652313232,-0.04205581173300743,3.9535417556762695,-12.276129722595215,0.03699842803839404,0.0019152164459228516,0.0,3.9729110863530583,-12.423746615248708,-0.18676547942011248,0.5376678705278042,-0.6379163636752494,0.01244577411498186,0.7999548920030044,nan,nan,nan,nan,nan,nan,nan,nan,nan,nan
16.187530279159546,-0.04205581173300743,3.9535417556762695,-12.276129722595215,0.03699842803839404,0.0019178390502929688,0.0,3.956144341671609,-12.259233199058892,-0.26052850054286797,0.5861914138195117,-1.0,0.0009821515380266477,0.7999684244021031,nan,nan,nan,nan,nan,nan,nan,nan,nan,nan
16.193544149398804,-0.06494411081075668,3.932717800140381,-12.022183418273926,0.08727728959805449,0.0019347667694091797,0.0,3.958767593421716,-12.24197556706558,-0.2701036004998137,0.62224418855011,-0.4135523953018032,-0.35035882079236635,0.6562220674916881,nan,nan,nan,nan,nan,nan,nan,nan,nan,nan
16.203194856643677,-0.07151138782501221,3.926158905029297,-11.967101097106934,0.09953631239021518,0.0019106864929199219,0.0,3.9613992635329294,-12.224363179594459,-0.2774090585451351,0.6310987873954274,-0.14518407718888393,-0.4852511745546565,0.28040664684517974,-0.05202806537747383,-0.052228065377473834,4.00611863861084,4.00591863861084,-12.546990530395508,-12.547190530395508,-0.03782506024219507,-0.038025060242195076,0.05391984636187554,0.05371984636187553
16.213370084762573,-0.07151138782501221,3.926158905029297,-11.967101097106934,0.09953631239021518,0.002315521240234375,0.0,3.9639937996917802,-12.206397085081157,-0.2826268684680247,0.6337424512795639,-0.012233981363366175,-0.5796758221882595,-0.19501950256804673,1215.8019340071833,-1217.4318345326326,291445.41469912743,-291438.48242506123,291534.29366516817,-291555.5351524713,5013.7468846974225,-5013.687545939086,4843.468482204611,-4838.494850437592
16.223021507263184,-0.07631297409534454,3.921156167984009,-11.929108619689941,0.10801533467023755,0.0018401145935058594,0.0,3.9665086303747406,-12.188078957620887,-0.2859314530207286,0.6402615522033228,0.20229841619054567,-0.6457730755317816,-0.37651365179763274,nan,nan,nan,nan,nan,nan,nan,nan,nan,nan
16.233352661132812,-0.07631297409534454,3.921156167984009,-11.929108619689941,0.10801533467023755,0.0021364688873291016,0.0,3.968904148756675,-12.16941136928659,-0.28748950001896106,0.6427173283928064,0.3209824075214853,-0.6920411528722472,-0.503559556258343,nan,nan,nan,nan,nan,nan,nan,nan,nan,nan
16.243239641189575,-0.08597470074892044,3.9124321937561035,-11.870134353637695,0.12115489344611957,0.002113819122314453,0.0,3.971143690760233,-12.150397976682722,-0.2874598742002585,0.6500273825811258,0.5850307969881317,-0.7244288070105731,-0.5924916893808402,nan,nan,nan,nan,nan,nan,nan,nan,nan,nan
16.253187894821167,-0.08597470074892044,3.9124321937561035,-11.870134353637695,0.12115489344611957,0.0019943714141845703,0.0,3.973193509275126,-12.13104363387651,-0.28599359451394135,0.6523114130796916,0.6898504554150542,-0.7471001649074012,-0.6547441825665882,nan,nan,nan,nan,nan,nan,nan,nan,nan,nan
16.263293266296387,-0.09344922751188278,3.90573787689209,-11.829875946044922,0.13046880348755713,0.0021555423736572266,0.0,3.9750227450461844,-12.11135444300001,-0.2832338669794928,0.6571721736103612,0.8930754257816146,-0.7629701154351808,-0.6983209277966117,nan,nan,nan,nan,nan,nan,nan,nan,nan,nan
16.2730131149292,-0.09344922751188278,3.90573787689209,-11.829875946044922,0.13046880348755713,0.002289295196533203,0.0,3.976603393750317,-12.09133775290934,-0.2793161639960105,0.6593083907930061,0.9846106241688253,-0.7740790808046265,-0.7288246494576283,nan,nan,nan,nan,nan,nan,nan,nan,nan,nan
16.283549785614014,-0.10538055747747421,3.8943064212799072,-11.76855754852295,0.14480721458607576,0.002119302749633789,0.0,3.977910268234365,-12.071002115372655,-0.27436834189026776,0.6648035748127713,1.0,-0.7818553565632386,-0.7501772546203398,nan,nan,nan,nan,nan,nan,nan,nan,nan,nan
16.293357610702515,-0.10538055747747421,3.8943064212799072,-11.76855754852295,0.14480721458607576,0.002103567123413086,0.0,3.978920954663146,-12.050357207363684,-0.26851078946285495,0.6668021756819349,1.0,-0.7872987495942669,-0.7651240782342379,nan,nan,nan,nan,nan,nan,nan,nan,nan,nan
16.303271293640137,-0.11379892379045486,3.885697841644287,-11.72714614868164,0.15415031420617165,0.0019495487213134766,0.0,3.9796157613405723,-12.029413727176573,-0.26185660126485233,0.6708722348382705,1.0,-0.7911091247159868,-0.7755868547639665,nan,nan,nan,nan,nan,nan,nan,nan,nan,nan
16.31334924697876,-0.11379892379045486,3.885697841644287,-11.72714614868164,0.15415031420617165,0.0021085739135742188,0.0,3.979977659142694,-12.008183271255575,-0.25451177026632305,0.6727472882259086,1.0,-0.7937763873011908,-0.7829107983347766,nan,nan,nan,nan,nan,nan,nan,nan,nan,nan
16.447824954986572,-0.11379892379045486,3.885697841644287,-11.72714614868164,0.15415031420617165,0.002306222915649414,0.0,3.8888419617791277,-11.701000381022792,-0.3471696719983618,0.7115056723102373,1.0,-0.7956434711108337,-0.7880375588343437,nan,nan,nan,nan,nan,nan,nan,nan,nan,nan
16.454603910446167,-0.21050554513931274,3.7723960876464844,-11.331202507019043,0.21247004625691437,0.0020575523376464844,0.0,3.8914191343491824,-11.674660709879944,-0.3371696719983618,0.7282252259381047,1.0,-0.7969504297775836,-0.7916262911840406,nan,nan,nan,nan,nan,nan,nan,nan,nan,nan
16.463203191757202,-0.2166638970375061,3.7644758224487305,-11.308335304260254,0.2139805835370413,0.002074003219604492,0.0,3.8934334522798415,-11.648141944225662,-0.3271696719983618,0.7296786832393564,1.0,-0.7978653008443085,-0.7941384038288284,nan,nan,nan,nan,nan,nan,nan,nan,nan,nan
16.472986936569214,-0.22286169230937958,3.756420850753784,-11.285414695739746,0.21530122921688596,0.0018236637115478516,0.0,3.894889353549955,-11.621458682958428,-0.31716967199836177,0.7311082243733926,1.0,-0.7985057105910159,-0.7958968826801799,nan,nan,nan,nan,nan,nan,nan,nan,nan,nan
16.483566522598267,-0.23536275327205658,3.7399559020996094,-11.239423751831055,0.21739772369102411,0.002336263656616211,0.0,3.895791615628971,-11.594625306092748,-0.30716967199836176,0.733319909094,1.0,-0.7989539974137112,-0.797127817876126,nan,nan,nan,nan,nan,nan,nan,nan,nan,nan
16.493334531784058,-0.2426818162202835,3.730405807495117,-11.2159423828125,0.2181642724003329,0.004204750061035156,0.0,3.8961453496618748,-11.567655966166093,-0.29716967199836175,0.7345916767720975,1.0,-0.7992677981895978,-0.7979894725132882,nan,nan,nan,nan,nan,nan,nan,nan,nan,nan
16.504626035690308,-0.2500128746032715,3.720757007598877,-11.192451477050781,0.21875363763362857,0.002834320068359375,0.0,3.895955994410419,-11.54056457986881,-0.28716967199836174,0.735740863290629,1.0,-0.7994874587327185,-0.7985926307593018,nan,nan,nan,nan,nan,nan,nan,nan,nan,nan
16.512983560562134,-0.2573552429676056,3.711010217666626,-11.168968200683594,0.21915936310227885,0.0020389556884765625,0.0,3.8952293099592707,-11.513364819902714,-0.27716967199836173,0.7367838696275213,1.0,-0.799641221112903,-0.7942925312367304,nan,nan,nan,nan,nan,nan,nan,nan,nan,nan
16.523094177246094,-0.2720687985420227,3.6912343502044678,-11.122065544128418,0.21943139675874201,0.0017285346984863281,0.0,3.8939713711958506,-11.48607010707365,-0.2671696719983617,0.7381909619397573,1.0,-0.7997488547790321,-0.7797540800307046,nan,nan,nan,nan,nan,nan,nan,nan,nan,nan
16.53361439704895,-0.27943605184555054,3.68121337890625,-11.098661422729492,0.2192942539068538,0.003281831741333008,0.0,3.8921885610727474,-11.458693602622972,-0.2571696719983617,0.7390847102418835,1.0,-0.7998241983453225,-0.7692000141162637,nan,nan,nan,nan,nan,nan,nan,nan,nan,nan
16.543112754821777,-0.2868073582649231,3.671109914779663,-11.07529067993164,0.2189758696591645,0.0026628971099853516,0.0,3.889887563661687,-11.43124820080243,-0.2471696719983617,0.7399423610569754,1.0,-0.7998769388417257,-0.7601203374320452,nan,nan,nan,nan,nan,nan,nan,nan,nan,nan
16.553570985794067,-0.2941804528236389,3.660928964614868,-11.051955223083496,0.21848305158231196,0.002025127410888672,0.0,3.887075357008112,-11.40374652169659,-0.2371696719983617,0.7407636510793476,1.0,-0.799913857189208,-0.7516254654026268,nan,nan,nan,nan,nan,nan,nan,nan,nan,nan
16.562969207763672,-0.3089217245578766,3.640359878540039,-11.005402565002441,0.21697945060008478,0.0019500255584716797,0.0,3.883759205795488,-11.376200904296537,-0.2271696719983617,0.7418993880649872,1.0,-0.7999397000324456,-0.737449361005282,nan,nan,nan,nan,nan,nan,nan,nan,nan,nan
16.57321286201477,-0.3162856101989746,3.6299805641174316,-10.982187271118164,0.21596868252966028,0.0019674301147460938,0.0,3.8799466538284992,-11.348623399828218,-0.21716967199836168,0.7426463837313257,1.0,-0.799957790022712,-0.7286082684587725,nan,nan,nan,nan,nan,nan,nan,nan,nan,nan
16.71180748939514,-0.3162856101989746,3.6299805641174316,-10.982187271118164,0.21596868252966028,0.002153635025024414,0.0,3.6218361979024714,-10.952956486556717,-0.12713049773713048,0.7589246625746235,1.0,-0.7999704530158984,-0.7264022449630668,nan,nan,nan,nan,nan,nan,nan,nan,nan,nan
16.718514442443848,-0.46444761753082275,3.4147722721099854,-10.552884101867676,0.16860855926509616,0.0018510818481445312,0.0,3.613257877766526,-10.92386273232893,-0.11713049773713048,0.7642588316736391,0.4459444616834809,-0.7450214217400074,-0.5874650593644002,nan,nan,nan,nan,nan,nan,nan,nan,nan,nan
16.722861528396606,-0.46444761753082275,3.4147722721099854,-10.552884101867676,0.16860855926509616,0.0016367435455322266,0.0,3.6042571517942528,-10.89491328692364,-0.10713049773713049,0.7641179897135546,0.47237684187528994,-0.629698403418272,-0.6512255415550802,nan,nan,nan,nan,nan,nan,nan,nan,nan,nan
16.733314990997314,-0.4719357490539551,3.4035115242004395,-10.530719757080078,0.1647844720757881,0.0023610591888427734,0.0,3.594845699564643,-10.866115086919534,-0.09713049773713049,0.7642729048176381,0.45675733093025284,-0.5992510471222183,-0.6659437437965392,nan,nan,nan,nan,nan,nan,nan,nan,nan,nan
16.743072032928467,-0.4799736440181732,3.3921096324920654,-10.508800506591797,0.16083989326544995,0.0022699832916259766,0.0,3.5850353239546178,-10.83747472466834,-0.0871304977371305,0.7644222188792262,0.4410921058824545,-0.5843798243763683,-0.6521386847176291,nan,nan,nan,nan,nan,nan,nan,nan,nan,nan
16.75324535369873,-0.48791956901550293,3.3807926177978516,-10.486905097961426,0.15671777289287667,0.0019245147705078125,0.0,3.574837942899816,-10.808998446195954,-0.0771304977371305,0.7645439381971227,0.424945845241566,-0.5647301427727142,-0.6406141069391552,-0.05202806537747383,-0.052228065377473834,4.00611863861084,4.00591863861084,-12.546990530395508,-12.547190530395508,-0.03782506024219507,-0.038025060242195076,0.05391984636187554,0.05371984636187553
16.763370037078857,-0.5035235285758972,3.3584325313568115,-10.443215370178223,0.14816111682267818,0.003139019012451172,0.0,3.5642655811187214,-10.780692149321222,-0.0671304977371305,0.7648143828647067,0.3611219340360877,-0.5361215998027384,-0.6235421860956769,1215.8019340071833,-1217.4318345326326,291445.41469912743,-291438.48242506123,291534.29366516817,-291555.5351524713,5013.7468846974225,-5013.687545939086,4843.468482204611,-4838.494850437592
16.773155212402344,-0.5111747980117798,3.3474016189575195,-10.42143440246582,0.14376567185985206,0.001871347427368164,0.0,3.5533303618062213,-10.75256138199192,-0.057130497737130505,0.7648257489256404,0.34619317278791517,-0.508186306026495,-0.6143099474125095,nan,nan,nan,nan,nan,nan,nan,nan,nan,nan
16.783457040786743,-0.5187212824821472,3.3364789485931396,-10.399702072143555,0.13930313528963395,0.0020520687103271484,0.0,3.5420444983026145,-10.724611340837253,-0.0471304977371305,0.7648303209423265,0.33374248571114273,-0.4852788090788866,-0.5958087481527946,nan,nan,nan,nan,nan,nan,nan,nan,nan,nan
16.79331350326538,-0.5261602997779846,3.325669527053833,-10.378015518188477,0.13478687432367145,0.002789735794067383,0.0,3.530420285744022,-10.696846869936039,-0.0371304977371305,0.7648331930949779,0.3239540894567602,-0.4611881671489717,-0.5773057209373759,nan,nan,nan,nan,nan,nan,nan,nan,nan,nan
16.803470611572266,-0.54070645570755,3.304407835006714,-10.334783554077148,0.1256057717652555,0.0018911361694335938,0.0,3.518470092700071,-10.669272459799565,-0.0271304977371305,0.765009198530352,0.27610440560106664,-0.4302423941820449,-0.5550610245552686,nan,nan,nan,nan,nan,nan,nan,nan,nan,nan
16.813026189804077,-0.5478092432022095,3.2939631938934326,-10.31323528289795,0.12095013003903209,0.0020928382873535156,0.0,3.5062063528046368,-10.641892246567902,-0.017130497737130497,0.7650156230765092,0.2725820124709547,-0.40065056844646363,-0.5375377449078361,nan,nan,nan,nan,nan,nan,nan,nan,nan,nan
16.82310175895691,-0.5547955632209778,3.283647060394287,-10.291730880737305,0.11625945740978656,0.001766204833984375,0.0,3.4936415563853487,-10.614710011418348,-0.007130497737130497,0.7650234311379959,0.2711602574332922,-0.37448456878719916,-0.5129109754861904,nan,nan,nan,nan,nan,nan,nan,nan,nan,nan
16.833345651626587,-0.5616633892059326,3.2734622955322266,-10.270269393920898,0.11154050119766389,0.0022826194763183594,0.0,3.4807882420974563,-10.587729180184464,0.0028695022628695034,0.7650332051745248,0.2717530493924166,-0.34707013607927056,-0.4878353885518887,nan,nan,nan,nan,nan,nan,nan,nan,nan,nan
16.975466012954712,-0.5616633892059326,3.2734622955322266,-10.270269393920898,0.11154050119766389,0.0026702880859375,0.0,3.2591932639414223,-10.245161034256528,0.1280737772735848,0.7671573119147385,0.837446346610917,-0.32673332615466366,-0.46237006608601977,nan,nan,nan,nan,nan,nan,nan,nan,nan,nan
16.983290672302246,-0.6670241355895996,3.1082284450531006,-9.872477531433105,0.022224375778240074,0.0020530223846435547,0.0,3.244842657297369,-10.220251689101664,0.13515017719360592,0.7710584497478252,0.09086238043889128,-0.2520600728216613,-0.27094368807927877,nan,nan,nan,nan,nan,nan,nan,nan,nan,nan
16.992950201034546,-0.6711721420288086,3.1011033058166504,-9.851851463317871,0.017570394670289702,0.002109050750732422,0.0,3.230452854997329,-10.19552036251276,0.14101787350084982,0.7709995199803522,-0.025112842751467745,-0.09658642231873744,-0.3298135806684358,nan,nan,nan,nan,nan,nan,nan,nan,nan,nan
17.00319504737854,-0.6788997054100037,3.0885157585144043,-9.81191349029541,0.00816362915615694,0.001986265182495117,0.0,3.2160620417097454,-10.170947201940246,0.14576340398288484,0.7711785699768956,-0.17815330415550312,-0.03675540113408747,-0.2515661355099365,nan,nan,nan,nan,nan,nan,nan,nan,nan,nan
17.013070344924927,-0.6825406551361084,3.082458019256592,-9.791954040527344,0.0034203698696870094,0.0017719268798828125,0.0,3.2017045096855465,-10.146513656329995,0.14947034211017649,0.7710878229465755,-0.2917951765085357,0.03078901422313337,-0.18635762895515848,nan,nan,nan,nan,nan,nan,nan,nan,nan,nan
17.023196935653687,-0.6860295534133911,3.0765607357025146,-9.772005081176758,-0.00128304919301038,0.001821279525756836,0.0,3.187410941760339,-10.122202580468672,0.15221918339238372,0.7709788308048615,-0.40458423776135854,0.09721245257474084,-0.11194205609540342,nan,nan,nan,nan,nan,nan,nan,nan,nan,nan
17.03333306312561,-0.6893638372421265,3.070826292037964,-9.752070426940918,-0.005915243158908415,0.0020215511322021484,0.0,3.17320867499248,-10.097998294331319,0.15408725833016026,0.7708572437088643,-0.5151740783302053,0.1676529594523429,-0.027209092869059072,nan,nan,nan,nan,nan,nan,nan,nan,nan,nan
17.04337739944458,-0.6955538988113403,3.0598556995391846,-9.71225643157959,-0.014801924106858655,0.0022139549255371094,0.0,3.159121945510189,-10.073886605221325,0.1551486698889518,0.7709118878887945,-0.663271890313049,0.24934938428557069,0.07421086280124717,nan,nan,nan,nan,nan,nan,nan,nan,nan,nan
17.05334162712097,-0.6984067559242249,3.0546233654022217,-9.69237995147705,-0.018989935693842885,0.0018537044525146484,0.0,3.1451721155595154,-10.049854799577718,0.1554742533671593,0.7707894253975526,-0.7626936310865418,0.34163201698304313,0.19869547724235692,nan,nan,nan,nan,nan,nan,nan,nan,nan,nan
17.06335949897766,-0.7010993361473083,3.0495619773864746,-9.672524452209473,-0.0229988150356715,0.002518892288208008,0.0,3.131377883998353,-10.025891610473504,0.1551315565425856,0.7706711891314312,-0.8559339640748489,0.4496395983617808,0.3515618699008108,nan,nan,nan,nan,nan,nan,nan,nan,nan,nan
17.07318878173828,-0.7036313414573669,3.044672727584839,-9.652690887451172,-0.02681886765727741,0.0020165443420410156,0.0,3.1177554816079014,-10.001987166046785,0.15418483804033514,0.7705498844749069,-0.9428042343365959,0.5547477188532466,0.48609330893056757,nan,nan,nan,nan,nan,nan,nan,nan,nan,nan
17.083539962768555,-0.7082128524780273,3.035412311553955,-9.613094329833984,-0.033864940733458235,0.0021734237670898438,0.0,3.1043188526242043,-9.97813292339468,0.1526950819576266,0.7705848729452127,-1.0,0.6283234031972726,0.5802653162513973,nan,nan,nan,nan,nan,nan,nan,nan,nan,nan
17.219459533691406,-0.7082128524780273,3.035412311553955,-9.613094329833984,-0.033864940733458235,0.0019228458404541016,0.0,3.0244942981145226,-9.58960790686737,0.21485665610341032,0.772863509944278,-1.0,0.6798263822380909,0.6461857213759782,nan,nan,nan,nan,nan,nan,nan,nan,nan,nan
17.225112199783325,-0.713944673538208,2.9920198917388916,-9.291460990905762,-0.05525309615465737,0.0017440319061279297,0.0,3.0140483547869676,-9.566072489125002,0.2048566561034103,0.7731491255835249,-0.9553470885586406,0.6326667248575087,0.6923300049631848,nan,nan,nan,nan,nan,nan,nan,nan,nan,nan
17.233490228652954,-0.7130879759788513,2.99072527885437,-9.273001670837402,-0.05504760883295863,0.0020139217376708984,0.0,3.004064782548095,-9.54249617815681,0.1948566561034103,0.7727366681325092,-0.966612808027101,0.6071166529822768,0.7246310034742294,nan,nan,nan,nan,nan,nan,nan,nan,nan,nan
17.243003606796265,-0.7102104425430298,2.9899239540100098,-9.23621654510498,-0.05433202258054865,0.0021386146545410156,0.0,2.9945337414537727,-9.518886800194966,0.1848566561034103,0.7723270150228294,-0.9538579789913527,0.5726243259845506,0.7472417024319605,nan,nan,nan,nan,nan,nan,nan,nan,nan,nan
17.25339698791504,-0.7082108855247498,2.9903838634490967,-9.21789264678955,-0.05378060404489859,0.0019922256469726562,0.0,2.9854452565819654,-9.495251902958495,0.17485665610341028,0.7719117688871765,-0.9661870977227183,0.5468586508766078,0.7630691917023724,nan,nan,nan,nan,nan,nan,nan,nan,nan,nan
17.263568878173828,-0.7061462998390198,2.9908969402313232,-9.19961929321289,-0.053124980776086926,0.0036139488220214844,0.0,2.9767892240584466,-9.47159875259102,0.16485665610341027,0.7714889460907605,-0.9782599095625977,0.5237976752865702,0.7741484341916607,nan,nan,nan,nan,nan,nan,nan,nan,nan,nan
17.272996187210083,-0.7040197849273682,2.9914588928222656,-9.181401252746582,-0.05235900269005325,0.0016021728515625,0.0,2.968555417162199,-9.447934330734938,0.15485665610341026,0.7710591150481292,-0.9902472968539646,0.5000772915485865,0.7819039039341625,nan,nan,nan,nan,nan,nan,nan,nan,nan,nan
17.283541679382324,-0.6995952129364014,2.99271297454834,-9.145132064819336,-0.05051296353111038,0.0023508071899414062,0.0,2.9607334925073507,-9.424265331745122,0.14485665610341025,0.770577159513962,-0.9737623659659467,0.45734173789318616,0.7873327327539138,nan,nan,nan,nan,nan,nan,nan,nan,nan,nan
17.293323278427124,-0.6973044872283936,2.993396282196045,-9.127084732055664,-0.049438292953024994,0.0029320716857910156,0.0,2.953312996298371,-9.40059816004514,0.13485665610341024,0.7701396894574293,-0.9853892124740312,0.42257854774201353,0.7911329129277397,nan,nan,nan,nan,nan,nan,nan,nan,nan,nan
17.30338716506958,-0.6949663162231445,2.9941112995147705,-9.10909652709961,-0.04826080905634483,0.0018448829650878906,0.0,2.946283370655104,-9.37693892762875,0.12485665610341025,0.769706264144941,-0.9972757115216864,0.3922963575489668,0.7937930390494178,nan,nan,nan,nan,nan,nan,nan,nan,nan,nan
17.313376903533936,-0.6925838589668274,2.9948534965515137,-9.091169357299805,-0.046978103371284115,0.002420663833618164,0.0,2.9396339600041186,-9.353293451709305,0.11485665610341025,0.7692781084773118,-1.0,0.3640879067142979,0.7956551273345924,-0.05202806537747383,-0.052228065377473834,4.00611863861084,4.00591863861084,-12.546990530395508,-12.547190530395508,-0.03782506024219507,-0.038025060242195076,0.05391984636187554,0.05371984636187553
17.323116064071655,-0.6876816749572754,2.996419906616211,-9.055498123168945,-0.04411141735153284,0.0016529560089111328,0.0,2.9333540175327197,-9.329667252519513,0.10485665610341026,0.7687985958612975,-0.988802736174026,0.32132589215740925,0.7969585891342147,1215.8019340071833,-1217.4318345326326,291445.41469912743,-291438.48242506123,291534.29366516817,-291555.5351524713,5013.7468846974225,-5013.687545939086,4843.468482204611,-4838.494850437592
17.333415031433105,-0.6851683259010315,2.9972352981567383,-9.037749290466309,-0.04254632038569105,0.0022029876708984375,0.0,2.927432711701884,-9.306065551263831,0.09485665610341026,0.7683779455704837,-0.999916520892079,0.2888860409429606,0.7978710123939503,nan,nan,nan,nan,nan,nan,nan,nan,nan,nan
17.46645474433899,-0.6851683259010315,2.9972352981567383,-9.037749290466309,-0.04254632038569105,0.002275228500366211,0.0,2.995792959472576,-9.015006213959653,0.0161577598722498,0.7631863156920687,-1.0,0.27602472731318173,0.7985097086757652,nan,nan,nan,nan,nan,nan,nan,nan,nan,nan
17.473002910614014,-0.6282805800437927,3.0259807109832764,-8.753047943115234,-0.0008993322468495157,0.0018169879913330078,0.0,2.994605122004206,-8.992333482145034,0.006157759872249801,0.7619865179247839,-0.33898989227188914,0.07876562384778352,0.6477563279338621,nan,nan,nan,nan,nan,nan,nan,nan,nan,nan
17.483621835708618,-0.6282805800437927,3.0259807109832764,-8.753047943115234,-0.0008993322468495157,0.0020759105682373047,0.0,2.9936604249750016,-8.969733411374282,-0.0038422401277501995,0.7617030439830769,-0.3930342980482826,0.005334852713701748,0.524346931226432,nan,nan,nan,nan,nan,nan,nan,nan,nan,nan
17.492972373962402,-0.6174483299255371,3.0309760570526123,-8.704580307006836,0.008851103888840292,0.0019822120666503906,0.0,2.992947491604039,-8.947208001794223,-0.0138422401277502,0.7613304681590698,-0.29067357908588587,-0.06953243961669628,0.3933888345079476,nan,nan,nan,nan,nan,nan,nan,nan,nan,nan
17.503216981887817,-0.6174483299255371,3.0309760570526123,-8.704580307006836,0.008851103888840292,0.002096891403198242,0.0,2.9924549362156463,-8.924758937217009,-0.0238422401277502,0.7610522094251115,-0.3470955069333653,-0.12047894619094254,0.2675318295733357,nan,nan,nan,nan,nan,nan,nan,nan,nan,nan
17.51312518119812,-0.6097303628921509,3.0350489616394043,-8.672451972961426,0.015722078229227693,0.00296783447265625,0.0,2.992171371351404,-8.902387585163266,-0.0338422401277502,0.7607289007097899,-0.2992736362668932,-0.17422083394374133,0.1480898505122266,nan,nan,nan,nan,nan,nan,nan,nan,nan,nan
17.523635387420654,-0.6097303628921509,3.0350489616394043,-8.672451972961426,0.015722078229227693,0.0024771690368652344,0.0,2.9920854148801332,-8.880094997077668,-0.043842240127750204,0.7604557641137888,-0.3581181032463129,-0.215386454794752,0.03835836959949369,nan,nan,nan,nan,nan,nan,nan,nan,nan,nan
17.533326625823975,-0.598402738571167,3.0401511192321777,-8.6245698928833,0.026488903565551433,0.001954793930053711,0.0,2.9921856971014607,-8.85788190871637,-0.053842240127750206,0.7601595360786901,-0.2731098395312874,-0.2524440037724367,-0.0602148521615661,nan,nan,nan,nan,nan,nan,nan,nan,nan,nan
17.543052196502686,-0.598402738571167,3.0401511192321777,-8.6245698928833,0.026488903565551433,0.0019288063049316406,0.0,2.9924608678385787,-8.83574874070563,-0.06384224012775021,0.7598914496119553,-0.3344208047490217,-0.28110305764948973,-0.14791480328455628,nan,nan,nan,nan,nan,nan,nan,nan,nan,nan
17.553385496139526,-0.5910251140594482,3.042842149734497,-8.59284782409668,0.03391528552010145,0.0018150806427001953,0.0,2.992899603515862,-8.813695599270744,-0.0738422401277502,0.7596081777237098,-0.3092325050435547,-0.29883613521898467,-0.2196405223201408,nan,nan,nan,nan,nan,nan,nan,nan,nan,nan
17.563167572021484,-0.5910251140594482,3.042842149734497,-8.59284782409668,0.03391528552010145,0.0025293827056884766,0.0,2.9934906142170554,-8.791722277134344,-0.0838422401277502,0.7593450915382837,-0.37305275644632785,-0.31679347491789145,-0.28096998243788474,nan,nan,nan,nan,nan,nan,nan,nan,nan,nan
17.57320547103882,-0.5802155137062073,3.045764207839966,-8.545595169067383,0.04510621268362072,0.0016965866088867188,0.0,2.9942226507197978,-8.769828254582926,-0.09384224012775019,0.759029013555316,-0.31413032865662005,-0.3085246383677999,-0.3211531333470023,nan,nan,nan,nan,nan,nan,nan,nan,nan,nan
17.58347463607788,-0.5802155137062073,3.045764207839966,-8.545595169067383,0.04510621268362072,0.0022873878479003906,0.0,2.9950845115023084,-8.748012700700349,-0.10384224012775019,0.758770887512175,-0.38050137048160637,-0.31246825190095234,-0.3554415540128779,nan,nan,nan,nan,nan,nan,nan,nan,nan,nan
17.71537184715271,-0.5802155137062073,3.045764207839966,-8.545595169067383,0.04510621268362072,0.003911256790161133,0.0,3.047668155206301,-8.525326746308359,-0.19763419916017283,0.7513174282788995,-0.4325661075177265,-0.3199918828780979,-0.38172931429462187,nan,nan,nan,nan,nan,nan,nan,nan,nan,nan
17.72397780418396,-0.5213931798934937,3.0380358695983887,-8.286189079284668,0.09486144719593928,0.001638174057006836,0.0,3.049465093554371,-8.50507946042921,-0.20054873270679222,0.7517586645478513,0.3880368183583539,-0.07423955352405838,-0.2752480555282543,nan,nan,nan,nan,nan,nan,nan,nan,nan,nan
17.733325242996216,-0.5146260261535645,3.0340099334716797,-8.256325721740723,0.09872954281536957,0.0020554065704345703,0.0,3.0511222266767515,-8.484848959803578,-0.20217193416161425,0.7518171896100886,0.5711270762181994,0.013259842540755818,-0.24547785446356424,nan,nan,nan,nan,nan,nan,nan,nan,nan,nan
17.74294376373291,-0.5112393498420715,3.031724691390991,-8.241423606872559,0.1005187987866582,0.0017037391662597656,0.0,3.05261059258917,-8.46463190597272,-0.2026182490204415,0.7518001706757343,0.7015561104279192,0.04911470418240366,-0.201915630235489,nan,nan,nan,nan,nan,nan,nan,nan,nan,nan
17.753204345703125,-0.508030116558075,3.0292563438415527,-8.226747512817383,0.10221877207318117,0.001959562301635742,0.0,3.053904813072791,-8.444426004780071,-0.20199674052043706,0.7517792169708124,0.8276581710214168,0.07446151832483355,-0.15842431206607868,nan,nan,nan,nan,nan,nan,nan,nan,nan,nan
17.763096809387207,-0.5048103332519531,3.026602029800415,-8.212092399597168,0.10383478959415245,0.0019426345825195312,0.0,3.0549828593491264,-8.424229995343103,-0.20041109083017106,0.7517642866385437,0.949406898463715,0.09742935981974518,-0.11827111478976629,nan,nan,nan,nan,nan,nan,nan,nan,nan,nan
17.773170471191406,-0.4983302652835846,3.0207302570343018,-8.182836532592773,0.10675562287917414,0.0019702911376953125,0.0,3.0558258323177245,-8.404043606306619,-0.19795963139097572,0.7518490724804568,1.0,0.1326885586231994,-0.08420703350693515,nan,nan,nan,nan,nan,nan,nan,nan,nan,nan
17.783655166625977,-0.4950648248195648,3.017507553100586,-8.16823959350586,0.10798037128238867,0.0021708011627197266,0.0,3.0564177556465117,-8.383867487483345,-0.19473539837091858,0.7518251992840292,1.0,0.15389138292265925,-0.04999067829673877,nan,nan,nan,nan,nan,nan,nan,nan,nan,nan
17.793025016784668,-0.4917793869972229,3.0140914916992188,-8.15365219116211,0.10901153915086619,0.0017168521881103516,0.0,3.05674538003172,-8.36370312378983,-0.19082620955408527,0.751810996853354,1.0,0.17160381201937952,-0.02253229658466451,nan,nan,nan,nan,nan,nan,nan,nan,nan,nan
17.803345441818237,-0.488472580909729,3.0104823112487793,-8.139083862304688,0.1098471441363613,0.0018613338470458984,0.0,3.0567979970816843,-8.34355273731914,-0.18631475936518235,0.7518058808558056,1.0,0.18549969906649935,-0.00028567811923603547,nan,nan,nan,nan,nan,nan,nan,nan,nan,nan
17.813295364379883,-0.4817917048931122,3.00268816947937,-8.109999656677246,0.11100814619001513,0.0024318695068359375,0.0,3.0565672614820927,-8.323419182445011,-0.181278729102699,0.7519342627784437,1.0,0.19969088834175952,0.016774588863623714,nan,nan,nan,nan,nan,nan,nan,nan,nan,nan
17.82330346107483,-0.4784170389175415,2.9985053539276123,-8.095479965209961,0.11137660833052457,0.0018463134765625,0.0,3.0560470203359746,-8.303305838013577,-0.1757909098092123,0.7519518696993676,1.0,0.20624184164245885,0.03217755822226964,nan,nan,nan,nan,nan,nan,nan,nan,nan,nan
17.833380222320557,-0.4750199019908905,2.9941375255584717,-8.080974578857422,0.11163940559031,0.0021419525146484375,0.0,3.0552331488150584,-8.283216499937618,-0.16991933553604652,0.7519698039085305,1.0,0.21032134913633976,0.04385722938799991,nan,nan,nan,nan,nan,nan,nan,nan,nan,nan
17.84310817718506,-0.4716007709503174,2.9895880222320557,-8.066472053527832,0.11181720198774261,0.002061128616333008,0.0,3.0541233914926638,-8.26315527685445,-0.16372742505640903,0.7519864549777727,1.0,0.21247574758747287,0.0525156350444837,nan,nan,nan,nan,nan,nan,nan,nan,nan,nan
17.980657815933228,-0.4716007709503174,2.9895880222320557,-8.066472053527832,0.11181720198774261,0.002165555953979492,0.0,2.987433789521152,-8.046575546458092,-0.260139455310916,0.7480344195663003,1.0,0.2141454611678208,0.05861247895362552,nan,nan,nan,nan,nan,nan,nan,nan,nan,nan
17.987711191177368,-0.4018876552581787,2.86208438873291,-7.797636985778809,0.11090378697591632,0.0022382736206054688,0.0,2.984817217960952,-8.026674093310907,-0.25013945531091597,0.7501131917699357,0.6987557759007257,0.12717490753219635,0.09362193073545043,-0.05202806537747383,-0.052228065377473834,4.00611863861084,4.00591863861084,-12.546990530395508,-12.547190530395508,-0.03782506024219507,-0.038025060242195076,0.05391984636187554,0.05371984636187553
17.992959022521973,-0.4018876552581787,2.86208438873291,-7.797636985778809,0.11090378697591632,0.0017750263214111328,0.0,2.981747058098322,-8.00677780613113,-0.24013945531091596,0.7500644882861284,0.7128702723252823,0.1270097015670334,0.06049338169726226,1215.8019340071833,-1217.4318345326326,291445.41469912743,-291438.48242506123,291534.29366516817,-291555.5351524713,5013.7468846974225,-5013.687545939086,4843.468482204611,-4838.494850437592
18.003246784210205,-0.3982160687446594,2.8542349338531494,-7.7836995124816895,0.11094982694282211,0.0020711421966552734,0.0,2.978232272243597,-7.986896519771687,-0.23013945531091595,0.7500958388314237,0.6979655612938583,0.11439387294089372,0.042506137521955874,nan,nan,nan,nan,nan,nan,nan,nan,nan,nan
18.01306390762329,-0.39095962047576904,2.83573317527771,-7.756591320037842,0.11099043205790651,0.0019636154174804688,0.0,2.9742820278722055,-7.967039787083368,-0.22013945531091594,0.7501816042393732,0.6562599719451601,0.09640864442679568,0.028737568801979568,nan,nan,nan,nan,nan,nan,nan,nan,nan,nan
18.023159742355347,-0.38735437393188477,2.826449394226074,-7.743058681488037,0.11098598661690882,0.0018353462219238281,0.0,2.969905690905667,-7.947216874288393,-0.21013945531091593,0.7501997630131708,0.6428408572518554,0.08408887332079484,0.013115330269505895,nan,nan,nan,nan,nan,nan,nan,nan,nan,nan
18.03334617614746,-0.38376477360725403,2.8171510696411133,-7.7295403480529785,0.11099916621019888,0.0020017623901367188,0.0,2.965112818877434,-7.927436756540689,-0.20013945531091593,0.7502090904437875,0.6296595271648058,0.0721183345806053,-0.0005720000447937269,nan,nan,nan,nan,nan,nan,nan,nan,nan,nan
18.04310655593872,-0.3801943063735962,2.8078420162200928,-7.7160234451293945,0.11102902090764036,0.001851797103881836,0.0,2.9599131539891217,-7.907708113675573,-0.19013945531091592,0.7502064575476338,0.6173451321501537,0.06075724708976049,-0.013068968479143947,nan,nan,nan,nan,nan,nan,nan,nan,nan,nan
18.053435802459717,-0.3731170892715454,2.789212226867676,-7.689044952392578,0.11115712941478564,0.0020055770874023438,0.0,2.954316616062755,-7.888039326151304,-0.1801394553109159,0.7502598351382698,0.5760622231255307,0.04487277581088658,-0.023410771961081513,nan,nan,nan,nan,nan,nan,nan,nan,nan,nan
18.062989473342896,-0.3696132302284241,2.7799010276794434,-7.675584316253662,0.11124915815343682,0.002473115921020508,0.0,2.948333295394701,-7.868438471184738,-0.1701394553109159,0.7502521610281575,0.5675684886271253,0.03494556417329303,-0.036935486108288035,nan,nan,nan,nan,nan,nan,nan,nan,nan,nan
18.073229789733887,-0.3661338984966278,2.7705984115600586,-7.662142753601074,0.11135311251868105,0.0017895698547363281,0.0,2.9419734455170232,-7.848913319083104,-0.1601394553109159,0.7502420497777271,0.5609145832020184,0.025592524559445107,-0.04872932128050712,nan,nan,nan,nan,nan,nan,nan,nan,nan,nan
18.083394527435303,-0.3626801371574402,2.761308431625366,-7.6487202644348145,0.11146173015037275,0.0021419525146484375,0.0,2.9352474758720186,-7.829471329773685,-0.15013945531091588,0.7502287734453427,0.5559338846722988,0.017058622270720657,-0.05931214692759804,nan,nan,nan,nan,nan,nan,nan,nan,nan,nan
18.093055248260498,-0.35585302114486694,2.7427821159362793,-7.621920108795166,0.11168108521646616,0.0017120838165283203,0.0,2.928165944405737,-7.810119649532958,-0.14013945531091587,0.75028008571321,0.5255346134835817,0.005812167971413999,-0.0678687724133126,nan,nan,nan,nan,nan,nan,nan,nan,nan,nan
18.229947805404663,-0.35585302114486694,2.7427821159362793,-7.621920108795166,0.11168108521646616,0.002336740493774414,0.0,2.732774992809414,-7.604419660813069,-0.005526969311398221,0.7478341609499624,1.0,0.0017145479698265833,-0.07933752849862338,nan,nan,nan,nan,nan,nan,nan,nan,nan,nan
18.237037658691406,-0.3074040710926056,2.5877952575683594,-7.39486026763916,0.11117920598014767,0.0020208358764648438,0.0,2.722577910225762,-7.5870622919720105,0.004473030688601779,0.7491757876399826,0.6157949550803565,-0.03990694315647235,-0.049584652548323074,nan,nan,nan,nan,nan,nan,nan,nan,nan,nan
18.36200976371765,-0.2745262682437897,2.4593231678009033,-7.188669204711914,0.10786510621400922,0.0019462108612060547,0.0,2.712202536755147,-7.569850198940505,0.01447303068860178,0.7508386938402701,0.13609707685306294,-0.035079549181887826,-0.08617727600128715,nan,nan,nan,nan,nan,nan,nan,nan,nan,nan
18.495612144470215,-0.2745262682437897,2.4593231678009033,-7.188669204711914,0.10786510621400922,0.0022988319396972656,0.0,2.449224122807641,-7.173829107851967,0.14592536479063128,0.7481811616211999,-0.20403206281094066,-0.050521272973991775,-0.10560398355849196,nan,nan,nan,nan,nan,nan,nan,nan,nan,nan
18.503190994262695,-0.235533207654953,2.3590240478515625,-6.971042633056641,0.10283972728520357,0.0021162033081054688,0.0,2.439304614594796,-7.158989651501546,0.14344811433850677,0.7503047255994284,-0.906678814315771,-0.051559311411732194,-0.1340560529396545,nan,nan,nan,nan,nan,nan,nan,nan,nan,nan
18.513524532318115,-0.23402878642082214,2.355242967605591,-6.958750247955322,0.10251946742609663,0.0024156570434570312,0.0,2.4295691200114455,-7.1441475130210135,0.140586575011257,0.7503478462611739,-0.9786345084139467,-0.07033336090509024,-0.1712898984617467,nan,nan,nan,nan,nan,nan,nan,nan,nan,nan
18.5232195854187,-0.23255087435245514,2.351614475250244,-6.9464640617370605,0.10219291114767805,0.002203702926635742,0.0,2.420020912934927,-7.129300161697934,0.13739023984300675,0.7503929478413721,-1.0,-0.09191585830271072,-0.21119478522289215,nan,nan,nan,nan,nan,nan,nan,nan,nan,nan
18.533132553100586,-0.22967928647994995,2.3448281288146973,-6.9219136238098145,0.1015026326461707,0.0020661354064941406,0.0,2.410662161346279,-7.114445779506573,0.13390551955553914,0.7505828843767682,-1.0,-0.11484562046314856,-0.25375946450137504,nan,nan,nan,nan,nan,nan,nan,nan,nan,nan
18.543135404586792,-0.22828297317028046,2.341668128967285,-6.909637451171875,0.10112320870187973,0.0017588138580322266,0.0,2.4014940190697964,-7.099583183782031,0.1301758163719833,0.7505849237364579,-1.0,-0.13900536909472658,-0.29842283798554287,nan,nan,nan,nan,nan,nan,nan,nan,nan,nan
18.553508043289185,-0.2269131988286972,2.3386659622192383,-6.897378444671631,0.1007091111797931,0.0019404888153076172,0.0,2.3925167126987863,-7.084711752770008,0.12624160482814564,0.7505758989202606,-1.0,-0.16406724739732353,-0.3452228053523511,nan,nan,nan,nan,nan,nan,nan,nan,nan,nan
18.563310146331787,-0.22556990385055542,2.335822105407715,-6.88513708114624,0.1002507604529448,0.0022258758544921875,0.0,2.383729624126664,-7.069831354788281,0.12214051847937743,0.7505708615398802,-1.0,-0.18958592397533575,-0.3938711563932288,nan,nan,nan,nan,nan,nan,nan,nan,nan,nan
18.573256969451904,-0.22296079993247986,2.330603837966919,-6.8607048988342285,0.099186043172096,0.0019142627716064453,0.0,2.375131369012387,-7.05494228154089,0.11790744150300084,0.750684448961895,-1.0,-0.21198535417921546,-0.4431596695929051,nan,nan,nan,nan,nan,nan,nan,nan,nan,nan
18.583216667175293,-0.22169384360313416,2.3282251358032227,-6.848513603210449,0.09858074932649347,0.0019230842590332031,0.0,2.3667198714325455,-7.040045185957837,0.11357460428923093,0.7506837621362793,-1.0,-0.23500556352813276,-0.4916202305319951,nan,nan,nan,nan,nan,nan,nan,nan,nan,nan
18.593169689178467,-0.22044359147548676,2.3260014057159424,-6.836320877075195,0.09792115996530477,0.0019028186798095703,0.0,2.3584924349090417,-7.025141024789486,0.10917168219770329,0.7506785003571945,-1.0,-0.25684285782450234,-0.5389078197133673,nan,nan,nan,nan,nan,nan,nan,nan,nan,nan
18.603388786315918,-0.21921662986278534,2.3239238262176514,-6.824147701263428,0.0972078931784785,0.0021631717681884766,0.0,2.350445809950612,-7.010231006063301,0.10472589673280658,0.7506686266846353,-1.0,-0.2766498552929457,-0.5840399021431333,nan,nan,nan,nan,nan,nan,nan,nan,nan,nan
18.61307644844055,-0.21682892739772797,2.3201913833618164,-6.799862861633301,0.09554872444977647,0.0036690235137939453,0.0,2.342576258207384,-6.995316541409056,0.10026211845979259,0.7507396448577447,-1.0,-0.28641470539057046,-0.6231939802117026,nan,nan,nan,nan,nan,nan,nan,nan,nan,nan
18.753337860107422,-0.21682892739772797,2.3201913833618164,-6.799862861633301,0.09554872444977647,0.0021276473999023438,0.0,2.3154842240237388,-6.7851256588297115,0.1636258924989954,0.7509508173511512,-1.0,-0.30444288881575804,-0.6589239014253745,nan,nan,nan,nan,nan,nan,nan,nan,nan,nan
18.76298189163208,-0.19981101155281067,2.327761650085449,-6.586283206939697,0.06594953268742226,0.002777099609375,0.0,2.311099937736902,-6.77036375344143,0.1536258924989954,0.7515571858889069,-0.4793628665644042,-0.07099202413025661,-0.5547278073601151,nan,nan,nan,nan,nan,nan,nan,nan,nan,nan
18.773176193237305,-0.19981101155281067,2.327761650085449,-6.586283206939697,0.06594953268742226,0.0020177364349365234,0.0,2.3070289540871407,-6.755583456411758,0.14362589249899538,0.7513999122441104,-0.5153188073408673,-0.019689777447883854,-0.4671035768661619,nan,nan,nan,nan,nan,nan,nan,nan,nan,nan
18.78353524208069,-0.1970887929201126,2.334446430206299,-6.5510406494140625,0.05911162557220096,0.002111196517944336,0.0,2.303261581237306,-6.74079079200568,0.13362589249899537,0.7513333618740208,-0.4279446113052736,0.05222071509379012,-0.37506907252444915,-0.05202806537747383,-0.052228065377473834,4.00611863861084,4.00591863861084,-12.546990530395508,-12.547190530395508,-0.03782506024219507,-0.038025060242195076,0.05391984636187554,0.05371984636187553
18.793120861053467,-0.1970887929201126,2.334446430206299,-6.5510406494140625,0.05911162557220096,0.0018010139465332031,0.0,2.2997880125003656,-6.725991494999489,0.12362589249899537,0.7511783950924837,-0.46610962100860454,0.08645226348584585,-0.286122367435271,1215.8019340071833,-1217.4318345326326,291445.41469912743,-291438.48242506123,291534.29366516817,-291555.5351524713,5013.7468846974225,-5013.687545939086,4843.468482204611,-4838.494850437592
18.80363178253174,-0.19518138468265533,2.338792324066162,-6.527715682983398,0.05431073386692921,0.003564119338989258,0.0,2.2965983329850177,-6.7111910080386705,0.11362589249899538,0.7510672775370293,-0.41743454595684315,0.13735678120391712,-0.2037386947203392,nan,nan,nan,nan,nan,nan,nan,nan,nan,nan
18.81301212310791,-0.19518138468265533,2.338792324066162,-6.527715682983398,0.05431073386692921,0.002031087875366211,0.0,2.2936825263092055,-6.696394479166019,0.10362589249899538,0.7509143505224833,-0.45785509545016423,0.16456247529034948,-0.12819948766766448,nan,nan,nan,nan,nan,nan,nan,nan,nan,nan
18.823346614837646,-0.1921209841966629,2.345014810562134,-6.493068695068359,0.046862164563979805,0.002650737762451172,0.0,2.2910304813768754,-6.681606759521724,0.09362589249899539,0.750736405292321,-0.37246807070995347,0.20923462594730902,-0.06015332752300046,nan,nan,nan,nan,nan,nan,nan,nan,nan,nan
18.833096504211426,-0.1921209841966629,2.345014810562134,-6.493068695068359,0.046862164563979805,0.0019769668579101562,0.0,2.2886319992132633,-6.666832401217019,0.0836258924989954,0.7505852931936011,-0.4151904277625166,0.22967103567498315,0.0019453820757253382,nan,nan,nan,nan,nan,nan,nan,nan,nan,nan
18.843153715133667,-0.18880778551101685,2.350804090499878,-6.4588141441345215,0.03922882362642343,0.0018994808197021484,0.0,2.2864767998539524,-6.6520756553827445,0.0736258924989954,0.7503907613189003,-0.3485466554525942,0.250696646424264,0.0512095923025475,nan,nan,nan,nan,nan,nan,nan,nan,nan,nan
18.853410720825195,-0.18880778551101685,2.350804090499878,-6.4588141441345215,0.03922882362642343,0.002165555953979492,0.0,2.2845545292829126,-6.6373404703940295,0.0636258924989954,0.750241293240617,-0.39361677509508564,0.26282371255613124,0.09485480898682278,nan,nan,nan,nan,nan,nan,nan,nan,nan,nan
18.863184213638306,-0.1864500343799591,2.3543736934661865,-6.4362077713012695,0.034163217930472466,0.003108501434326172,0.0,2.2828547664147134,-6.622630490272087,0.0536258924989954,0.7500489553244158,-0.3749142335344763,0.26757547140596677,0.1255112733656694,nan,nan,nan,nan,nan,nan,nan,nan,nan,nan
18.873998880386353,-0.1864500343799591,2.3543736934661865,-6.4362077713012695,0.034163217930472466,0.0033245086669921875,0.0,2.2813670301160762,-6.607949053263926,0.0436258924989954,0.7499010050465518,-0.42237764685484014,0.2737221198985102,0.150947108297146,nan,nan,nan,nan,nan,nan,nan,nan,nan,nan
19.01960301399231,-0.1864500343799591,2.3543736934661865,-6.4362077713012695,0.034163217930472466,0.0022432804107666016,0.0,2.355562372048006,-6.422406965394801,-0.09406651119740793,0.7462194658953923,-1.0,0.2792628279896767,0.1691519032152008,nan,nan,nan,nan,nan,nan,nan,nan,nan,nan
19.02615976333618,-0.1555846780538559,2.387495756149292,-6.229008674621582,-0.004321478574758966,0.001802206039428711,0.0,2.3568034778849745,-6.408648572138015,-0.10406651119740792,0.7464989689535412,-0.5754959781106075,0.06824156434315268,0.006682128841667547,nan,nan,nan,nan,nan,nan,nan,nan,nan,nan
19.03304171562195,-0.15363392233848572,2.3884928226470947,-6.218827724456787,-0.0058245241726541525,0.002172708511352539,0.0,2.35808657496997,-6.394931251383664,-0.11406651119740792,0.7464412738348359,-0.6139592123724241,0.05757485630661728,0.011407043273573107,nan,nan,nan,nan,nan,nan,nan,nan,nan,nan
19.043121337890625,-0.15168379247188568,2.3893790245056152,-6.208670139312744,-0.007276280239735852,0.002008676528930664,0.0,2.3594012809091502,-6.381253355008286,-0.12406651119740791,0.7463841251048267,-0.6532602281928418,0.04693276801732085,0.013069813786675252,nan,nan,nan,nan,nan,nan,nan,nan,nan,nan
19.05335807800293,-0.14973574876785278,2.390153169631958,-6.198516368865967,-0.008677402190081035,0.002002239227294922,0.0,2.3607372740644776,-6.367612928614171,-0.13406651119740792,0.7463281969861193,-0.6934781598152471,0.035941755087414026,0.012621208459972205,nan,nan,nan,nan,nan,nan,nan,nan,nan,nan
19.063024759292603,-0.14585186541080475,2.39136004447937,-6.178282260894775,-0.011341399788566492,0.0020296573638916016,0.0,2.362084300646543,-6.354007713399896,-0.14406651119740793,0.7462930800902159,-0.702560567899647,0.014078386035006333,0.006611549718644627,nan,nan,nan,nan,nan,nan,nan,nan,nan,nan
19.073423147201538,-0.14391891658306122,2.3917899131774902,-6.1682047843933105,-0.012607400125477938,0.001989603042602539,0.0,2.3634321817537245,-6.340435148197078,-0.15256228211695694,0.7462224745514527,-0.5904510193916932,0.0026135204159050086,0.005617677515998097,nan,nan,nan,nan,nan,nan,nan,nan,nan,nan
19.08321475982666,-0.14199398458003998,2.392102003097534,-6.158153533935547,-0.013809733966790014,0.0018851757049560547,0.0,2.364750447408749,-6.326890373374225,-0.15947214928751893,0.7461587174734953,-0.46108778402805706,-0.006743072759430537,0.005962156012936346,nan,nan,nan,nan,nan,nan,nan,nan,nan,nan
19.09314465522766,-0.14007851481437683,2.392294406890869,-6.14812707901001,-0.014936158722978016,0.0018494129180908203,0.0,2.3660091613914975,-6.313368547120219,-0.1649130967891091,0.7461046896598115,-0.33395163818550044,-0.014582581404127841,0.00668874838492281,nan,nan,nan,nan,nan,nan,nan,nan,nan,nan
19.103633165359497,-0.13627378642559052,2.392312526702881,-6.128121852874756,-0.016979985455417512,0.0034437179565429688,0.0,2.367181645015284,-6.2998653350497,-0.16899804237135635,0.7461166516632002,-0.16693152948738826,-0.025464383725658846,0.006381522647914749,nan,nan,nan,nan,nan,nan,nan,nan,nan,nan
19.112918615341187,-0.13438867032527924,2.3921334743499756,-6.118141174316406,-0.017913598444114928,0.001688241958618164,0.0,2.3682442616721864,-6.286377039003318,-0.1718356674334879,0.7460853694974123,-0.043556032091312036,-0.030064516887826208,0.0068350298466016085,nan,nan,nan,nan,nan,nan,nan,nan,nan,nan
19.123232126235962,-0.13251572847366333,2.3918261528015137,-6.108180046081543,-0.018797511731445976,0.0018723011016845703,0.0,2.3691762135215355,-6.272900675281811,-0.17353028839373622,0.7460573111057073,0.07632708713054281,-0.03325062945676194,0.006790208677646131,nan,nan,nan,nan,nan,nan,nan,nan,nan,nan
19.133005619049072,-0.13065536320209503,2.391387462615967,-6.098238468170166,-0.019636428460259245,0.0020551681518554688,0.0,2.369959350559465,-6.2594340116062215,-0.17418176582656966,0.7460304234590591,0.19213729033107713,-0.035617512251053675,0.006236221620953893,nan,nan,nan,nan,nan,nan,nan,nan,nan,nan
19.271451473236084,-0.13065536320209503,2.391387462615967,-6.098238468170166,-0.019636428460259245,0.0021898746490478516,0.0,2.3914914642760614,-6.085472277733495,-0.19357971121274292,0.742328092875525,0.6501105055621226,-0.035855715600445676,0.004875007942248814,nan,nan,nan,nan,nan,nan,nan,nan,nan,nan
19.277961492538452,-0.09073050320148468,2.3559601306915283,-5.901893138885498,-0.02977084820069517,0.0018160343170166016,0.0,2.3913160485669924,-6.072694555767324,-0.18671354246352073,0.744311796869022,1.0,-0.007848503693974261,0.006127127675907538,nan,nan,nan,nan,nan,nan,nan,nan,nan,nan
19.28456211090088,-0.09073050320148468,2.3559601306915283,-5.901893138885498,-0.02977084820069517,0.0025932788848876953,0.0,2.3908624989810763,-6.059910013552086,-0.17954894064105506,0.7442779549486436,1.0,-0.0071112611356439065,0.012831927667040083,nan,nan,nan,nan,nan,nan,nan,nan,nan,nan
19.292975902557373,-0.08837819844484329,2.352031946182251,-5.891848564147949,-0.030150158736956298,0.0017828941345214844,0.0,2.390133360005384,-6.047123551943695,-0.17214769590594015,0.7443482947349217,1.0,-0.003455762672336958,0.016830202493477112,nan,nan,nan,nan,nan,nan,nan,nan,nan,nan
19.303407669067383,-0.08374711126089096,2.343839645385742,-5.871814727783203,-0.030870066643935143,0.001967191696166992,0.0,2.3891323226836536,-6.034340162336295,-0.16456693038224646,0.7445204075589669,1.0,0.0027214266364638407,0.020216110141623174,nan,nan,nan,nan,nan,nan,nan,nan,nan,nan
19.313076496124268,-0.0814671739935875,2.3395771980285645,-5.8618268966674805,-0.031213088149679727,0.0021209716796875,0.0,2.3878641129791394,-6.02156483798009,-0.15685927436030536,0.7445719922327888,1.0,0.005792504950116978,0.02460883267790816,nan,nan,nan,nan,nan,nan,nan,nan,nan,nan
19.323529958724976,-0.07920797914266586,2.3351967334747314,-5.85186767578125,-0.03154799167181685,0.002056598663330078,0.0,2.3863343831034274,-6.008802495970936,-0.14907304518709644,0.7446018459951436,1.0,0.009058487334604988,0.028208848179370246,nan,nan,nan,nan,nan,nan,nan,nan,nan,nan
19.33313012123108,-0.07696893066167831,2.3306992053985596,-5.841938018798828,-0.03187823204032336,0.00200653076171875,0.0,2.3845496060703075,-5.996057909958288,-0.14125242789793624,0.7446265792116428,1.0,0.01208727418112985,0.03143411453054282,nan,nan,nan,nan,nan,nan,nan,nan,nan,nan
19.343141555786133,-0.07254918664693832,2.3213608264923096,-5.822165012359619,-0.032523404865447386,0.0019485950469970703,0.0,2.3825169737905103,-5.9833356533917135,-0.13343765676153266,0.7447373499825009,1.0,0.017359466362051275,0.03401554804022038,-0.05202806537747383,-0.052228065377473834,4.00611863861084,4.00591863861084,-12.546990530395508,-12.547190530395508,-0.03782506024219507,-0.038025060242195076,0.05391984636187554,0.05371984636187553
19.35331916809082,-0.07036737352609634,2.316526174545288,-5.812302112579346,-0.032839369673213006,0.0020875930786132812,0.0,2.380244299047978,-5.970640052940029,-0.125665197006177,0.7447689606706713,1.0,0.019698990608627887,0.037628881687341895,1215.8019340071833,-1217.4318345326326,291445.41469912743,-291438.48242506123,291534.29366516817,-291555.5351524713,5013.7468846974225,-5013.687545939086,4843.468482204611,-4838.494850437592
19.363105535507202,-0.06820354610681534,2.3115851879119873,-5.802467346191406,-0.033147848717010944,0.0021293163299560547,0.0,2.3777399216968256,-5.95797515156819,-0.11796792607221344,0.7447953491032867,1.0,0.022121323786157557,0.04048147343095372,nan,nan,nan,nan,nan,nan,nan,nan,nan,nan
19.37346124649048,-0.06605716049671173,2.306542158126831,-5.792661190032959,-0.033453893930168135,0.002075672149658203,0.0,2.375012619395732,-5.945344680642071,-0.11037531379883875,0.7448166169127216,1.0,0.024226123194265228,0.04296926942836961,nan,nan,nan,nan,nan,nan,nan,nan,nan,nan
19.38318967819214,-0.06179651990532875,2.296175003051758,-5.773134231567383,-0.03403637423152191,0.0019452571868896484,0.0,2.372071523158361,-5.932752040347055,-0.10291360100515996,0.7448996352159495,1.0,0.027707951986516297,0.04482247831192204,nan,nan,nan,nan,nan,nan,nan,nan,nan,nan
19.518421173095703,-0.06179651990532875,2.296175003051758,-5.773134231567383,-0.03403637423152191,0.0022802352905273438,0.0,2.291339956405587,-5.760382653007808,-0.15196422354172784,0.7443190667624003,1.0,0.02780729973791711,0.04763585723290564,nan,nan,nan,nan,nan,nan,nan,nan,nan,nan
19.52525496482849,-0.04060392454266548,2.1853647232055664,-5.614086627960205,-0.03703918033121756,0.0018951892852783203,0.0,2.286216437522989,-5.7476880809003115,-0.14196422354172783,0.7451414524253597,0.49562717670732237,0.03301016970736269,0.04539709758885376,nan,nan,nan,nan,nan,nan,nan,nan,nan,nan
19.533255338668823,-0.03958522155880928,2.177898645401001,-5.604618072509766,-0.03710705368694885,0.0023193359375,0.0,2.2808146865476053,-5.735056522854958,-0.13196422354172782,0.7451248993531218,0.4819931606868454,0.03095620122832954,0.05403700344243689,nan,nan,nan,nan,nan,nan,nan,nan,nan,nan
