time,x,y,z,yaw,ctrl_comp_time,rollout_comptime,y_ref,z_ref,yaw_ref,throttle,roll_rate,pitch_rate,yaw_rate,save_tube_pyH,save_tube_pyL,save_tube_pzH,save_tube_pzL,wy,wz
15.06513500213623,-0.04550079256296158,3.805500030517578,-12.32951545715332,-0.002995751038273653,0.1639392375946045,0.08136820793151855,3.8069422162200355,-12.327800398242147,-0.10181025293021619,0.5808069527694804,-1.0,0.0018949965305393637,0.019035115494484858,3.8210267440604104,3.7927984559400487,-12.315252347924167,-12.343993479167416,-0.008262276775044715,-0.04965124281821074
15.640318632125854,-0.031993500888347626,3.833047389984131,-12.34673023223877,-0.0016794606989458671,0.16890311241149902,0.07126164436340332,3.80689191269518,-12.323083021192726,-0.12181025293021618,0.5811984374646657,-1.0,0.012281679027911045,0.03945781195898654,3.8291445798030304,3.7847280451305143,-12.303059373530948,-12.348180133324181,-0.01957390822114195,-5.901154525598876
15.73519253730774,-0.031993500888347626,3.833047389984131,-12.34673023223877,-0.0016794606989458671,0.0019843578338623047,0.07402610778808594,3.8066753666012456,-12.316948851765105,-0.14181025293021618,0.5813262481113637,-1.0,0.04274067015873639,0.10243688728574533,3.8397101994818295,3.7739017394221333,-12.286961414321182,-12.353422829375367,-0.01957390822114195,-5.901154525598876
15.746179103851318,-0.04450623318552971,3.8642213344573975,-12.344998359680176,-0.0015673280662631406,0.004490852355957031,0.07402610778808594,3.806267390873082,-12.30941175265291,-0.1618102529302162,0.5806538219729069,-1.0,0.11505093728144078,0.2829105089389241,3.853340981187277,3.759652863027182,-12.266469652316644,-12.36024011023907,-0.03977186393661293,-7.274541403673723
15.75443172454834,-0.04450623318552971,3.8642213344573975,-12.344998359680176,-0.0015673280662631406,0.0040416717529296875,0.07402610778808594,3.8056417899019617,-12.300483537984501,-0.18181025293021622,0.5793364136891563,-1.0,0.32053565609700857,0.5414552544694621,3.8709269469897882,3.7410399882778664,-12.240864515740641,-12.369377240503873,-0.03977186393661293,-7.274541403673723
15.765251159667969,-0.04597649350762367,3.8661370277404785,-12.345252990722656,-0.0015562864321663206,0.001993417739868164,0.07402610778808594,3.80477145292638,-12.290173911500927,-0.20181025293021623,0.5779440874950155,-1.0,0.464374959267906,0.670727627234731,3.893759142882087,3.7167187390459486,-12.209067663678146,-12.38193409387031,-0.03977186393661293,-7.274541403673723
15.770374298095703,-0.04597649350762367,3.8661370277404785,-12.345252990722656,-0.0015562864321663206,0.002727508544921875,0.07402610778808594,3.8036284506828313,-12.278490409107487,-0.22181025293021625,0.5766145105575217,-1.0,0.5650624714875342,0.7353638136173656,3.9237348037614703,3.6847368158558407,-12.169439163460977,-12.399567856456335,-0.03977186393661293,-7.274541403673723
15.779775381088257,-0.04736901447176933,3.8679544925689697,-12.345613479614258,-0.0015348175436513678,0.0027532577514648438,0.07402610778808594,3.802184135098203,-12.265438345948859,-0.24181025293021627,0.5752630726824645,-1.0,0.635543730041274,0.7676819068086828,3.9636781332915483,3.6422134124214147,-12.119462288875546,-12.424808118180188,-0.03977186393661293,-7.274541403673723
15.788807392120361,-0.048031650483608246,3.868828296661377,-12.345817565917969,-0.0015103999602650298,0.0025472640991210938,0.07402610778808594,3.8004092417993194,-12.251020768146454,-0.26181025293021626,0.5741797568175694,-1.0,0.6848806110288918,0.7838409534043415,4.017828837278244,3.5848508845287754,-12.055268391977425,-12.461531899725072,-0.05740641168268792,-7.518677947755241
15.798779487609863,-0.049560729414224625,3.8694844245910645,-12.345398902893066,-0.0014771296235602804,0.002139568328857422,0.07402610778808594,3.7982739952096543,-12.235238409325117,-0.2818102529302163,0.5731959832158334,-1.0,0.7194164277202242,0.7919204767021707,4.092551266552391,3.5062258148180607,-11.97095887729225,-12.515641586571958,-0.05740641168268792,-7.518677947755241
15.809561014175415,-0.05104975029826164,3.8701205253601074,-12.344987869262695,-0.001399254168411801,0.004292488098144531,0.07402610778808594,3.795748215998283,-12.218089652044648,-0.3018102529302163,0.5722482543663319,-1.0,0.7435914994041569,0.7959602383510854,4.197246174400624,3.3968774679575127,-11.857764592641413,-12.595905456104745,-0.05740641168268792,-7.518677947755241
15.819828748703003,-0.05391116440296173,3.8713319301605225,-12.344158172607422,-0.0011483568631258656,0.0044519901275634766,0.07402610778808594,3.7928014306418394,-12.199570494239747,-0.3218102529302163,0.5717235630824233,-1.0,0.7605140495829099,0.7979801191755426,4.345177707727462,3.24348101655261,-11.703405772626908,-12.714597661972466,-0.05740641168268792,-7.518677947755241
15.83075213432312,-0.05391116440296173,3.8713319301605225,-12.344158172607422,-0.0011483568631258656,0.0023794174194335938,0.07402610778808594,3.8069126000001976,-12.32962291354582,-0.09181025293021619,0.5703688983152189,-1.0,0.772359834708037,0.7989900595877714,3.8177460326613963,3.7959546988950197,-12.319994989109404,-12.342175286269104,-0.05740641168268792,-7.518677947755241
15.839083909988403,-0.05663308501243591,3.8724656105041504,-12.343324661254883,-0.0007404875711385372,0.002572298049926758,0.07402610778808594,3.8069363124667235,-12.32561975342761,-0.11181025293021618,0.5697934241799512,-1.0,0.7806518842956259,0.7994950297938858,3.824810148692965,3.7890742837470284,-12.309619968302378,-12.345980828181988,-0.05740641168268792,-7.518677947755241
15.848817348480225,-0.0579461045563221,3.873002529144287,-12.342909812927246,-0.0004459035076576079,0.002318143844604492,0.07402610778808594,3.8068059694519123,-12.320192121848338,-0.13181025293021617,0.568875375188078,-1.0,0.7864563190069381,0.7997475148969427,3.834088065297468,3.779695760092778,-12.295524798921686,-12.350641243463873,-0.05740641168268792,-7.518677947755241
15.859106302261353,-0.06047257035970688,3.874009370803833,-12.34196662902832,0.00042727900376204886,0.005353689193725586,0.07402610778808594,3.806496922107136,-12.31335488127794,-0.1518102529302162,0.5694351453609282,-1.0,0.7905194233048567,0.7998737574484712,3.846094446834378,3.767256286367954,-12.277303097919344,-12.35659460561101,-0.05740641168268792,-7.518677947755241
15.871519804000854,-0.06047257035970688,3.874009370803833,-12.34196662902832,0.00042727900376204886,0.005179405212402344,0.07402610778808594,3.805983467633706,-12.305120878122363,-0.1718102529302162,0.5680681673758743,-1.0,0.7933635963133996,0.7999368787242357,3.861570184094069,3.7509645976518837,-12.254363330720233,-12.36446017458577,-0.05740641168268792,-7.518677947755241
15.983532905578613,-0.07956349849700928,3.8790581226348877,-12.308338165283203,0.017466153445374832,0.0019600391387939453,0.09844970703125,3.8052389409638643,-12.295500878774359,-0.19181025293021622,0.6134650537543869,-0.2532607740824968,0.7953545174193797,0.7999684393621179,3.881585995983253,3.7296975838203985,-12.225826339117644,-12.375140736851593,-0.05740641168268792,-7.518677947755241
15.990749835968018,-0.07956349849700928,3.8790581226348877,-12.308338165283203,0.017466153445374832,0.002530813217163086,0.09844970703125,3.804235809808466,-12.284503509958814,-0.21181025293021624,0.6122291241165086,-0.3201649761822899,0.7967481621935658,0.799984219681059,3.9077040047216487,3.7018389011307713,-12.190364461674939,-12.389983361327202,0.008045389272471053,-2.086499945887688
15.999330282211304,-0.08081457763910294,3.879016876220703,-12.304682731628418,0.01895092659825437,0.0020487308502197266,0.09844970703125,3.8029457728562512,-12.272135203528055,-0.23181025293021626,0.61304246771686,-0.32794804957458235,0.7977237135354961,0.7999921098405295,3.942235847980434,3.6650210533848124,-12.145947481612462,-12.411033336602854,0.008045389272471053,-2.086499945887688
16.008973598480225,-0.08208487182855606,3.878908157348633,-12.300867080688477,0.02046901923766198,0.003423452377319336,0.09844970703125,3.801339860903235,-12.25840014585147,-0.25181025293021625,0.6138689743054172,-0.33645662086976247,0.7984065994748473,0.7999960549202648,3.9886395274395494,3.615728742756355,-12.089454161971865,-12.441422529926255,0.008045389272471053,-2.086499945887688
16.018641710281372,-0.08469586819410324,3.87847638130188,-12.292747497558594,0.02360598666634095,0.002150297164916992,0.09844970703125,3.7993885406849017,-12.243300231932361,-0.27181025293021627,0.6167999928460594,-0.2801741398647848,0.7988846196323931,0.7999980274601325,4.052113675853338,3.548704807744705,-12.01609870884941,-12.485942827443967,0.008045389272471053,-2.086499945887688
16.02922797203064,-0.0860445499420166,3.8781447410583496,-12.2884521484375,0.02523029021813583,0.0031037330627441406,0.09844970703125,3.79706182117869,-12.226835024373374,-0.2918102529302163,0.6174664707542915,-0.28900602859501856,0.7992192337426752,0.7999990137300662,4.1404198870326,3.45612810338601,-11.91865502656443,-12.551821792086345,0.008045389272471053,-2.086499945887688
16.03887414932251,-0.08742902427911758,3.87772798538208,-12.284019470214844,0.026900452214039472,0.0028192996978759766,0.09844970703125,3.794329362139599,-12.209001717300021,-0.3118102529302163,0.6180344747989176,-0.3009288684027833,0.7994534636198727,0.7999995068650331,4.264819433379145,3.3266769986166085,-11.786632815572109,-12.649546488517807,0.008045389272471053,-2.086499945887688
16.04887843132019,-0.08778484165668488,3.8777451515197754,-12.278966903686523,0.02862076327010632,0.002243518829345703,0.09844970703125,3.8338431312112493,-12.345304669861823,-0.09394020199203913,0.6185879977495274,-0.3196900189580121,0.7849996270513032,0.7999997534325166,3.844793713684279,3.8229024176316475,-12.335806866954979,-12.358065370442016,0.008045389272471053,-2.086499945887688
16.05907702445984,-0.0886899009346962,3.877459764480591,-12.268522262573242,0.03219303348213787,0.0031328201293945312,0.09844970703125,3.833733330551177,-12.340963729152701,-0.11394020199203912,0.6209293610561041,-0.2857988019326685,0.7364406735344864,0.7999998767162583,3.851763636693664,3.815848081822159,-12.325068936108499,-12.36155738012578,0.008045389272471053,-2.086499945887688
16.068642139434814,-0.08925074338912964,3.877155303955078,-12.263129234313965,0.03405214807206569,0.002651214599609375,0.09844970703125,3.8334704604079,-12.335199100362393,-0.13394020199203913,0.6214370273592853,-0.31496504259233804,0.6791926932970477,0.7999999383581291,3.8609667471457465,3.806278357279946,-12.310603689714354,-12.365913127701894,0.008045389272471053,-2.086499945887688
16.079573392868042,-0.08988772332668304,3.876739978790283,-12.257623672485352,0.03595819574128001,0.002805948257446289,0.09844970703125,3.8330297427317497,-12.32802551064317,-0.15394020199203914,0.6219375404974765,-0.34784710524069407,0.625603221948018,0.7999999691790646,3.872924426844204,3.793623419311638,-12.292001650219099,-12.371573516548471,0.008045389272471053,-2.086499945887688
16.089319705963135,-0.09060369431972504,3.8762118816375732,-12.252004623413086,0.03791030785055183,0.0023126602172851562,0.09844970703125,3.832385352994485,-12.319455665306332,-0.17394020199203916,0.6224365555794221,-0.3843763098941626,0.5745456867983761,0.7999999845895324,3.88838745599112,3.7770818625925076,-12.268665880597153,-12.379162932586844,-0.20948487729611126,-1.7786023732990117
16.18569588661194,-0.09060369431972504,3.8762118816375732,-12.252004623413086,0.03791030785055183,0.001935720443725586,0.08797430992126465,3.8315105121102127,-12.309500184195139,-0.19394020199203918,0.616960143154176,-1.0,0.5482982133252434,0.7999999922947661,3.9084412139081315,3.755515680777578,-12.239708076147908,-12.38959302104836,-0.20948487729611126,-1.7786023732990117
16.196269989013672,-0.11288873851299286,3.8547849655151367,-12.159177780151367,0.07278861812581772,0.002800464630126953,0.08797430992126465,3.8303775817085253,-12.298167542362604,-0.2139402019920392,0.6422684711202641,-0.3721955350808924,0.28965038106391405,0.799999996147383,3.9346695839482466,3.727286548836912,-12.20378553650495,-12.404225591475797,-0.29345328950711463,-1.8846592742638302
16.20232319831848,-0.11288873851299286,3.8547849655151367,-12.159177780151367,0.07278861812581772,0.0018589496612548828,0.08797430992126465,3.82895816254434,-12.285464015208891,-0.23394020199203922,0.6410509678627421,-0.4867049569717702,0.08530882013578582,0.7999999980736916,3.969417131925579,3.689993838363554,-12.158843630808873,-12.425130038328454,-0.29345328950711463,-1.8846592742638302
16.21079111099243,-0.11570321768522263,3.852052688598633,-12.151331901550293,0.07584777374371354,0.003000020980834961,0.08797430992126465,3.827223195822535,-12.271393628221917,-0.2539402019920392,0.6418306823585173,-0.5471744599405666,-0.06124899503916997,0.718852831237132,4.0161917582357365,3.640072165243841,-12.10172226531146,-12.455476768221487,-0.29345328950711463,-1.8846592742638302
16.219626903533936,-0.12163686752319336,3.846215009689331,-12.13525390625,0.08213168902592205,0.0025506019592285156,0.08797430992126465,3.8251430672097295,-12.25595811145333,-0.2739402019920392,0.6446493271081899,-0.5515647542888921,-0.23506354803474547,0.4637113660220492,4.080266590913775,3.5721897019934565,-12.027575963712318,-12.500117023774239,-0.29345328950711463,-1.8846592742638302
16.230146408081055,-0.12476123124361038,3.843106746673584,-12.127018928527832,0.08535408327349803,0.002562284469604492,0.08797430992126465,3.822687713300339,-12.239156858850421,-0.29394020199203924,0.6454547254583869,-0.6148073133456964,-0.4045444836243218,-0.04982864790233102,4.169509730977266,3.4784186429510138,-11.92909298063899,-12.566363683909362,-0.29345328950711463,-1.8846592742638302
16.238830089569092,-0.12476123124361038,3.843106746673584,-12.127018928527832,0.08535408327349803,0.0025124549865722656,0.08797430992126465,3.819826730299475,-12.220986892552753,-0.31394020199203926,0.6442376454751286,-0.741842868869004,-0.5231811385370253,-0.4249143239511655,4.295319487570306,3.3473001843428905,-11.795677897527934,-12.664808591574662,-0.29345328950711463,-1.8846592742638302
16.248777151107788,-0.13133850693702698,3.836503744125366,-12.11015796661377,0.09198629146889159,0.0038285255432128906,0.08797430992126465,3.8338058592579114,-12.343313158117141,-0.10394020199203913,0.6470602783335261,-0.7399746440361625,-0.6062267969759177,-0.6124571619755828,3.844793713684279,3.8229024176316475,-12.335806866954979,-12.358065370442016,-0.29345328950711463,-1.8846592742638302
16.25883197784424,-0.13133850693702698,3.836503744125366,-12.11015796661377,0.09198629146889159,0.0040531158447265625,0.08797430992126465,3.8336225522128458,-12.338258408708125,-0.12394020199203912,0.6458430903726148,-0.8734257447480509,-0.6643587578831424,-0.7062285809877913,3.851763636693664,3.815848081822159,-12.325068936108499,-12.36155738012578,-0.29345328950711463,-1.8846592742638302
16.268641710281372,-0.1420549750328064,3.8255958557128906,-12.083950996398926,0.10317298507367001,0.002575397491455078,0.08797430992126465,3.8332739230779205,-12.331787583383786,-0.14394020199203914,0.6503150773855195,-0.7868624897985287,-0.7050511305181997,-0.7531142904938957,3.8609667471457465,3.806278357279946,-12.310603689714354,-12.365913127701894,-0.29345328950711463,-1.8846592742638302
16.3673198223114,-0.1420549750328064,3.8255958557128906,-12.083950996398926,0.10317298507367001,0.004546165466308594,0.08477616310119629,3.832734659291813,-12.323914406592001,-0.16394020199203915,0.6420279638531976,-1.0,-0.7335357913627398,-0.7765571452469477,3.872924426844204,3.793623419311638,-12.292001650219099,-12.371573516548471,-0.29345328950711463,-1.8846592742638302
16.3801908493042,-0.20172922313213348,3.767396926879883,-11.962456703186035,0.15533192274101681,0.003222227096557617,0.08477616310119629,3.831978447342854,-12.314650548598136,-0.18394020199203917,0.6613946327078594,0.10377084455833696,-0.7534750539539179,-0.788278572623474,3.88838745599112,3.7770818625925076,-12.268665880597153,-12.379162932586844,-0.3798738332271799,-1.9918171435095549
16.38882279396057,-0.2194841504096985,3.7487380504608154,-11.9301118850708,0.16678106540910465,0.0032100677490234375,0.08477616310119629,3.830978066392579,-12.304005563990376,-0.2039402019920392,0.6657384344997432,0.3416850700541947,-0.7674325377677426,-0.794139286311737,3.9084412139081315,3.755515680777578,-12.239708076147908,-12.38959302104836,-0.4433210556743935,-2.0477552440462876
16.399183750152588,-0.2194841504096985,3.7487380504608154,-11.9301118850708,0.16678106540910465,0.005021095275878906,0.08477616310119629,3.8297054851445664,-12.291986834568668,-0.2239402019920392,0.6645452481532601,0.19724384951290497,-0.7772027764374198,-0.7970696431558685,3.9346695839482466,3.727286548836912,-12.20378553650495,-12.404225591475797,-0.4433210556743935,-2.0477552440462876
16.413050889968872,-0.2194841504096985,3.7487380504608154,-11.9301118850708,0.16678106540910465,0.004909992218017578,0.08477616310119629,3.8281319617397886,-12.278599516766478,-0.24394020199203922,0.6633492195456927,0.04955277100739797,-0.7840419435061938,-0.7985348215779343,3.969417131925579,3.689993838363554,-12.158843630808873,-12.425130038328454,-0.4433210556743935,-2.0477552440462876
16.425039291381836,-0.25389575958251953,3.7130281925201416,-11.872289657592773,0.1834147395805612,0.0036902427673339844,0.08477616310119629,3.8262281464536154,-12.263846493743284,-0.2639402019920392,0.6718376361532121,0.5795068483418593,-0.7888293604543357,-0.7992674107889671,4.0161917582357365,3.640072165243841,-12.10172226531146,-12.455476768221487,-0.4433210556743935,-2.0477552440462876
16.433516025543213,-0.25389575958251953,3.7130281925201416,-11.872289657592773,0.1834147395805612,0.0026471614837646484,0.08477616310119629,3.8239641869641394,-12.24772833227418,-0.28394020199203923,0.6706264784560474,0.4244108472537851,-0.792180552318035,-0.7996337053944836,4.080266590913775,3.5721897019934565,-12.027575963712318,-12.500117023774239,-0.4433210556743935,-2.0477552440462876
16.44338846206665,-0.26996564865112305,3.6969563961029053,-11.847344398498535,0.18911849682324666,0.005911350250244141,0.08477616310119629,3.821309835956598,-12.230243244551302,-0.30394020199203925,0.6731882250437548,0.5457283125534074,-0.7945263866226245,-0.7998168526972418,4.169509730977266,3.4784186429510138,-11.92909298063899,-12.566363683909362,-0.4433210556743935,-2.0477552440462876
16.45654273033142,-0.26996564865112305,3.6969563961029053,-11.847344398498535,0.18911849682324666,0.0046689510345458984,0.08477616310119629,3.8182345608243793,-12.21138705499985,-0.32394020199203927,0.6719703393357955,0.38344378997056605,-0.7961684706358372,-0.7999084263486209,4.295319487570306,3.3473001843428905,-11.795677897527934,-12.664808591574662,-0.4433210556743935,-2.0477552440462876
16.56224751472473,-0.3861330449581146,3.5558242797851562,-11.664515495300293,0.21522974866867273,0.005438804626464844,0.09083938598632812,3.833733330551177,-12.340963729152701,-0.11394020199203912,0.6928694153373322,0.5815594787309448,-0.7973179294450861,-0.7999542131743105,3.844793713684279,3.8229024176316475,-12.335806866954979,-12.358065370442016,-0.4433210556743935,-2.0477552440462876
16.577261209487915,-0.3861330449581146,3.5558242797851562,-11.664515495300293,0.21522974866867273,0.0046198368072509766,0.09083938598632812,3.8334704604079,-12.335199100362393,-0.13394020199203913,0.691926202304223,0.39162829669836774,-0.7981225506115602,-0.7999771065871553,3.851763636693664,3.815848081822159,-12.325068936108499,-12.36155738012578,-0.11558099438755798,-1.2420097195643032
16.586286544799805,-0.4117989242076874,3.5172970294952393,-11.62220573425293,0.21802044196033288,0.00403904914855957,0.09083938598632812,3.8330297427317497,-12.32802551064317,-0.15394020199203914,0.6958658227438768,0.5103667977647399,-0.7986857854280921,-0.7999885532935777,3.8609667471457465,3.806278357279946,-12.310603689714354,-12.365913127701894,-0.11558099438755798,-1.2420097195643032
16.601741313934326,-0.4117989242076874,3.5172970294952393,-11.62220573425293,0.21802044196033288,0.004623889923095703,0.09083938598632812,3.832385352994485,-12.319455665306332,-0.17394020199203916,0.6949733937002919,0.3121312735519175,-0.7990800497996645,-0.7999942766467889,3.872924426844204,3.793623419311638,-12.292001650219099,-12.371573516548471,0.04500555134861359,-0.9088621345216512
16.616664171218872,-0.43741363286972046,3.47713303565979,-11.57948112487793,0.21976729026061959,0.004724740982055664,0.09083938598632812,3.8315105121102127,-12.309500184195139,-0.19394020199203918,0.6987344920923763,0.41607996181129714,-0.7993560348597651,-0.7999971383233945,3.88838745599112,3.7770818625925076,-12.268665880597153,-12.379162932586844,0.04500555134861359,-0.9088621345216512
16.626967430114746,-0.43741363286972046,3.47713303565979,-11.57948112487793,0.21976729026061959,0.0035293102264404297,0.09083938598632812,3.8303775817085253,-12.298167542362604,-0.2139402019920392,0.6978976170358705,0.20948828818338816,-0.7995492244018356,-0.7999985691616973,3.9084412139081315,3.755515680777578,-12.239708076147908,-12.38959302104836,0.04500555134861359,-0.9088621345216512
16.63512873649597,-0.46293550729751587,3.4353528022766113,-11.53641128540039,0.22046169878067756,0.002385377883911133,0.09083938598632812,3.82895816254434,-12.285464015208891,-0.23394020199203922,0.7011468439765154,0.3013086886709071,-0.799684457081285,-0.7999992845808487,3.9346695839482466,3.727286548836912,-12.20378553650495,-12.404225591475797,0.04500555134861359,-0.9088621345216512
16.75094246864319,-0.46293550729751587,3.4353528022766113,-11.53641128540039,0.22046169878067756,0.0024635791778564453,0.10726046562194824,3.827223195822535,-12.271393628221917,-0.2539402019920392,0.686787216727286,-1.0,-0.7997791199568994,-0.7999996422904243,3.969417131925579,3.689993838363554,-12.158843630808873,-12.425130038328454,0.04500555134861359,-0.9088621345216512
16.759943962097168,-0.5895693898200989,3.192232370376587,-11.316427230834961,0.20979724422833845,0.004384040832519531,0.10726046562194824,3.8251430672097295,-12.25595811145333,-0.2739402019920392,0.7035402075542647,0.3199624690517351,-0.7998453839698296,-0.7999998211452122,4.0161917582357365,3.640072165243841,-12.10172226531146,-12.455476768221487,-0.1881812738561409,-1.646356430814598
16.76854157447815,-0.5895693898200989,3.192232370376587,-11.316427230834961,0.20979724422833845,0.002660036087036133,0.10726046562194824,3.822687713300339,-12.239156858850421,-0.29394020199203924,0.7028122651919885,0.1511081786786821,-0.7998917687788808,-0.7962079624275229,4.080266590913775,3.5721897019934565,-12.027575963712318,-12.500117023774239,-0.1881812738561409,-1.646356430814598
16.77916646003723,-0.6056245565414429,3.156832695007324,-11.286688804626465,0.20672253780329664,0.003692626953125,0.10726046562194824,3.819826730299475,-12.220986892552753,-0.31394020199203926,0.7040816645642674,0.30363778973151545,-0.7999242381452166,-0.7978873446012886,4.169509730977266,3.4784186429510138,-11.92909298063899,-12.566363683909362,-0.1881812738561409,-1.646356430814598
16.788949251174927,-0.6213592886924744,3.1209287643432617,-11.25687026977539,0.20327735512234035,0.0031006336212158203,0.10726046562194824,3.816529484681251,-12.201442832250304,-0.3339402019920393,0.7053363973056461,0.4530228860298511,-0.7999469667016517,-0.7512437319785281,4.295319487570306,3.3473001843428905,-11.795677897527934,-12.664808591574662,0.06765379308182731,-1.4071160436215906
16.79891014099121,-0.6290987730026245,3.102792501449585,-11.241926193237305,0.20142100064024637,0.002944469451904297,0.10726046562194824,3.8336225522128458,-12.338258408708125,-0.12394020199203912,0.7056245931624157,0.501363148771756,-0.7999628766911562,-0.7047596211193518,3.844793713684279,3.8229024176316475,-12.335806866954979,-12.358065370442016,0.06765379308182731,-1.4071160436215906
16.809001445770264,-0.6366872787475586,3.083683490753174,-11.225936889648438,0.19948606689739323,0.0037605762481689453,0.10726046562194824,3.8332739230779205,-12.331787583383786,-0.14394020199203914,0.705952407375099,0.5570820871988578,-0.7999740136838094,-0.6762010377683073,3.851763636693664,3.815848081822159,-12.325068936108499,-12.36155738012578,0.06765379308182731,-1.4071160436215906
16.910861492156982,-0.6366872787475586,3.083683490753174,-11.225936889648438,0.19948606689739323,0.0035409927368164062,0.09189295768737793,3.832734659291813,-12.323914406592001,-0.16394020199203915,0.693295116448695,0.3199351890919351,-0.7999818095786666,-0.6603824734222222,3.8609667471457465,3.806278357279946,-12.310603689714354,-12.365913127701894,0.06765379308182731,-1.4071160436215906
16.921417713165283,-0.7314758896827698,2.8053383827209473,-11.002518653869629,0.16617650568294762,0.005610227584838867,0.09189295768737793,3.831978447342854,-12.314650548598136,-0.18394020199203917,0.7057943511329539,1.0,-0.613215829310855,-0.5937262242815851,3.872924426844204,3.793623419311638,-12.292001650219099,-12.371573516548471,0.05930355380390609,-1.8338183084770299
16.937394857406616,-0.7487650513648987,2.7410104274749756,-10.951635360717773,0.1573661126145005,0.0043256282806396484,0.09189295768737793,3.830978066392579,-12.304005563990376,-0.2039402019920392,0.7079374401022707,1.0,-0.4669864913696426,-0.5154451244640192,3.88838745599112,3.7770818625925076,-12.268665880597153,-12.379162932586844,0.05930355380390609,-1.8338183084770299
16.946385383605957,-0.7487650513648987,2.7410104274749756,-10.951635360717773,0.1573661126145005,0.0033905506134033203,0.09189295768737793,3.8297054851445664,-12.291986834568668,-0.2239402019920392,0.7071938681310347,1.0,-0.40666104557569294,-0.4157937965626907,3.9084412139081315,3.755515680777578,-12.239708076147908,-12.38959302104836,0.05930355380390609,-1.8338183084770299
16.953902006149292,-0.7595517039299011,2.6978139877319336,-10.91773509979248,0.15115652975794047,0.00365447998046875,0.09189295768737793,3.8281319617397886,-12.278599516766478,-0.24394020199203922,0.7084000147769567,1.0,-0.32291501729747124,-0.37127436529898367,3.9346695839482466,3.727286548836912,-12.20378553650495,-12.404225591475797,0.05930355380390609,-1.8338183084770299
16.963156938552856,-0.7595517039299011,2.6978139877319336,-10.91773509979248,0.15115652975794047,0.0034394264221191406,0.09189295768737793,3.8262281464536154,-12.263846493743284,-0.2639402019920392,0.7076684259339525,1.0,-0.2875036679541289,-0.31893320067865966,3.969417131925579,3.689993838363554,-12.158843630808873,-12.425130038328454,0.05930355380390609,-1.8338183084770299
16.971279621124268,-0.7697023749351501,2.6543877124786377,-10.883827209472656,0.14467116124700885,0.00333404541015625,0.09189295768737793,3.8239641869641394,-12.24772833227418,-0.28394020199203923,0.7089519854150533,1.0,-0.21688976004363678,-0.29841359425323977,4.0161917582357365,3.640072165243841,-12.10172226531146,-12.455476768221487,0.05930355380390609,-1.8338183084770299
16.97931933403015,-0.7697023749351501,2.6543877124786377,-10.883827209472656,0.14467116124700885,0.0034368038177490234,0.09189295768737793,3.821309835956598,-12.230243244551302,-0.30394020199203925,0.7082303470205599,1.0,-0.18835478352161636,-0.2616014384985942,4.080266590913775,3.5721897019934565,-12.027575963712318,-12.500117023774239,0.05930355380390609,-1.8338183084770299
16.98872423171997,-0.7792080640792847,2.6107571125030518,-10.849932670593262,0.13781308956406058,0.004024028778076172,0.09189295768737793,3.8182345608243793,-12.21138705499985,-0.32394020199203927,0.7094145379441048,1.0,-0.12277037236162594,-0.24883158030600497,4.169509730977266,3.4784186429510138,-11.92909298063899,-12.566363683909362,0.28593933480374845,-1.2959837391157856
16.999215602874756,-0.7837085723876953,2.5888702869415283,-10.832986831665039,0.13420740100902062,0.002979755401611328,0.09189295768737793,3.81470765522342,-12.19115317219955,-0.3439402019920393,0.7096325867270525,1.0,-0.0722699884386111,-0.2235373843222608,4.295319487570306,3.3473001843428905,-11.795677897527934,-12.664808591574662,0.28593933480374845,-1.2959837391157856
17.008747100830078,-0.788036584854126,2.566939353942871,-10.816041946411133,0.1304801722855351,0.0032062530517578125,0.09189295768737793,3.8334704604079,-12.335199100362393,-0.13394020199203913,0.7098524840441499,1.0,-0.02771499024177789,-0.19981033348846325,3.844793713684279,3.8229024176316475,-12.335806866954979,-12.358065370442016,0.28593933480374845,-1.2959837391157856
17.11673903465271,-0.8295935988426208,2.2504043579101562,-10.57271671295166,0.07385108373666505,0.0020477771759033203,0.09756851196289062,3.8330297427317497,-12.32802551064317,-0.15394020199203914,0.7083246356671553,1.0,0.21846672297379027,-0.26015456838128803,3.851763636693664,3.815848081822159,-12.325068936108499,-12.36155738012578,0.28593933480374845,-1.2959837391157856
17.123926877975464,-0.8295935988426208,2.2504043579101562,-10.57271671295166,0.07385108373666505,0.0022041797637939453,0.09756851196289062,3.832385352994485,-12.319455665306332,-0.17394020199203916,0.7074552430276239,1.0,0.29609296359053744,-0.14125683491209964,3.8609667471457465,3.806278357279946,-12.310603689714354,-12.365913127701894,0.39935013462337765,-1.2993511101387167
17.131420850753784,-0.8326458930969238,2.2047932147979736,-10.537528991699219,0.06610344749854491,0.0019919872283935547,0.09756851196289062,3.8315105121102127,-12.309500184195139,-0.19394020199203918,0.708597049177338,1.0,0.35942583746181855,-0.07474703728568274,3.872924426844204,3.793623419311638,-12.292001650219099,-12.371573516548471,0.39935013462337765,-1.2993511101387167
17.13898777961731,-0.8326458930969238,2.2047932147979736,-10.537528991699219,0.06610344749854491,0.0028371810913085938,0.09756851196289062,3.8303775817085253,-12.298167542362604,-0.2139402019920392,0.707728015921888,1.0,0.38766148486071106,-0.023130483151720536,3.88838745599112,3.7770818625925076,-12.268665880597153,-12.379162932586844,0.39935013462337765,-1.2993511101387167
17.148775339126587,-0.8349884748458862,2.159358501434326,-10.502330780029297,0.05853667451893685,0.002045154571533203,0.09756851196289062,3.82895816254434,-12.285464015208891,-0.23394020199203922,0.7088827913209814,1.0,0.42755034785021456,-0.0016595959871743599,3.9084412139081315,3.755515680777578,-12.239708076147908,-12.38959302104836,0.39935013462337765,-1.2993511101387167
17.15885615348816,-0.8358951807022095,2.136719226837158,-10.484722137451172,0.054818108483107864,0.0025255680084228516,0.09756851196289062,3.827223195822535,-12.271393628221917,-0.2539402019920392,0.7090290591297101,1.0,0.45538831804281704,0.02155771910436188,3.9346695839482466,3.727286548836912,-12.20378553650495,-12.404225591475797,0.39935013462337765,-1.2993511101387167
17.169026613235474,-0.8358951807022095,2.136719226837158,-10.484722137451172,0.054818108483107864,0.00363922119140625,0.09756851196289062,3.8251430672097295,-12.25595811145333,-0.2739402019920392,0.7081635955942132,1.0,0.46711788056154097,0.043130598673490915,3.969417131925579,3.689993838363554,-12.158843630808873,-12.425130038328454,0.39935013462337765,-1.2993511101387167
17.179292917251587,-0.8371803760528564,2.091620445251465,-10.44948959350586,0.04753588613711557,0.003119945526123047,0.09756851196289062,3.822687713300339,-12.239156858850421,-0.29394020199203924,0.7092989738661061,1.0,0.4965701289254495,0.04746880060603833,4.0161917582357365,3.640072165243841,-12.10172226531146,-12.455476768221487,0.39935013462337765,-1.2993511101387167
17.188652515411377,-0.8362842202186584,2.045813798904419,-10.414135932922363,0.04072274186318481,0.003590106964111328,0.09756851196289062,3.819826730299475,-12.220986892552753,-0.31394020199203926,0.7104075864623612,0.9766783988301445,0.525527663398578,0.05920873639310228,4.080266590913775,3.5721897019934565,-12.027575963712318,-12.500117023774239,0.473540315322051,-1.3210472835490477
17.198886394500732,-0.8355894684791565,2.0230371952056885,-10.396450996398926,0.037547923860297594,0.002086639404296875,0.09756851196289062,3.816529484681251,-12.201442832250304,-0.3339402019920393,0.7105360098771124,0.9253558243762545,0.5430547838167032,0.07766863495923645,4.169509730977266,3.4784186429510138,-11.92909298063899,-12.566363683909362,0.473540315322051,-1.3210472835490477
17.208868980407715,-0.8347319960594177,2.0003511905670166,-10.378759384155273,0.03450831651544739,0.0031859874725341797,0.09756851196289062,3.8127652255776927,-12.1805168696879,-0.3539402019920393,0.7106691533332891,0.8738660481296581,0.5564423061432853,0.09166096079113198,4.295319487570306,3.3473001843428905,-11.795677897527934,-12.664808591574662,0.473540315322051,-1.3210472835490477
17.218673706054688,-0.8337137699127197,1.9777604341506958,-10.36106014251709,0.031609413292873256,0.0019373893737792969,0.09756851196289062,3.8332739230779205,-12.331787583383786,-0.14394020199203914,0.7108101769831051,0.8220030901194757,0.5665351097626152,0.10319750646573148,3.844793713684279,3.8229024176316475,-12.335806866954979,-12.358065370442016,0.473540315322051,-1.3210472835490477
17.300862073898315,-0.8337137699127197,1.9777604341506958,-10.36106014251709,0.031609413292873256,0.0019512176513671875,0.07357120513916016,3.832734659291813,-12.323914406592001,-0.16394020199203915,0.7051771555615779,1.0,0.5705533897955288,0.1115248761529346,3.851763636693664,3.815848081822159,-12.325068936108499,-12.36155738012578,0.473540315322051,-1.3210472835490477
17.30909514427185,-0.8065118789672852,1.7155554294586182,-10.14748764038086,0.008495489870640416,0.0023298263549804688,0.07357120513916016,3.831978447342854,-12.314650548598136,-0.18394020199203917,0.7165849057574798,0.6651677469519263,0.5557672165118382,0.1670421843324773,3.8609667471457465,3.806278357279946,-12.310603689714354,-12.365913127701894,0.5231849284235113,-1.4832422486611891
17.318778038024902,-0.8020235896110535,1.694485068321228,-10.129411697387695,0.007623876890041625,0.0020444393157958984,0.07357120513916016,3.830978066392579,-12.304005563990376,-0.2039402019920392,0.716867460576757,0.6368283747508856,0.5601149399085364,0.16538901802472541,3.872924426844204,3.793623419311638,-12.292001650219099,-12.371573516548471,0.5231849284235113,-1.4832422486611891
17.329184770584106,-0.7974405288696289,1.673575520515442,-10.11133098602295,0.006873688917361509,0.0026721954345703125,0.07357120513916016,3.8297054851445664,-12.291986834568668,-0.2239402019920392,0.7171644604669039,0.6096174366439006,0.5576148247204294,0.1742899065271185,3.88838745599112,3.7770818625925076,-12.268665880597153,-12.379162932586844,0.5231849284235113,-1.4832422486611891
17.338684797286987,-0.7927652597427368,1.6528304815292358,-10.093234062194824,0.006240021324561251,0.0031261444091796875,0.07357120513916016,3.8281319617397886,-12.278599516766478,-0.24394020199203922,0.7174751025474367,0.5834614731695649,0.554568768799372,0.17945646668536572,3.9084412139081315,3.755515680777578,-12.239708076147908,-12.38959302104836,0.5231849284235113,-1.4832422486611891
17.348729610443115,-0.7831494212150574,1.6118489503860474,-10.056983947753906,0.005320058582389375,0.0020542144775390625,0.07357120513916016,3.8262281464536154,-12.263846493743284,-0.2639402019920392,0.718892618929077,0.514353238501311,0.5461706041625052,0.18976267104855407,3.9346695839482466,3.727286548836912,-12.20378553650495,-12.404225591475797,0.5231849284235113,-1.4832422486611891
17.358792304992676,-0.7782140374183655,1.5916204452514648,-10.03882884979248,0.00503945063981126,0.002716541290283203,0.07357120513916016,3.8239641869641394,-12.24772833227418,-0.28394020199203923,0.7192162870165175,0.4876775050056589,0.5406362930155544,0.19202182587161118,3.969417131925579,3.689993838363554,-12.158843630808873,-12.425130038328454,0.5231849284235113,-1.4832422486611891
17.368680953979492,-0.7731966376304626,1.5715733766555786,-10.020657539367676,0.0048755542234530935,0.001985311508178711,0.07357120513916016,3.821309835956598,-12.230243244551302,-0.30394020199203925,0.7195328753383547,0.4625034185377028,0.5343731346477685,0.1949034348962012,4.0161917582357365,3.640072165243841,-12.10172226531146,-12.455476768221487,0.5231849284235113,-1.4832422486611891
17.37911295890808,-0.768099844455719,1.5517122745513916,-10.002470970153809,0.004819755957588878,0.0025963783264160156,0.07357120513916016,3.8182345608243793,-12.21138705499985,-0.32394020199203927,0.7198541914945221,0.43934089098212903,0.5277891478946999,0.19733125172107285,4.080266590913775,3.5721897019934565,-12.027575963712318,-12.500117023774239,0.5231849284235113,-1.4832422486611891
17.388733863830566,-0.75766521692276,1.5125758647918701,-9.966072082519531,0.005026635462795692,0.0043201446533203125,0.07357120513916016,3.81470765522342,-12.19115317219955,-0.3439402019920393,0.7212268130669133,0.353445630871969,0.5155598829290012,0.20560411401915973,4.169509730977266,3.4784186429510138,-11.92909298063899,-12.566363683909362,0.538598661017762,-1.0910901985058818
17.399266958236694,-0.752332866191864,1.4933077096939087,-9.947847366333008,0.005280820235658457,0.0020415782928466797,0.07357120513916016,3.8106983522337186,-12.169532565990217,-0.3639402019920393,0.721569553215091,0.2733255296418282,0.5072681571305395,0.2058517519380704,4.295319487570306,3.3473001843428905,-11.795677897527934,-12.664808591574662,0.538598661017762,-1.0910901985058818
17.408849239349365,-0.7469320893287659,1.4742398262023926,-9.929604530334473,0.005629514110885747,0.0032927989959716797,0.07357120513916016,3.8330297427317497,-12.32802551064317,-0.15394020199203914,0.7219240965103751,0.19345372231102653,0.49863679216742063,0.20809953638313386,3.844793713684279,3.8229024176316475,-12.335806866954979,-12.358065370442016,0.538598661017762,-1.0910901985058818
17.49078106880188,-0.6853511929512024,1.3171128034591675,-9.759092330932617,0.012854013980222678,0.0023131370544433594,0.07135772705078125,3.832385352994485,-12.319455665306332,-0.17394020199203916,0.7236113915501733,-0.4381025913758011,0.4520721072378492,0.2531359067787898,3.851763636693664,3.815848081822159,-12.325068936108499,-12.36155738012578,0.538598661017762,-1.0910901985058818
17.49987244606018,-0.6707233786582947,1.2848232984542847,-9.72081184387207,0.015227040748624354,0.0018978118896484375,0.07135772705078125,3.8315105121102127,-12.309500184195139,-0.19394020199203918,0.7252685097968784,-0.5630655786822594,0.4328333842816215,0.2342757649975341,3.8609667471457465,3.806278357279946,-12.310603689714354,-12.365913127701894,0.5437452454232108,-1.0113975896438352
17.509029865264893,-0.6707233786582947,1.2848232984542847,-9.72081184387207,0.015227040748624354,0.004342555999755859,0.07135772705078125,3.8303775817085253,-12.298167542362604,-0.2139402019920392,0.7246992774795114,-0.5907228922813259,0.421412276837697,0.21201897303486983,3.872924426844204,3.793623419311638,-12.292001650219099,-12.371573516548471,0.5437452454232108,-1.0113975896438352
17.51860475540161,-0.6486973762512207,1.2380123138427734,-9.66333293914795,0.01919208566116648,0.002022981643676758,0.07135772705078125,3.82895816254434,-12.285464015208891,-0.23394020199203922,0.727483273864712,-0.7614341059566425,0.3969403391788791,0.20621611923793415,3.88838745599112,3.7770818625925076,-12.268665880597153,-12.379162932586844,0.5437452454232108,-1.0113975896438352
17.529095888137817,-0.6486973762512207,1.2380123138427734,-9.66333293914795,0.01919208566116648,0.0025441646575927734,0.07135772705078125,3.827223195822535,-12.271393628221917,-0.2539402019920392,0.7269092342018265,-0.7886697731223764,0.3849988178239188,0.1833449512704002,3.9084412139081315,3.755515680777578,-12.239708076147908,-12.38959302104836,0.5437452454232108,-1.0113975896438352
17.538617610931396,-0.6339934468269348,1.2079052925109863,-9.62498664855957,0.022086455666959104,0.0026640892028808594,0.07135772705078125,3.8251430672097295,-12.25595811145333,-0.2739402019920392,0.7285632133289595,-0.9113592914634525,0.36448050315900604,0.17173400116117665,3.9346695839482466,3.727286548836912,-12.20378553650495,-12.404225591475797,0.5437452454232108,-1.0113975896438352
17.54898953437805,-0.6339934468269348,1.2079052925109863,-9.62498664855957,0.022086455666959104,0.002123594284057617,0.07135772705078125,3.822687713300339,-12.239156858850421,-0.29394020199203924,0.7279823906250957,-0.9381852325819668,0.3533399617422676,0.1510817466694916,3.969417131925579,3.689993838363554,-12.158843630808873,-12.425130038328454,0.5437452454232108,-1.0113975896438352
17.5587375164032,-0.6086477637290955,1.1596444845199585,-9.558792114257812,0.027236867220628902,0.002572774887084961,0.07135772705078125,3.819826730299475,-12.220986892552753,-0.31394020199203926,0.7310835878878175,-1.0,0.322377362731644,0.1397608678871212,4.0161917582357365,3.640072165243841,-12.10172226531146,-12.455476768221487,0.5437452454232108,-1.0113975896438352
17.568670511245728,-0.6086477637290955,1.1596444845199585,-9.558792114257812,0.027236867220628902,0.0019989013671875,0.07135772705078125,3.816529484681251,-12.201442832250304,-0.3339402019920393,0.7304962281467958,-1.0,0.3081822642334146,0.12157999279533731,4.080266590913775,3.5721897019934565,-12.027575963712318,-12.500117023774239,0.5437452454232108,-1.0113975896438352
17.57939577102661,-0.5855503678321838,1.1215627193450928,-9.501928329467773,0.032174685204700015,0.003116607666015625,0.07135772705078125,3.8127652255776927,-12.1805168696879,-0.3539402019920393,0.7330376822584987,-1.0,0.28133665067015584,0.10682706977257313,4.169509730977266,3.4784186429510138,-11.92909298063899,-12.566363683909362,0.5437452454232108,-1.0113975896438352
17.588629484176636,-0.5855503678321838,1.1215627193450928,-9.501928329467773,0.032174685204700015,0.0031604766845703125,0.07135772705078125,3.8085031986506643,-12.158198748388534,-0.3739402019920393,0.7324426458628676,-1.0,0.2691250510976464,0.093407185129258,4.295319487570306,3.3473001843428905,-11.795677897527934,-12.664808591574662,0.5150448060085498,-0.8426749345652012
17.671181440353394,-0.5855503678321838,1.1215627193450928,-9.501928329467773,0.032174685204700015,0.0024001598358154297,0.07349562644958496,3.832734659291813,-12.323914406592001,-0.16394020199203915,0.7209931249275364,-1.0,0.262350294977419,0.08391926791284614,3.844793713684279,3.8229024176316475,-12.335806866954979,-12.358065370442016,0.5150448060085498,-0.8426749345652012
17.680160760879517,-0.5024682879447937,0.9969540238380432,-9.292783737182617,0.046986203501165225,0.0024709701538085938,0.07349562644958496,3.831978447342854,-12.314650548598136,-0.18394020199203917,0.7309911952420571,-0.9887945129172291,0.19259297841572473,0.04121907379646714,3.851763636693664,3.815848081822159,-12.325068936108499,-12.36155738012578,0.5150448060085498,-0.8426749345652012
17.688604593276978,-0.49439358711242676,0.9882593154907227,-9.273175239562988,0.04809153935615296,0.002718687057495117,0.07349562644958496,3.830978066392579,-12.304005563990376,-0.2039402019920392,0.7313690471292331,-1.0,0.1628753043420805,0.011694791724205419,3.8609667471457465,3.806278357279946,-12.310603689714354,-12.365913127701894,0.518054606040925,-0.9936034292583839
17.698778867721558,-0.47838371992111206,0.9712616205215454,-9.234001159667969,0.050378990898970244,0.0021200180053710938,0.07349562644958496,3.8297054851445664,-12.291986834568668,-0.2239402019920392,0.7326251200556646,-1.0,0.14182473182715552,-0.01235599922725342,3.872924426844204,3.793623419311638,-12.292001650219099,-12.371573516548471,0.518054606040925,-0.9936034292583839
17.708739519119263,-0.47044944763183594,0.9629499316215515,-9.214435577392578,0.05148804254454342,0.0027077198028564453,0.07349562644958496,3.8281319617397886,-12.278599516766478,-0.24394020199203922,0.732935926029498,-1.0,0.1289086663165587,-0.02792369395338048,3.88838745599112,3.7770818625925076,-12.268665880597153,-12.379162932586844,0.518054606040925,-0.9936034292583839
17.718632459640503,-0.46232870221138,0.9549333453178406,-9.194683074951172,0.05257410903037174,0.0022029876708984375,0.07349562644958496,3.8262281464536154,-12.263846493743284,-0.2639402019920392,0.7332526942018932,-1.0,0.11982476326715433,-0.03852917603503951,3.9084412139081315,3.755515680777578,-12.239708076147908,-12.38959302104836,0.518054606040925,-0.9936034292583839
17.729182481765747,-0.4543120861053467,0.9469890594482422,-9.174993515014648,0.05363309093791413,0.0028498172760009766,0.07349562644958496,3.8239641869641394,-12.24772833227418,-0.28394020199203923,0.7335496711737107,-1.0,0.11259489861778786,-0.046300278655960085,3.9346695839482466,3.727286548836912,-12.20378553650495,-12.404225591475797,0.518054606040925,-0.9936034292583839
17.73863196372986,-0.43855100870132446,0.931331217288971,-9.135790824890137,0.05559495658368796,0.0027637481689453125,0.07349562644958496,3.821309835956598,-12.230243244551302,-0.30394020199203925,0.7346567727024945,-1.0,0.10330190620709916,-0.0550299095469126,3.969417131925579,3.689993838363554,-12.158843630808873,-12.425130038328454,0.518054606040925,-0.9936034292583839
17.749057292938232,-0.43079057335853577,0.9236215353012085,-9.116252899169922,0.05648018945032707,0.0022001266479492188,0.07349562644958496,3.8182345608243793,-12.21138705499985,-0.32394020199203927,0.7348489678396168,-1.0,0.09753774821222237,-0.06055133210923868,4.0161917582357365,3.640072165243841,-12.10172226531146,-12.455476768221487,0.518054606040925,-0.9936034292583839
17.758946180343628,-0.42310091853141785,0.9159923195838928,-9.09675121307373,0.05729678688042128,0.00244140625,0.07349562644958496,3.81470765522342,-12.19115317219955,-0.3439402019920393,0.7350120870470075,-1.0,0.09364270999067184,-0.06444150267242879,4.080266590913775,3.5721897019934565,-12.027575963712318,-12.500117023774239,0.518054606040925,-0.9936034292583839
17.76869297027588,-0.41547757387161255,0.9084421992301941,-9.07728385925293,0.05804780190580772,0.0020482540130615234,0.07349562644958496,3.8106983522337186,-12.169532565990217,-0.3639402019920393,0.73514865637287,-1.0,0.0909401331038354,-0.06742227012389235,4.169509730977266,3.4784186429510138,-11.92909298063899,-12.566363683909362,0.518054606040925,-0.9936034292583839
17.77936100959778,-0.40041646361351013,0.8935696482658386,-9.038451194763184,0.0593940784438467,0.0027077198028564453,0.07349562644958496,3.8061759388792367,-12.146513749827932,-0.3839402019920393,0.7360397116763908,-1.0,0.0881493512698053,-0.0713747074866373,4.295319487570306,3.3473001843428905,-11.795677897527934,-12.664808591574662,0.518054606040925,-0.9936034292583839
17.788612842559814,-0.3929734230041504,0.8862407207489014,-9.019081115722656,0.05999493362130126,0.0025634765625,0.07349562644958496,3.832385352994485,-12.319455665306332,-0.17394020199203916,0.7361184012743212,-0.9783596603645635,0.08672409467726072,-0.07377463446252139,3.844793713684279,3.8229024176316475,-12.335806866954979,-12.358065370442016,0.4083221174930981,-0.8993674152504361
17.869014501571655,-0.3929734230041504,0.8862407207489014,-9.019081115722656,0.05999493362130126,0.0019538402557373047,0.07245302200317383,3.8315105121102127,-12.309500184195139,-0.19394020199203918,0.7266010433860299,-0.9229325330255141,0.08644551238023783,-0.07423964706718743,3.851763636693664,3.815848081822159,-12.325068936108499,-12.36155738012578,0.4083221174930981,-0.8993674152504361
17.87915825843811,-0.31579089164733887,0.8276240825653076,-8.808905601501465,0.06469767979810293,0.002571582794189453,0.07245302200317383,3.8303775817085253,-12.298167542362604,-0.2139402019920392,0.7337729051929291,-0.341016284453698,0.0875727718655117,-0.08302653253808533,3.8609667471457465,3.806278357279946,-12.310603689714354,-12.365913127701894,0.4083221174930981,-0.8993674152504361
17.88860011100769,-0.3090701103210449,0.8224717378616333,-8.789963722229004,0.0649428718204792,0.002261638641357422,0.07245302200317383,3.82895816254434,-12.285464015208891,-0.23394020199203922,0.733689382857677,-0.2958756689881874,0.08887713350313989,-0.08378330920427347,3.872924426844204,3.793623419311638,-12.292001650219099,-12.371573516548471,0.3440309684652715,-1.0415831723310696
17.89888072013855,-0.2957620918750763,0.8121055960655212,-8.752145767211914,0.06534887272124301,0.002229928970336914,0.07245302200317383,3.827223195822535,-12.271393628221917,-0.2539402019920392,0.7342590171716273,-0.17595145786453836,0.08990233852127509,-0.085991152753819,3.88838745599112,3.7770818625925076,-12.268665880597153,-12.379162932586844,0.3440309684652715,-1.0415831723310696
17.90874695777893,-0.28917396068573,0.8068832159042358,-8.733271598815918,0.06551167694669946,0.002450704574584961,0.07245302200317383,3.8251430672097295,-12.25595811145333,-0.2739402019920392,0.7341540380076014,-0.12374344043927143,0.09051567680594257,-0.08643842567461839,3.9084412139081315,3.755515680777578,-12.239708076147908,-12.38959302104836,0.3440309684652715,-1.0415831723310696
17.918665409088135,-0.28262922167778015,0.8016287088394165,-8.714420318603516,0.0656474954073456,0.001992940902709961,0.07245302200317383,3.822687713300339,-12.239156858850421,-0.29394020199203924,0.7340207136950022,-0.06970618700934372,0.09097179397560222,-0.08706577474598058,3.9346695839482466,3.727286548836912,-12.20378553650495,-12.404225591475797,0.3440309684652715,-1.0415831723310696
17.929067373275757,-0.2761276066303253,0.7963372468948364,-8.695595741271973,0.06575655118673751,0.002875089645385742,0.07245302200317383,3.819826730299475,-12.220986892552753,-0.31394020199203926,0.733862131747309,-0.015628768577243712,0.09133982687429786,-0.08768050992541498,3.969417131925579,3.689993838363554,-12.158843630808873,-12.425130038328454,0.3440309684652715,-1.0415831723310696
17.938660383224487,-0.26356178522109985,0.7869195342063904,-8.656942367553711,0.06592816993711281,0.0034766197204589844,0.07245302200317383,3.816529484681251,-12.201442832250304,-0.3339402019920393,0.734380792724063,0.10262127754876482,0.09115636568836141,-0.08941075395582558,4.0161917582357365,3.640072165243841,-12.10172226531146,-12.455476768221487,0.3440309684652715,-1.0415831723310696
17.948989152908325,-0.25734278559684753,0.7821238040924072,-8.637675285339355,0.06598927333065241,0.002061128616333008,0.07245302200317383,3.8127652255776927,-12.1805168696879,-0.3539402019920393,0.7342638499299168,0.14647843552612716,0.09075350610922037,-0.08881281770157615,4.080266590913775,3.5721897019934565,-12.027575963712318,-12.500117023774239,0.3440309684652715,-1.0415831723310696
17.95870542526245,-0.2511634826660156,0.7772647142410278,-8.618446350097656,0.06602590154290233,0.002889394760131836,0.07245302200317383,3.8085031986506643,-12.158198748388534,-0.3739402019920393,0.7341557617650504,0.1871970669012033,0.09013484030266586,-0.08853385662158418,4.169509730977266,3.4784186429510138,-11.92909298063899,-12.566363683909362,0.3440309684652715,-1.0415831723310696
17.968687772750854,-0.24502365291118622,0.7723395228385925,-8.599252700805664,0.06603872955305423,0.0020182132720947266,0.07245302200317383,3.803712761197082,-12.134475748656005,-0.39394020199203933,0.7340514331026671,0.22485399828043834,0.08939413146986679,-0.08835915422345055,4.295319487570306,3.3473001843428905,-11.795677897527934,-12.664808591574662,0.3440309684652715,-1.0415831723310696
17.979302406311035,-0.23286181688308716,0.7622827887535095,-8.5609769821167,0.06598933544985197,0.0026526451110839844,0.07245302200317383,3.831978447342854,-12.314650548598136,-0.18394020199203917,0.7346270198585281,0.3129747773019534,0.08770326018774836,-0.08894923500968081,3.844793713684279,3.8229024176316475,-12.335806866954979,-12.358065370442016,0.3440309684652715,-1.0415831723310696
17.988726139068604,-0.22683946788311005,0.7571478486061096,-8.541893005371094,0.06592858902323329,0.0028307437896728516,0.07245302200317383,3.830978066392579,-12.304005563990376,-0.2039402019920392,0.7345279032498812,0.34188000674873986,0.08635126035059029,-0.08759038466071567,3.851763636693664,3.815848081822159,-12.325068936108499,-12.36155738012578,0.22247207774883493,-1.0537511896256706
18.069194555282593,-0.16931836307048798,0.7022784352302551,-8.350019454956055,0.06432072061857141,0.00171661376953125,0.07165265083312988,3.8297054851445664,-12.291986834568668,-0.2239402019920392,0.737581956389382,0.6182587080698483,0.07245963862960064,-0.08685015009594811,3.8609667471457465,3.806278357279946,-12.310603689714354,-12.365913127701894,0.22247207774883493,-1.0537511896256706
18.191517114639282,-0.16931836307048798,0.7022784352302551,-8.350019454956055,0.06432072061857141,0.0027801990509033203,0.07165265083312988,3.8281319617397886,-12.278599516766478,-0.24394020199203922,0.7368106312041287,0.5978859075007206,0.06914003500595688,-0.07902641289687731,3.872924426844204,3.793623419311638,-12.292001650219099,-12.371573516548471,0.22247207774883493,-1.0537511896256706
18.20097541809082,-0.08271292597055435,0.5950394868850708,-8.020055770874023,0.058751102302303515,0.0020706653594970703,0.07165265083312988,3.8262281464536154,-12.263846493743284,-0.2639402019920392,0.7477715657608787,0.6584873982039924,0.0328491967359133,-0.05273984157871995,3.88838745599112,3.7770818625925076,-12.268665880597153,-12.379162932586844,0.17829479092818787,-0.9691958458305491
18.278257369995117,-0.08271292597055435,0.5950394868850708,-8.020055770874023,0.058751102302303515,0.0027441978454589844,0.07021260261535645,3.8239641869641394,-12.24772833227418,-0.28394020199203923,0.7355727561047847,0.32983190084543135,0.0283478112755218,-0.05506729051651114,3.9084412139081315,3.755515680777578,-12.239708076147908,-12.38959302104836,0.17829479092818787,-0.9691958458305491
18.28594160079956,-0.037829913198947906,0.5252553820610046,-7.827172756195068,0.05449940052011115,0.002143383026123047,0.07021260261535645,3.821309835956598,-12.230243244551302,-0.30394020199203925,0.7412854689738173,0.12414524653982034,0.00760627431072467,-0.05074442170383273,3.9346695839482466,3.727286548836912,-12.20378553650495,-12.404225591475797,0.17829479092818787,-0.9691958458305491
18.295260906219482,-0.037829913198947906,0.5252553820610046,-7.827172756195068,0.05449940052011115,0.002732992172241211,0.07021260261535645,3.8182345608243793,-12.21138705499985,-0.32394020199203927,0.7405625588168979,0.10520652427717073,0.004711270077350754,-0.05817711912660614,3.969417131925579,3.689993838363554,-12.158843630808873,-12.425130038328454,0.18740129910021938,-1.1644847552919748
18.30256152153015,-0.025415455922484398,0.5046067833900452,-7.770636081695557,0.05320731488549191,0.0020685195922851562,0.07021260261535645,3.81470765522342,-12.19115317219955,-0.3439402019920393,0.7415998328375836,-0.0014291894576512476,-0.0005295367893250243,-0.060339440098064245,4.0161917582357365,3.640072165243841,-12.10172226531146,-12.455476768221487,0.18740129910021938,-1.1644847552919748
18.30973172187805,-0.025415455922484398,0.5046067833900452,-7.770636081695557,0.05320731488549191,0.0027170181274414062,0.07021260261535645,3.8106983522337186,-12.169532565990217,-0.3639402019920393,0.7408807872624712,-0.020225168900326662,-0.0014957004750652198,-0.06306838781967432,4.080266590913775,3.5721897019934565,-12.027575963712318,-12.500117023774239,0.18740129910021938,-1.1644847552919748
18.318655490875244,-0.021555237472057343,0.497822642326355,-7.752001762390137,0.052771802185234584,0.0020914077758789062,0.07021260261535645,3.8061759388792367,-12.146513749827932,-0.3839402019920393,0.7407557477960881,-0.07113492982116065,-0.0033677449819643763,-0.06409323547319073,4.169509730977266,3.4784186429510138,-11.92909298063899,-12.566363683909362,0.18740129910021938,-1.1644847552919748
18.329039573669434,-0.017727842554450035,0.491070032119751,-7.733415603637695,0.05233562171217532,0.0029952526092529297,0.07021260261535645,3.801109871755587,-12.12208276844617,-0.40394020199203934,0.7406392521744769,-0.12216302809554519,-0.005308246912561415,-0.06454042874696789,4.295319487570306,3.3473001843428905,-11.795677897527934,-12.664808591574662,0.18740129910021938,-1.1644847552919748
18.338632106781006,-0.010173110291361809,0.47767549753189087,-7.696408271789551,0.05145636573375434,0.003129243850708008,0.07021260261535645,3.8315105121102127,-12.309500184195139,-0.19394020199203918,0.7411101949515672,-0.20088002872506266,-0.00849246164874128,-0.06430411251366497,3.844793713684279,3.8229024176316475,-12.335806866954979,-12.358065370442016,0.18740129910021938,-1.1644847552919748
18.348819971084595,-0.006446536630392075,0.4710407555103302,-7.677972316741943,0.05100837493500654,0.0020852088928222656,0.07021260261535645,3.8303775817085253,-12.298167542362604,-0.2139402019920392,0.7410031904235954,-0.2453393827658007,-0.010088457300841703,-0.06420926749362325,3.851763636693664,3.815848081822159,-12.325068936108499,-12.36155738012578,0.18740129910021938,-1.1644847552919748
18.358783721923828,-0.002753971144556999,0.46445131301879883,-7.659578323364258,0.05055394202692032,0.0021486282348632812,0.07021260261535645,3.82895816254434,-12.285464015208891,-0.23394020199203922,0.7409104484894639,-0.28648643304966415,-0.011204582109598266,-0.06391525279780898,3.8609667471457465,3.806278357279946,-12.310603689714354,-12.365913127701894,0.18740129910021938,-1.1644847552919748
18.368722200393677,0.0009045791230164468,0.4579094648361206,-7.641224384307861,0.050096227411090766,0.002019166946411133,0.07021260261535645,3.827223195822535,-12.271393628221917,-0.2539402019920392,0.7408268169743111,-0.324328548586384,-0.01204398057349999,-0.06344363090177535,3.872924426844204,3.793623419311638,-12.292001650219099,-12.371573516548471,0.18740129910021938,-1.1644847552919748
18.379252672195435,0.008078806102275848,0.44497203826904297,-7.604641437530518,0.049170172604879436,0.002992391586303711,0.07021260261535645,3.8251430672097295,-12.25595811145333,-0.2739402019920392,0.7413774050914989,-0.3720701430884855,-0.013215208421783907,-0.0626061024259578,3.88838745599112,3.7770818625925076,-12.268665880597153,-12.379162932586844,0.18740129910021938,-1.1644847552919748
18.388592004776,0.011615087278187275,0.43858128786087036,-7.586408615112305,0.04870453681654796,0.002003192901611328,0.07021260261535645,3.822687713300339,-12.239156858850421,-0.29394020199203924,0.7413027353983367,-0.40026082339285884,-0.013715773678361963,-0.06166699960975307,3.9084412139081315,3.755515680777578,-12.239708076147908,-12.38959302104836,0.24319624961918837,-1.0245497373259194
18.398994207382202,0.015117349103093147,0.4322437644004822,-7.568211555480957,0.048235116810681156,0.0024657249450683594,0.07021260261535645,3.819826730299475,-12.220986892552753,-0.31394020199203926,0.7412286616326308,-0.4252777172372008,-0.014054633856893298,-0.06073648172726297,3.9346695839482466,3.727286548836912,-12.20378553650495,-12.404225591475797,0.24319624961918837,-1.0245497373259194
18.408961296081543,0.018585527315735817,0.42596009373664856,-7.550048351287842,0.04776139344652153,0.002748250961303711,0.07021260261535645,3.816529484681251,-12.201442832250304,-0.3339402019920393,0.7411568456674081,-0.44722718130997313,-0.014288070611809858,-0.05979280151768406,3.969417131925579,3.689993838363554,-12.158843630808873,-12.425130038328454,0.24319624961918837,-1.0245497373259194
18.41866683959961,0.02542025037109852,0.41355520486831665,-7.513821601867676,0.04680506940808549,0.0019953250885009766,0.07021260261535645,3.8127652255776927,-12.1805168696879,-0.3539402019920393,0.7417089380731272,-0.46418767283796003,-0.014523839398128471,-0.05851261186249365,4.0161917582357365,3.640072165243841,-12.10172226531146,-12.455476768221487,0.24319624961918837,-1.0245497373259194
18.49832773208618,0.02542025037109852,0.41355520486831665,-7.513821601867676,0.04680506940808549,0.002230405807495117,0.07209658622741699,3.8085031986506643,-12.158198748388534,-0.3739402019920393,0.738880344849264,-0.41955841680577877,-0.014284270891456983,-0.05768167153289824,4.080266590913775,3.5721897019934565,-12.027575963712318,-12.500117023774239,0.24319624961918837,-1.0245497373259194
