time,x,y,z,yaw,ctrl_comp_time,rollout_comptime,y_ref,z_ref,yaw_ref,throttle,roll_rate,pitch_rate,yaw_rate,save_tube_pyH,save_tube_pyL,save_tube_pzH,save_tube_pzL,wy,wz
15.032693862915039,-0.03895451873540878,3.850346565246582,-12.13656234741211,0.0007569890422093762,0.17478013038635254,0.14325618743896484,3.8442792632222025,-12.145387501618709,-0.18125661163067014,0.5774099326968576,-1.0,-0.01959589510736192,0.016151815398740485,3.883410164365959,3.8068877773771814,-12.137650951639465,-12.157656863654726,0.4443831268808277,-0.14420034460211031
15.710797786712646,-0.06029665842652321,3.9032039642333984,-12.09415340423584,0.0003734379672339222,0.19982552528381348,0.11678862571716309,3.8422953434193055,-12.139738279191887,-0.20125661163067016,0.6223196427722975,-0.04562293624446834,-0.030434544266674954,-0.01804273436703522,3.8944410629051176,3.7922169007361863,-12.127361855705038,-12.158136179483682,0.31651158804632107,-6.116332119539351
15.85078740119934,-0.06029665842652321,3.9032039642333984,-12.09415340423584,0.0003734379672339222,0.0025548934936523438,0.11477422714233398,3.8399668518714862,-12.13259840122061,-0.22125661163067017,0.6150893619756092,-1.0,-0.05332573455489698,-0.07398684216998348,3.9082947429196295,3.774056380148723,-12.1132130927244,-12.159496754547273,0.4771013807246196,-1.579007555870831
15.8595552444458,-0.04068978503346443,3.8260443210601807,-11.716174125671387,0.0038930262344416267,0.002468109130859375,0.11477422714233398,3.837271555677052,-12.123962720194225,-0.2412566116306702,0.7019646196328739,1.0,0.023534089322293884,0.03204565909312983,3.9259987290708027,3.7513341464755268,-12.09424195827841,-12.162693991576186,0.4771013807246196,-1.579007555870831
15.867547035217285,-0.04068978503346443,3.8260443210601807,-11.716174125671387,0.0038930262344416267,0.002446413040161133,0.11477422714233398,3.8341874315528566,-12.11382308914875,-0.2612566116306702,0.7009753054253527,1.0,0.052168851977572206,0.04151698467103212,3.949134219898008,3.7224247012771783,-12.06901069198623,-12.169152357696602,1.27902507303326,0.5904905770373658
15.876489162445068,-0.039651110768318176,3.808199644088745,-11.671088218688965,0.004079033971445878,0.002630949020385742,0.11477422714233398,3.8306928409309124,-12.102168361706585,-0.28125661163067023,0.7052183510307793,1.0,0.06844541309732076,0.0675256552498096,3.9801366649387724,3.68484888934861,-12.035392496166239,-12.180979356009274,1.27902507303326,0.5904905770373658
15.887660264968872,-0.03926154226064682,3.801820755004883,-11.655946731567383,0.004134850585622046,0.0028259754180908203,0.11477422714233398,3.8267667051940015,-12.08898440193869,-0.30125661163067025,0.7059677974321726,1.0,0.08185646368725996,0.09232685531158452,4.022742782650369,3.634827231262416,-11.99014062571768,-12.201396445618034,1.27902507303326,0.5904905770373658
15.895516157150269,-0.03926154226064682,3.801820755004883,-11.655946731567383,0.004134850585622046,0.0027205944061279297,0.11477422714233398,3.8223886805233525,-12.074254104000596,-0.32125661163067026,0.7050337423068218,1.0,0.09300361290253203,0.11527607750234253,4.082618142675995,3.5666526913167003,-11.928183529793111,-12.235443929471572,1.27902507303326,0.5904905770373658
15.905840158462524,-0.03841857984662056,3.7884089946746826,-11.625496864318848,0.004196223618274403,0.0028319358825683594,0.11477422714233398,3.8175393318401403,-12.057957421463135,-0.3412566116306703,0.7074238530117521,1.0,0.10407250386265865,0.13366977698013985,4.1681297837760445,3.471918408521309,-11.841443376255642,-12.291162478896416,1.27902507303326,0.5904905770373658
15.915228605270386,-0.03749188780784607,3.7740890979766846,-11.594844818115234,0.004300763544219682,0.002772808074951172,0.11477422714233398,3.812200305333008,-12.040071406229597,-0.3612566116306703,0.7089709420342275,1.0,0.11399256658371208,0.14806639617460138,4.290997589078564,3.338866667941913,-11.71697252562184,-12.381456727932527,1.27902507303326,0.5904905770373658
15.925019025802612,-0.03699684515595436,3.766552686691284,-11.579497337341309,0.004333749979654661,0.0028696060180664062,0.11477422714233398,3.806354499075903,-12.020570256903094,-0.3812566116306703,0.7089644362789664,1.0,0.12168005866226035,0.16038052419797177,4.466465223318195,3.1522183067287135,-11.534535167817818,-12.526513723899198,1.27902507303326,0.5904905770373658
15.936788558959961,-0.036480702459812164,3.7587530612945557,-11.564153671264648,0.0043254626586123335,0.003256559371948242,0.11477422714233398,3.7999862312541177,-11.999425376441277,-0.40125661163067033,0.708867017031425,1.0,0.1278446290900371,0.170174529942096,4.717724419104196,2.888748766811023,-11.264989647348333,-12.755420708291952,1.27902507303326,0.5904905770373658
15.94503903388977,-0.036480702459812164,3.7587530612945557,-11.564153671264648,0.0043254626586123335,0.0037190914154052734,0.11477422714233398,3.846657749328995,-12.151070263571446,-0.1512566116306701,0.7080346862944586,1.0,0.1322831717613641,0.17923030018159736,3.8707619016938852,3.8238427422278027,-12.147250334584736,-12.157188947894795,1.27902507303326,0.5904905770373658
15.958532810211182,-0.03480619564652443,3.733762502670288,-11.518195152282715,0.003938529920542638,0.002897977828979492,0.11477422714233398,3.845148970871378,-12.147653907647085,-0.17125661163067013,0.7091490305071145,1.0,0.13575399499519672,0.18131846107828511,3.878734080141428,3.813147678611365,-12.141564205214307,-12.15753224750257,1.27902507303326,0.5904905770373658
15.969810247421265,-0.03480619564652443,3.733762502670288,-11.518195152282715,0.003938529920542638,0.005226850509643555,0.11477422714233398,3.8433289818204037,-12.142749017594346,-0.19125661163067015,0.7083675702537277,1.0,0.1375576971015735,0.1842127135404078,3.8886212594953338,3.7999372669486307,-12.132942080294477,-12.15783292294292,0.37811626146108657,-1.0079970909596319
16.138358116149902,-0.022412188351154327,3.462899684906006,-11.152745246887207,0.0005207013671624239,0.002755880355834961,0.15032410621643066,3.841175561533865,-12.136354923635817,-0.21125661163067017,0.7231800136525941,0.6122619307681092,0.0873347864855372,0.15318702979576568,3.90096108051984,3.7836296063182115,-12.120820759060674,-12.158655799323066,0.37811626146108657,-1.0079970909596319
16.1467342376709,-0.022412188351154327,3.462899684906006,-11.152745246887207,0.0005207013671624239,0.0025959014892578125,0.15032410621643066,3.838666437772783,-12.12846797492727,-0.23125661163067018,0.7228175964517012,0.38334149943874274,0.06059151706142537,0.11710478337688594,3.916582523965601,3.763351179776677,-12.10440810788279,-12.160788694558383,0.5914746583377085,-0.831878383632855
16.15649676322937,-0.020710838958621025,3.432251453399658,-11.117674827575684,0.0008492081620926073,0.0027670860290527344,0.15032410621643066,3.8357794605871334,-12.119081524841379,-0.2512566116306702,0.723961718348767,0.24905794169746165,0.035912486754606926,0.08544862670353731,3.936759752441909,3.737783358911352,-12.08252144730453,-12.165403993083853,0.5914746583377085,-0.831878383632855
16.165356159210205,-0.020710838958621025,3.432251453399658,-11.117674827575684,0.0008492081620926073,0.0036029815673828125,0.15032410621643066,3.832492777143146,-12.108185926087707,-0.2712566116306702,0.72360117243052,0.013545942134634892,0.019478168358162393,0.058429951446187144,3.9634554621789646,3.7049194009257436,-12.053420164390257,-12.174226013907159,0.665797595148973,-0.7520424553699938
16.17612099647522,-0.018198460340499878,3.385387659072876,-11.065596580505371,0.0015948724298633088,0.002724170684814453,0.15032410621643066,3.828785006955755,-12.095768535667794,-0.29125661163067024,0.7255503817036061,-0.09484809557171259,-0.002078889104410328,0.03166498135560557,3.9996889899742127,3.6616966918864295,-12.014484008031024,-12.189852715382036,0.665797595148973,-0.7520424553699938
16.187035083770752,-0.018198460340499878,3.385387659072876,-11.065596580505371,0.0015948724298633088,0.004199504852294922,0.15032410621643066,3.824635416995609,-12.081813729632264,-0.31125661163067025,0.7251853978981416,-0.3366534202196758,-0.01608328156414183,0.009530770157731426,4.050071605805164,3.603461804581462,-11.961666519292294,-12.216302284584946,0.665797595148973,-0.7520424553699938
16.197466373443604,-0.015753669664263725,3.337571144104004,-11.01412582397461,0.002655799545884588,0.004593849182128906,0.15032410621643066,3.8200240961478293,-12.066302927575933,-0.3312566116306703,0.7269141268012682,-0.4611143015387569,-0.03588036449396291,-0.014402262708964698,4.1215197952142315,3.5232575658308876,-11.888579401073427,-12.259928806927592,0.665797595148973,-0.7520424553699938
16.212085962295532,-0.015753669664263725,3.337571144104004,-11.01412582397461,0.002655799545884588,0.004959821701049805,0.15032410621643066,3.814932128509273,-12.049214626777067,-0.3512566116306703,0.7265408779730808,-0.7089736696751094,-0.048442157191331055,-0.031987824469736345,4.2240263317895,3.4110523318889685,-11.784989532376551,-12.330925310549508,0.665797595148973,-0.7520424553699938
16.22422981262207,-0.013268818147480488,3.28589129447937,-10.961133003234863,0.004053994891959456,0.002843618392944336,0.15032410621643066,3.8093417650223635,-12.030524445858369,-0.3712566116306703,0.7278812630717643,-0.7945756720375718,-0.06408436120069004,-0.04941372661137306,4.3709851855190704,3.2534154251448912,-11.634609177955472,-12.44553363450347,0.665797595148973,-0.7520424553699938
16.37629723548889,-0.013268818147480488,3.28589129447937,-10.961133003234863,0.004053994891959456,0.0024709701538085938,0.14272451400756836,3.8956666510221125,-12.039955685887756,-0.3074471282959277,0.6868497628470448,-1.0,-0.0728798313687128,-0.05827726009675309,3.921793071045252,3.8720865208493156,-12.034160363219101,-12.05822619987174,0.665797595148973,-0.7520424553699938
16.38722038269043,2.012580807786435e-06,2.91648530960083,-10.61158275604248,0.012574726064741387,0.0028166770935058594,0.14272451400756836,3.8927271864244752,-12.026410300298483,-0.3274471282959277,0.691633341830228,1.0,-0.06665413383328628,-0.0183678373856551,3.9296800472153874,3.858846773672018,-12.015413530106722,-12.051311232645752,0.36793569828371225,-2.6963870030013535
16.396528482437134,2.012580807786435e-06,2.91648530960083,-10.61158275604248,0.012574726064741387,0.0027713775634765625,0.14272451400756836,3.8892446335226314,-12.011416598739135,-0.3474471282959277,0.6909923897923553,1.0,-0.06723040073111343,-0.03561878937991239,3.939939174959982,3.842171163868927,-11.993105054143259,-12.04508731951524,0.36793569828371225,-2.6963870030013535
16.406636714935303,0.0014182367594912648,2.8580307960510254,-10.558618545532227,0.013247113954433981,0.002780914306640625,0.14272451400756836,3.885197552065172,-11.994946309036136,-0.36744712829592774,0.6903807343877864,1.0,-0.06658350448260228,-0.04031461079984974,3.953411975367486,3.8211739084281175,-11.966482267348136,-12.040253551152004,0.36793569828371225,-2.6963870030013535
16.417231559753418,0.0014182367594912648,2.8580307960510254,-10.558618545532227,0.013247113954433981,0.0056002140045166016,0.14272451400756836,3.8805660114398806,-11.976968239400131,-0.38744712829592776,0.6897846868303318,1.0,-0.06659897793020038,-0.042147148039712964,3.9713639899817905,3.794548052448261,-11.934488545814295,-12.03780707092194,0.36793569828371225,-2.6963870030013535
16.431968212127686,0.0014182367594912648,2.8580307960510254,-10.558618545532227,0.013247113954433981,0.004607677459716797,0.14272451400756836,3.875331759029728,-11.95744834929742,-0.4074471282959278,0.6891912053829995,1.0,-0.06668684758662023,-0.042968429858677354,3.9956929242917107,3.760357665541405,-11.895648699589307,-12.039157817603805,0.36793569828371225,-2.6963870030013535
16.448347091674805,0.003553065238520503,2.7584638595581055,-10.471985816955566,0.014202950942398873,0.004664897918701172,0.14272451400756836,3.8694783850477252,-11.936349829296644,-0.4274471282959278,0.6887964498026072,1.0,-0.06207539807141652,-0.03883871897909985,4.029225960799616,3.715740862067372,-11.847935605037538,-12.046262043803038,0.36793569828371225,-2.6963870030013535
16.45957660675049,0.003553065238520503,2.7584638595581055,-10.471985816955566,0.014202950942398873,0.0028183460235595703,0.14272451400756836,3.8629914834109593,-11.913633189647994,-0.4474471282959278,0.6882682694147205,1.0,-0.0603980480416896,-0.03604399437351508,4.076154072397157,3.656475813574539,-11.787821661375885,-12.06257102790537,0.36793569828371225,-2.6963870030013535
16.475114822387695,0.004345498513430357,2.7178101539611816,-10.437750816345215,0.014519131836463861,0.004692792892456055,0.14272451400756836,3.855858808232907,-11.889256357330705,-0.4674471282959278,0.6882209296214477,1.0,-0.0581156297934329,-0.033031236092377694,4.142678653514044,3.5763344351202133,-11.709852620710151,-12.09345742973577,0.2951288594576835,-2.680645029235073
16.641778230667114,0.004345498513430357,2.7178101539611816,-10.437750816345215,0.014519131836463861,0.0024712085723876953,0.15413975715637207,3.8480704255328453,-11.863174781284687,-0.48744712829592785,0.6978892340895635,0.5037584831821695,-0.05719112012409018,-0.03129220399240947,4.237690744926638,3.4664034687615253,-11.605475659525146,-12.147387421420868,0.2951288594576835,-2.680645029235073
16.654919147491455,0.015517285093665123,2.2092766761779785,-10.018553733825684,0.01426394062910269,0.004549503326416016,0.15413975715637207,3.8396188597817216,-11.835341545523901,-0.5074471282959279,0.714818411943948,1.0,-0.03668573995514543,-0.02059125233916187,4.373159735109523,3.314696080551675,-11.460831622348769,-12.238128662147625,0.4448684940321852,-2.0384213000094644
16.66698145866394,0.015453100204467773,2.185810089111328,-9.999911308288574,0.014171124491043116,0.0054798126220703125,0.15413975715637207,3.8304992349251092,-11.805707489812491,-0.5274471282959279,0.7153009706944058,1.0,-0.02902382962096992,-0.02155294512099413,4.56544280080386,3.1048427076275376,-11.253757583082965,-12.387747970703588,0.4448684940321852,-2.0384213000094644
16.682404041290283,0.015453100204467773,2.185810089111328,-9.999911308288574,0.014171124491043116,0.0029075145721435547,0.15413975715637207,3.894263410443703,-12.033362381376238,-0.3174471282959277,0.7146468912231753,1.0,-0.026411086995885073,-0.02020641494734383,3.921793071045252,3.8720865208493156,-12.034160363219101,-12.05822619987174,0.8650169193910466,-0.6517369287669874
16.691977500915527,0.015293370932340622,2.1153578758239746,-9.944181442260742,0.013808731027218517,0.0026187896728515625,0.15413975715637207,3.891055169414455,-12.01909618682925,-0.3374471282959277,0.7174704971180311,1.0,-0.02323155402559652,-0.01965485141012148,3.9296800472153874,3.858846773672018,-12.015413530106722,-12.051311232645752,0.8650169193910466,-0.6517369287669874
16.700798273086548,0.015251320786774158,2.091869592666626,-9.925665855407715,0.013678411498202585,0.002801656723022461,0.15413975715637207,3.8872929418978024,-12.00336790925007,-0.35744712829592773,0.7179402951011642,1.0,-0.021357421135486967,-0.018781255309777443,3.939939174959982,3.842171163868927,-11.993105054143259,-12.04508731951524,0.8650169193910466,-0.6517369287669874
16.708658456802368,0.015251320786774158,2.091869592666626,-9.925665855407715,0.013678411498202585,0.0027778148651123047,0.15413975715637207,3.8829560212150263,-11.986147808368118,-0.37744712829592775,0.717227591169612,1.0,-0.020763671957938372,-0.017847365207500812,3.953411975367486,3.8211739084281175,-11.966482267348136,-12.040253551152004,0.8650169193910466,-0.6517369287669874
16.717758417129517,0.015183664858341217,2.044909715652466,-9.888773918151855,0.013412520210527419,0.002766847610473633,0.15413975715637207,3.8780252949165583,-11.967403258596557,-0.39744712829592777,0.7186468790804293,1.0,-0.01872869185293661,-0.017876834090068554,3.9713639899817905,3.794548052448261,-11.934488545814295,-12.03780707092194,0.8650169193910466,-0.6517369287669874
16.725435972213745,0.015183664858341217,2.044909715652466,-9.888773918151855,0.013412520210527419,0.0026950836181640625,0.15413975715637207,3.8724834114334947,-11.947098824420289,-0.4174471282959278,0.7179018507304465,1.0,-0.018092922938939916,-0.01724160727589789,3.9956929242917107,3.760357665541405,-11.895648699589307,-12.039157817603805,0.8650169193910466,-0.6517369287669874
16.88395380973816,0.008343112654983997,1.5269004106521606,-9.447952270507812,0.007915622075715743,0.0029876232147216797,0.14757871627807617,3.8663149429858485,-11.925196344640629,-0.4374471282959278,0.7179159256061798,1.0,-0.018781460991169834,-0.011686689383837205,4.029225960799616,3.715740862067372,-11.847935605037538,-12.046262043803038,0.8650169193910466,-0.6517369287669874
16.89319372177124,0.008343112654983997,1.5269004106521606,-9.447952270507812,0.007915622075715743,0.002510547637939453,0.14757871627807617,3.859506544317129,-11.901655025222963,-0.4574471282959278,0.7168069727116417,1.0,-0.01830480663727153,-0.011268762969619985,4.076154072397157,3.656475813574539,-11.787821661375885,-12.06257102790537,0.9716624498827022,-0.9881122508723443
16.901899576187134,0.00841850508004427,1.5038702487945557,-9.427483558654785,0.007627340634665074,0.0028243064880371094,0.14757871627807617,3.852047106844082,-11.876431540473009,-0.47744712829592784,0.7171944079525635,0.9852544799470102,-0.017937581380919953,-0.010840623180235258,4.142678653514044,3.5763344351202133,-11.709852620710151,-12.09345742973577,0.9716624498827022,-0.9881122508723443
16.91142964363098,0.008493923582136631,1.4809675216674805,-9.407135009765625,0.007340963247613824,0.002538442611694336,0.14757871627807617,3.843927907830599,-11.8494801422482,-0.49744712829592785,0.7175803392004105,0.9230800494570088,-0.017527381124233892,-0.010564503284265293,4.237690744926638,3.4664034687615253,-11.605475659525146,-12.147387421420868,0.9716624498827022,-0.9881122508723443
16.92180299758911,0.008569726720452309,1.4581965208053589,-9.386877059936523,0.007057118832824047,0.002957582473754883,0.14757871627807617,3.835142754215698,-11.82075277689328,-0.5174471282959279,0.7179652175319295,0.8606862296319213,-0.017087735127775727,-0.010398852360173629,4.373159735109523,3.314696080551675,-11.460831622348769,-12.238128662147625,0.9716624498827022,-0.9881122508723443
16.9311625957489,0.008723752573132515,1.4130665063858032,-9.346617698669434,0.00649697459134109,0.0028886795043945312,0.14757871627807617,3.8256881207470554,-11.790199209573462,-0.5374471282959279,0.7199121441378287,0.7596074194466016,-0.01631013769173367,-0.010330925060948544,4.56544280080386,3.1048427076275376,-11.253757583082965,-12.387747970703588,0.9716624498827022,-0.9881122508723443
16.939631938934326,0.008723752573132515,1.4130665063858032,-9.346617698669434,0.00649697459134109,0.0029761791229248047,0.14757871627807617,3.8927271864244752,-12.026410300298483,-0.3274471282959277,0.7187284467755717,0.7354406652039231,-0.016120804021754028,-0.009865164663465445,3.921793071045252,3.8720865208493156,-12.034160363219101,-12.05822619987174,0.9716624498827022,-0.9881122508723443
16.94956684112549,0.00888681411743164,1.368515133857727,-9.30667495727539,0.005946250946932657,0.003059864044189453,0.14757871627807617,3.8892446335226314,-12.011416598739135,-0.3474471282959277,0.7206979065362066,0.6286891149120416,-0.015233958331506285,-0.009965407755576843,3.9296800472153874,3.858846773672018,-12.015413530106722,-12.051311232645752,0.9716624498827022,-0.9881122508723443
16.95781445503235,0.00888681411743164,1.368515133857727,-9.30667495727539,0.005946250946932657,0.0029866695404052734,0.14757871627807617,3.885197552065172,-11.994946309036136,-0.36744712829592774,0.7194857177442942,0.6096077985352631,-0.015032204259474132,-0.009445670199453627,3.939939174959982,3.842171163868927,-11.993105054143259,-12.04508731951524,0.9716624498827022,-0.9881122508723443
17.107550621032715,0.01321170013397932,0.9636891484260559,-8.901061058044434,0.001384019914916379,0.0025680065155029297,0.13695836067199707,3.8805660114398806,-11.976968239400131,-0.38744712829592776,0.7315259572813896,-0.10192151401853922,-0.001155636321564825,-0.01955072648593192,3.953411975367486,3.8211739084281175,-11.966482267348136,-12.040253551152004,0.989787732525824,-0.9542485528245436
17.116590976715088,0.013329263776540756,0.9463533163070679,-8.880142211914062,0.0012236217679970351,0.0027620792388916016,0.13695836067199707,3.875331759029728,-11.95744834929742,-0.4074471282959278,0.7320482229329208,-0.1422698189808278,0.0007120095381458558,-0.010007728208097175,3.9713639899817905,3.794548052448261,-11.934488545814295,-12.03780707092194,0.989787732525824,-0.9542485528245436
17.126287698745728,0.013457618653774261,0.9292194843292236,-8.859284400939941,0.0010659033509271831,0.0027523040771484375,0.13695836067199707,3.8694783850477252,-11.936349829296644,-0.4274471282959278,0.7325654581044918,-0.1812323904671298,0.0032617401757419305,-0.005869086625634637,3.9956929242917107,3.760357665541405,-11.895648699589307,-12.039157817603805,0.989787732525824,-0.9542485528245436
17.136148929595947,0.013747353106737137,0.8955689072608948,-8.81773567199707,0.0007534965596438237,0.002884387969970703,0.13695836067199707,3.8629914834109593,-11.913633189647994,-0.4474471282959278,0.7348681447825925,-0.29817572662568637,0.006107080656570877,-0.0034697980325642183,4.029225960799616,3.715740862067372,-11.847935605037538,-12.046262043803038,0.989787732525824,-0.9542485528245436
17.14593815803528,0.013908788561820984,0.8790576457977295,-8.797037124633789,0.0006003896688379917,0.0026595592498779297,0.13695836067199707,3.855858808232907,-11.889256357330705,-0.4674471282959278,0.7353721729298306,-0.33621457267432087,0.008091703003291621,-0.001449969780287133,4.076154072397157,3.656475813574539,-11.787821661375885,-12.06257102790537,0.989787732525824,-0.9542485528245436
17.156198978424072,0.01409025490283966,0.8627627491950989,-8.776385307312012,0.0004511524272721723,0.0030303001403808594,0.13695836067199707,3.8480704255328453,-11.863174781284687,-0.48744712829592785,0.7358719118733718,-0.37294952645123636,0.009802214527270633,7.734808978932956e-05,4.142678653514044,3.5763344351202133,-11.709852620710151,-12.09345742973577,0.989787732525824,-0.9542485528245436
17.165838718414307,0.01409025490283966,0.8627627491950989,-8.776385307312012,0.0004511524272721723,0.0033216476440429688,0.13695836067199707,3.8396188597817216,-11.835341545523901,-0.5074471282959279,0.7345897690901149,-0.3233462630276067,0.010527279994635895,0.0013727661191431022,4.237690744926638,3.4664034687615253,-11.605475659525146,-12.147387421420868,0.7711828330382253,-0.3205747345903419
17.17644762992859,0.014701181091368198,0.8152003288269043,-8.714797019958496,4.309318403875051e-05,0.0029354095458984375,0.13695836067199707,3.8304992349251092,-11.805707489812491,-0.5274471282959279,0.7382891861803826,-0.5218822597661941,0.013393815802395653,0.001995876202238241,4.373159735109523,3.314696080551675,-11.460831622348769,-12.238128662147625,0.7711828330382253,-0.3205747345903419
17.186601877212524,0.014927065931260586,0.7998027801513672,-8.694372177124023,-7.24175874614319e-05,0.003175973892211914,0.13695836067199707,3.82070940954569,-11.774221337569754,-0.5474471282959279,0.7385801206697117,-0.543342186965492,0.015019833876787422,0.0031672358870477786,4.56544280080386,3.1048427076275376,-11.253757583082965,-12.387747970703588,0.7711828330382253,-0.3205747345903419
17.1952965259552,0.014927065931260586,0.7998027801513672,-8.694372177124023,-7.24175874614319e-05,0.003851652145385742,0.13695836067199707,3.891055169414455,-12.01909618682925,-0.3374471282959277,0.7373021146959414,-0.4838720293619989,0.015675309303317536,0.0042253658502581105,3.921793071045252,3.8720865208493156,-12.034160363219101,-12.05822619987174,0.7711828330382253,-0.3205747345903419
17.2121262550354,0.015671025961637497,0.7550120949745178,-8.633418083190918,-0.00033488327809266805,0.004943132400512695,0.13695836067199707,3.8872929418978024,-12.00336790925007,-0.35744712829592773,0.7405985392607599,-0.6252836844429532,0.017557875428963237,0.005151420386692398,3.9296800472153874,3.858846773672018,-12.015413530106722,-12.051311232645752,0.7711828330382253,-0.3205747345903419
17.370989561080933,0.024729713797569275,0.5412853360176086,-8.240478515625,0.00010223945253604039,0.0027990341186523438,0.14477777481079102,3.8829560212150263,-11.986147808368118,-0.37744712829592775,0.7477743437048493,0.28865895626087956,0.0213524500871319,0.004874042687060393,3.939939174959982,3.842171163868927,-11.993105054143259,-12.04508731951524,0.7711828330382253,-0.3205747345903419
17.379783153533936,0.024729713797569275,0.5412853360176086,-8.240478515625,0.00010223945253604039,0.002335786819458008,0.14477777481079102,3.8780252949165583,-11.967403258596557,-0.39744712829592777,0.746860452336449,0.3916889501306956,0.021994433248256742,0.008738108100924001,3.953411975367486,3.8211739084281175,-11.966482267348136,-12.040253551152004,0.7696164536991975,-0.43905038436623756
17.390135526657104,0.02478625625371933,0.5191327929496765,-8.177326202392578,0.0001759051397773881,0.0027616024017333984,0.14477777481079102,3.8724834114334947,-11.947098824420289,-0.4174471282959278,0.7492117581645661,0.4339729386916934,0.021446453952088794,0.010647007402473546,3.9713639899817905,3.794548052448261,-11.934488545814295,-12.03780707092194,0.7696164536991975,-0.43905038436623756
17.397358894348145,0.02478625625371933,0.5191327929496765,-8.177326202392578,0.0001759051397773881,0.0029802322387695312,0.14477777481079102,3.8663149429858485,-11.925196344640629,-0.4374471282959278,0.7483389242297896,0.5433832654205711,0.021782846049667563,0.010080706178640991,3.9956929242917107,3.760357665541405,-11.895648699589307,-12.039157817603805,0.7696164536991975,-0.43905038436623756
17.411341190338135,0.02581075020134449,0.48454251885414124,-8.087380409240723,0.00023602573034062213,0.002696990966796875,0.14477777481079102,3.859506544317129,-11.901655025222963,-0.4574471282959278,0.7518395779066858,0.6124939940309946,0.02011371967796954,0.011325913733077538,4.029225960799616,3.715740862067372,-11.847935605037538,-12.046262043803038,0.7696164536991975,-0.43905038436623756
17.419968605041504,0.02581075020134449,0.48454251885414124,-8.087380409240723,0.00023602573034062213,0.003383636474609375,0.14477777481079102,3.852047106844082,-11.876431540473009,-0.47744712829592784,0.7510221200160807,0.7281164455724609,0.020229399171079052,0.009205999676048801,4.076154072397157,3.656475813574539,-11.787821661375885,-12.06257102790537,0.7696164536991975,-0.43905038436623756
17.429728269577026,0.02619902603328228,0.465402215719223,-8.025774002075195,0.00030358085326825934,0.002628803253173828,0.14477777481079102,3.843927907830599,-11.8494801422482,-0.49744712829592785,0.752719343740945,0.7787811010554766,0.018256781484245647,0.01043420779914868,4.142678653514044,3.5763344351202133,-11.709852620710151,-12.09345742973577,0.7696164536991975,-0.43905038436623756
17.441497087478638,0.02619902603328228,0.465402215719223,-8.025774002075195,0.00030358085326825934,0.0044612884521484375,0.14477777481079102,3.835142754215698,-11.82075277689328,-0.5174471282959279,0.7519350120388055,0.9008886339138287,0.018475296784057706,0.00753455057671641,4.237690744926638,3.4664034687615253,-11.605475659525146,-12.147387421420868,0.7696164536991975,-0.43905038436623756
17.456130027770996,0.026741983368992805,0.4472986161708832,-7.9649882316589355,0.0003677139900379739,0.0028982162475585938,0.14477777481079102,3.8256881207470554,-11.790199209573462,-0.5374471282959279,0.7535739316236149,0.891940577947723,0.016225826379225112,0.009543202238637279,4.373159735109523,3.314696080551675,-11.460831622348769,-12.238128662147625,0.7696164536991975,-0.43905038436623756
17.6102397441864,0.026741983368992805,0.4472986161708832,-7.9649882316589355,0.0003677139900379739,0.0026140213012695312,0.1433093547821045,3.815563282093616,-11.757767155664387,-0.5574471282959279,0.7328424165734073,1.0,0.016914489426781646,0.005594059435151838,4.56544280080386,3.1048427076275376,-11.253757583082965,-12.387747970703588,0.6750650909384981,-0.7160452186861859
17.62035322189331,0.024979395791888237,0.38790473341941833,-7.5436835289001465,0.00093279478743033,0.0031859874725341797,0.1433093547821045,3.8892446335226314,-12.011416598739135,-0.3474471282959277,0.7488160395891676,-1.0,0.00176836280127494,0.027483937745633024,3.921793071045252,3.8720865208493156,-12.034160363219101,-12.05822619987174,0.6750650909384981,-0.7160452186861859
17.628209590911865,0.024979395791888237,0.38790473341941833,-7.5436835289001465,0.00093279478743033,0.0026373863220214844,0.1433093547821045,3.885197552065172,-11.994946309036136,-0.36744712829592774,0.747942769106017,-1.0,0.007545359058881992,0.0154540880213559,3.9296800472153874,3.858846773672018,-12.015413530106722,-12.051311232645752,0.6750650909384981,-0.7160452186861859
17.63890838623047,0.025223461911082268,0.38427022099494934,-7.481555461883545,0.0011006096187147762,0.0031125545501708984,0.1433093547821045,3.8805660114398806,-11.976968239400131,-0.38744712829592776,0.7493608867524632,-1.0,0.005078563426173961,0.01055533434666952,3.939939174959982,3.842171163868927,-11.993105054143259,-12.04508731951524,0.6750650909384981,-0.7160452186861859
17.646708488464355,0.025223461911082268,0.38427022099494934,-7.481555461883545,0.0011006096187147762,0.0033159255981445312,0.1433093547821045,3.875331759029728,-11.95744834929742,-0.4074471282959278,0.7484997023037543,-1.0,0.003229909230401949,0.006944705135762769,3.953411975367486,3.8211739084281175,-11.966482267348136,-12.040253551152004,0.6750650909384981,-0.7160452186861859
17.662549257278442,0.025478895753622055,0.38266995549201965,-7.440755844116211,0.001201130508648507,0.004662990570068359,0.1433093547821045,3.8694783850477252,-11.936349829296644,-0.4274471282959278,0.7491050511145084,-1.0,0.0013291602725076259,0.004419149121868034,3.9713639899817905,3.794548052448261,-11.934488545814295,-12.03780707092194,0.6750650909384981,-0.7160452186861859
17.68139410018921,0.02597185969352722,0.38169267773628235,-7.3802690505981445,0.0013565226753314008,0.004739284515380859,0.1433093547821045,3.8629914834109593,-11.913633189647994,-0.4474471282959278,0.7500701118511565,-1.0,-0.0004931036559813796,0.0022553283271848374,3.9956929242917107,3.760357665541405,-11.895648699589307,-12.039157817603805,0.6942604828138627,-1.0933533749700266
17.84694790840149,0.02597185969352722,0.38169267773628235,-7.3802690505981445,0.0013565226753314008,0.0034275054931640625,0.14972281455993652,3.855858808232907,-11.889256357330705,-0.4674471282959278,0.7443787749219151,0.3906939538391381,-0.0014984354310378593,0.0001952952843754424,4.029225960799616,3.715740862067372,-11.847935605037538,-12.046262043803038,0.6942604828138627,-1.0933533749700266
17.86090898513794,0.037244491279125214,0.4358810484409332,-6.9505534172058105,0.0016830266545309197,0.0045702457427978516,0.14972281455993652,3.8480704255328453,-11.863174781284687,-0.48744712829592785,0.7591086951560316,-0.8756640314600102,0.007456935794159864,-0.007925746487153263,4.076154072397157,3.656475813574539,-11.787821661375885,-12.06257102790537,0.8813917683314045,-1.444135072459403
17.872053861618042,0.037244491279125214,0.4358810484409332,-6.9505534172058105,0.0016830266545309197,0.002755403518676758,0.14972281455993652,3.8396188597817216,-11.835341545523901,-0.5074471282959279,0.7585081861423629,-0.8631846451339265,0.006173728687621579,-0.002985704520729434,4.142678653514044,3.5763344351202133,-11.709852620710151,-12.09345742973577,0.8813917683314045,-1.444135072459403
17.88099980354309,0.03990110009908676,0.45375844836235046,-6.887269020080566,0.0017181811569886851,0.002721548080444336,0.14972281455993652,3.8304992349251092,-11.805707489812491,-0.5274471282959279,0.7599932642628523,-0.9181085082429787,0.009656834730995514,-5.116820380539412e-05,4.237690744926638,3.4664034687615253,-11.605475659525146,-12.147387421420868,0.8813917683314045,-1.444135072459403
17.88836908340454,0.03990110009908676,0.45375844836235046,-6.887269020080566,0.0017181811569886851,0.0028824806213378906,0.14972281455993652,3.82070940954569,-11.774221337569754,-0.5474471282959279,0.7594078187445594,-0.9068978871842668,0.010885093109874237,0.0022733973783114927,4.373159735109523,3.314696080551675,-11.460831622348769,-12.238128662147625,0.8813917683314045,-1.444135072459403
17.897655963897705,0.04166093468666077,0.4660548269748688,-6.845653057098389,0.0017452808433176953,0.002820253372192383,0.14972281455993652,3.810250105849989,-11.740829830656747,-0.5674471282959279,0.7600002846170003,-0.9439943573889091,0.013095127180915964,0.004049025987185789,4.56544280080386,3.1048427076275376,-11.253757583082965,-12.387747970703588,0.8813917683314045,-1.444135072459403
17.9052734375,0.04166093468666077,0.4660548269748688,-6.845653057098389,0.0017452808433176953,0.0030374526977539062,0.14972281455993652,3.8872929418978024,-12.00336790925007,-0.35744712829592773,0.7594215559136656,-0.9335994442286091,0.013786634462443112,0.005231013704990909,3.921793071045252,3.8720865208493156,-12.034160363219101,-12.05822619987174,0.8813917683314045,-1.444135072459403
17.91486144065857,0.044280726462602615,0.4850028157234192,-6.7842326164245605,0.001779888773642671,0.002883434295654297,0.14972281455993652,3.8829560212150263,-11.986147808368118,-0.37744712829592775,0.7602331228819867,-1.0,0.016241693586057544,0.006350328723618272,3.9296800472153874,3.858846773672018,-12.015413530106722,-12.051311232645752,0.8813917683314045,-1.444135072459403
17.92499303817749,0.045146644115448,0.4914468228816986,-6.7640156745910645,0.0017986953724797444,0.0027532577514648438,0.14972281455993652,3.8780252949165583,-11.967403258596557,-0.39744712829592777,0.760090242238904,-1.0,0.017271822969973046,0.006782996089414763,3.939939174959982,3.842171163868927,-11.993105054143259,-12.04508731951524,0.8813917683314045,-1.444135072459403
18.07328963279724,0.057744503021240234,0.611697256565094,-6.423403263092041,0.002402831734427624,0.0028884410858154297,0.13676881790161133,3.8724834114334947,-11.947098824420289,-0.4174471282959278,0.7531647961987249,-1.0,0.017100438272484402,0.001986023746157774,3.953411975367486,3.8211739084281175,-11.966482267348136,-12.040253551152004,0.8813917683314045,-1.444135072459403
18.08400535583496,0.059866275638341904,0.6334814429283142,-6.3659772872924805,0.002546235914421457,0.0026667118072509766,0.13676881790161133,3.8663149429858485,-11.925196344640629,-0.4374471282959278,0.754080861943709,-0.9476308736132866,0.01573306486505572,-0.00190459402619304,3.9713639899817905,3.794548052448261,-11.934488545814295,-12.03780707092194,0.5056844659063651,-1.2736813106207754
18.091341972351074,0.059866275638341904,0.6334814429283142,-6.3659772872924805,0.002546235914421457,0.0028221607208251953,0.13676881790161133,3.859506544317129,-11.901655025222963,-0.4574471282959278,0.7534006583677434,-0.9671046748889752,0.015622863860845455,-0.002409981941135561,3.9956929242917107,3.760357665541405,-11.895648699589307,-12.039157817603805,0.5056844659063651,-1.2736813106207754
18.098759651184082,0.059866275638341904,0.6334814429283142,-6.3659772872924805,0.002546235914421457,0.0029332637786865234,0.13676881790161133,3.852047106844082,-11.876431540473009,-0.47744712829592784,0.7527186362851676,-0.9884473142353414,0.01558595987948869,-0.002669160642274158,4.029225960799616,3.715740862067372,-11.847935605037538,-12.046262043803038,0.5056844659063651,-1.2736813106207754
18.10843825340271,0.06097538769245148,0.6491671800613403,-6.3260178565979,0.00267048796408308,0.0029044151306152344,0.13676881790161133,3.843927907830599,-11.8494801422482,-0.49744712829592785,0.7532206873425151,-0.9385913439044796,0.014488443695599082,-0.004077546660088496,4.076154072397157,3.656475813574539,-11.787821661375885,-12.06257102790537,0.5056844659063651,-1.2736813106207754
18.11602210998535,0.06097538769245148,0.6491671800613403,-6.3260178565979,0.00267048796408308,0.002939939498901367,0.13676881790161133,3.835142754215698,-11.82075277689328,-0.5174471282959279,0.7525339434326446,-0.9646242806087615,0.014541575065526582,-0.003665455260668502,4.142678653514044,3.5763344351202133,-11.709852620710151,-12.09345742973577,0.5056844659063651,-1.2736813106207754
18.125977516174316,0.06266654282808304,0.6723026633262634,-6.267151355743408,0.0028942567743552375,0.0027742385864257812,0.13676881790161133,3.8256881207470554,-11.790199209573462,-0.5374471282959279,0.7536789421619768,-0.861257517610184,0.01312681316588172,-0.005318893259979595,4.237690744926638,3.4664034687615253,-11.605475659525146,-12.147387421420868,0.5056844659063651,-1.2736813106207754
18.13569664955139,0.06323884427547455,0.6798882484436035,-6.247786998748779,0.0029631069361559653,0.0029039382934570312,0.13676881790161133,3.815563282093616,-11.757767155664387,-0.5574471282959279,0.7536266438617916,-0.843230908994431,0.012787034049957579,-0.005002118434850034,4.373159735109523,3.314696080551675,-11.460831622348769,-12.238128662147625,0.5056844659063651,-1.2736813106207754
18.14587378501892,0.06381374597549438,0.6874057054519653,-6.228545188903809,0.003029664901398242,0.0026836395263671875,0.13676881790161133,3.8047704386332732,-11.723402418845664,-0.5774471282959279,0.7535798408937276,-0.8249750218681121,0.012388448034179815,-0.005063128769486665,4.56544280080386,3.1048427076275376,-11.253757583082965,-12.387747970703588,0.5056844659063651,-1.2736813106207754
18.155980348587036,0.06497055292129517,0.702218234539032,-6.190465450286865,0.00315782372087621,0.0030050277709960938,0.13676881790161133,3.885197552065172,-11.994946309036136,-0.36744712829592774,0.7541943163743016,-0.7495433838114313,0.011667201641105285,-0.005620078466330062,3.921793071045252,3.8720865208493156,-12.034160363219101,-12.05822619987174,0.5056844659063651,-1.2736813106207754
18.314574003219604,0.06497055292129517,0.702218234539032,-6.190465450286865,0.00315782372087621,0.002680063247680664,0.1478726863861084,3.8805660114398806,-11.976968239400131,-0.38744712829592776,0.7479196795029109,-1.0,0.011874934488681259,-0.005010334100782669,3.9296800472153874,3.858846773672018,-12.015413530106722,-12.051311232645752,0.38179715248351165,-1.0125467235906307
18.32515525817871,0.0770166739821434,0.8434327244758606,-5.795466423034668,0.0034529451796106447,0.0027217864990234375,0.1478726863861084,3.875331759029728,-11.95744834929742,-0.4074471282959278,0.7607833145410304,0.3685366317484222,0.0032754166881007506,-0.016647173652497103,3.939939174959982,3.842171163868927,-11.993105054143259,-12.04508731951524,0.38179715248351165,-1.0125467235906307
18.334885835647583,0.0776115208864212,0.8487939238548279,-5.777368545532227,0.003422559355784019,0.0027947425842285156,0.1478726863861084,3.8694783850477252,-11.936349829296644,-0.4274471282959278,0.7607660503055913,0.379646916853978,0.005838148784867283,-0.010090868721984518,3.953411975367486,3.8211739084281175,-11.966482267348136,-12.040253551152004,0.38179715248351165,-1.0125467235906307
18.344947814941406,0.07821746170520782,0.8539719581604004,-5.759364128112793,0.0033941800873443367,0.002828359603881836,0.1478726863861084,3.8629914834109593,-11.913633189647994,-0.4474471282959278,0.7607464961763887,0.3900979597449219,0.005032741163195413,-0.007652151732795586,3.9713639899817905,3.794548052448261,-11.934488545814295,-12.03780707092194,0.38179715248351165,-1.0125467235906307
18.356136798858643,0.07912511378526688,0.8655198812484741,-5.71904182434082,0.00331522515328192,0.0029172897338867188,0.1478726863861084,3.855858808232907,-11.889256357330705,-0.4674471282959278,0.7615106890922149,0.4898875935282838,0.0041035495653929735,-0.0065212454114358925,3.9956929242917107,3.760357665541405,-11.895648699589307,-12.039157817603805,0.38179715248351165,-1.0125467235906307
18.365400075912476,0.07912511378526688,0.8655198812484741,-5.71904182434082,0.00331522515328192,0.002800464630126953,0.1478726863861084,3.8480704255328453,-11.863174781284687,-0.48744712829592785,0.7608560705381583,0.4013600056578843,0.003927934695475861,-0.0056028043833705275,4.029225960799616,3.715740862067372,-11.847935605037538,-12.046262043803038,0.2752221830184063,-1.1005231968961726
18.375380277633667,0.0800609439611435,0.876218318939209,-5.679349899291992,0.0031933756941296687,0.0028738975524902344,0.1478726863861084,3.8396188597817216,-11.835341545523901,-0.5074471282959279,0.7614271904646849,0.48162238821652514,0.0031489412696044782,-0.005392412884774742,4.076154072397157,3.656475813574539,-11.787821661375885,-12.06257102790537,0.2752221830184063,-1.1005231968961726
18.38534903526306,0.08053881675004959,0.8812428116798401,-5.659735679626465,0.003133301649469039,0.002964496612548828,0.1478726863861084,3.8304992349251092,-11.805707489812491,-0.5274471282959279,0.7613936201826284,0.4630677661951905,0.0028078359936760176,-0.005022777332007804,4.142678653514044,3.5763344351202133,-11.709852620710151,-12.09345742973577,0.2752221830184063,-1.1005231968961726
18.55730128288269,0.08053881675004959,0.8812428116798401,-5.659735679626465,0.003133301649469039,0.0027909278869628906,0.1610722541809082,3.82070940954569,-11.774221337569754,-0.5474471282959279,0.7575615236645996,-1.0,0.0028927292689641484,-0.004744570863384196,4.237690744926638,3.4664034687615253,-11.605475659525146,-12.147387421420868,0.2752221830184063,-1.1005231968961726
18.56798505783081,0.09484711289405823,0.9370982050895691,-5.2291154861450195,0.001297889038522626,0.007517576217651367,0.1610722541809082,3.810250105849989,-11.740829830656747,-0.5674471282959279,0.7695457047787371,-0.2733024942686353,0.0017884191114994072,-0.00258887202504845,4.373159735109523,3.314696080551675,-11.460831622348769,-12.238128662147625,0.16893659122029397,-1.2838145985285896
18.58398985862732,0.09484711289405823,0.9370982050895691,-5.2291154861450195,0.001297889038522626,0.0029706954956054688,0.1610722541809082,3.799125032186663,-11.705477870685753,-0.585770591010882,0.7690751097308198,-0.4068221103448494,0.001271531297742113,-0.0025647112723935096,4.56544280080386,3.1048427076275376,-11.253757583082965,-12.387747970703588,0.16893659122029397,-1.2838145985285896
18.594093561172485,0.09748464077711105,0.9358884692192078,-5.157998561859131,0.0008978622351658444,0.002560138702392578,0.1610722541809082,3.8829560212150263,-11.986147808368118,-0.37744712829592775,0.7702067941169146,-0.46370100574828754,0.0010080447030773939,-0.00192284536471222,3.921793071045252,3.8720865208493156,-12.034160363219101,-12.05822619987174,0.16893659122029397,-1.2838145985285896
18.60117816925049,0.09748464077711105,0.9358884692192078,-5.157998561859131,0.0008978622351658444,0.0028319358825683594,0.1610722541809082,3.8780252949165583,-11.967403258596557,-0.39744712829592777,0.7697526197229931,-0.6027016877588638,0.000928175224051573,-0.0015090281942763285,3.9296800472153874,3.858846773672018,-12.015413530106722,-12.051311232645752,0.16893659122029397,-1.2838145985285896
18.60877251625061,0.09748464077711105,0.9358884692192078,-5.157998561859131,0.0008978622351658444,0.002772808074951172,0.1610722541809082,3.8724834114334947,-11.947098824420289,-0.4174471282959278,0.76930188129916,-0.7448485845858822,0.0008772812933083581,-0.0012864770671970078,3.939939174959982,3.842171163868927,-11.993105054143259,-12.04508731951524,0.16893659122029397,-1.2838145985285896
18.618099451065063,0.09853316843509674,0.932865560054779,-5.121652603149414,0.0007180904530977444,0.002825021743774414,0.1610722541809082,3.8663149429858485,-11.925196344640629,-0.4374471282959278,0.7694833412519655,-0.8186440100925351,0.0005011726912883826,-0.001290810638320575,3.953411975367486,3.8211739084281175,-11.966482267348136,-12.040253551152004,0.16893659122029397,-1.2838145985285896
18.62572193145752,0.09853316843509674,0.932865560054779,-5.121652603149414,0.0007180904530977444,0.002869129180908203,0.1610722541809082,3.859506544317129,-11.901655025222963,-0.4574471282959278,0.7690435015680698,-0.9182727637367616,0.0005850399852049445,-0.000682811390845613,3.9713639899817905,3.794548052448261,-11.934488545814295,-12.03780707092194,0.16893659122029397,-1.2838145985285896
18.77889108657837,0.10563995689153671,0.8803312182426453,-4.797412872314453,-0.0005090250606479552,0.0025076866149902344,0.1423325538635254,3.852047106844082,-11.876431540473009,-0.47744712829592784,0.761184655608071,1.0,-0.003688091985630106,-0.004467577083243206,3.9956929242917107,3.760357665541405,-11.895648699589307,-12.039157817603805,0.16893659122029397,-1.2838145985285896
18.790997982025146,0.10563995689153671,0.8803312182426453,-4.797412872314453,-0.0005090250606479552,0.004595041275024414,0.1423325538635254,3.843927907830599,-11.8494801422482,-0.49744712829592785,0.7607730740210726,1.0,-0.0024080143850608846,-0.0017961650201695437,4.029225960799616,3.715740862067372,-11.847935605037538,-12.046262043803038,0.37860502368731097,-1.363890661211186
18.80445122718811,0.10639408975839615,0.8577026724815369,-4.716635227203369,-0.0006311527906941727,0.002903461456298828,0.1423325538635254,3.835142754215698,-11.82075277689328,-0.5174471282959279,0.7605534346598922,1.0,-0.004918449585440958,0.00017821479932120856,4.076154072397157,3.656475813574539,-11.787821661375885,-12.06257102790537,0.37860502368731097,-1.363890661211186
18.81231689453125,0.10639408975839615,0.8577026724815369,-4.716635227203369,-0.0006311527906941727,0.0027632713317871094,0.1423325538635254,3.8256881207470554,-11.790199209573462,-0.5374471282959279,0.760170284497704,1.0,-0.005331900871136654,0.0016313412220583896,4.142678653514044,3.5763344351202133,-11.709852620710151,-12.09345742973577,0.37860502368731097,-1.363890661211186
18.82411003112793,0.10639408975839615,0.8577026724815369,-4.716635227203369,-0.0006311527906941727,0.0049397945404052734,0.1423325538635254,3.815563282093616,-11.757767155664387,-0.5574471282959279,0.7597900309991872,1.0,-0.005687155137555785,0.002504425203669231,4.237690744926638,3.4664034687615253,-11.605475659525146,-12.147387421420868,0.37860502368731097,-1.363890661211186
18.84007239341736,0.10674113780260086,0.8473696112632751,-4.68520450592041,-0.0006675867580694661,0.005815029144287109,0.1423325538635254,3.8047704386332732,-11.723402418845664,-0.5774471282959279,0.7592660810185965,1.0,-0.006656703805337821,0.00335172970271701,4.373159735109523,3.314696080551675,-11.460831622348769,-12.238128662147625,0.37860502368731097,-1.363890661211186
18.858036279678345,0.10674113780260086,0.8473696112632751,-4.68520450592041,-0.0006675867580694661,0.0032892227172851562,0.1423325538635254,3.7932839471851003,-11.687058802440285,-0.5922958262745984,0.7589000214183287,1.0,-0.0068476053975880325,0.0040173658262222895,4.56544280080386,3.1048427076275376,-11.253757583082965,-12.387747970703588,0.37860502368731097,-1.363890661211186
19.00827145576477,0.10357499867677689,0.6921387314796448,-4.346782207489014,-3.362918854152297e-05,0.003061532974243164,0.13623809814453125,3.8805660114398806,-11.976968239400131,-0.38744712829592776,0.7646650841003898,1.0,-0.01518910937355234,0.004869743975931501,3.921793071045252,3.8720865208493156,-12.034160363219101,-12.05822619987174,0.1818921845453597,-1.744131943532588
19.016088247299194,0.10357499867677689,0.6921387314796448,-4.346782207489014,-3.362918854152297e-05,0.0029840469360351562,0.13623809814453125,3.875331759029728,-11.95744834929742,-0.4074471282959278,0.764357712935556,1.0,-0.014130356750673534,0.0030187777700390493,3.9296800472153874,3.858846773672018,-12.015413530106722,-12.051311232645752,0.1818921845453597,-1.744131943532588
19.025994062423706,0.10359712690114975,0.6728747487068176,-4.31698751449585,5.04008405458195e-05,0.0026869773864746094,0.13623809814453125,3.8694783850477252,-11.936349829296644,-0.4274471282959278,0.7645662040988848,1.0,-0.014014818757376535,0.0017388049582147255,3.939939174959982,3.842171163868927,-11.993105054143259,-12.04508731951524,0.1818921845453597,-1.744131943532588
19.036126375198364,0.1036163941025734,0.6631316542625427,-4.3022541999816895,9.163414539661852e-05,0.005103111267089844,0.13623809814453125,3.8629914834109593,-11.913633189647994,-0.4474471282959278,0.7645154345278423,1.0,-0.013886243167964113,0.0008388008731214777,3.953411975367486,3.8211739084281175,-11.966482267348136,-12.040253551152004,0.1818921845453597,-1.744131943532588
19.04651427268982,0.1036163941025734,0.6631316542625427,-4.3022541999816895,9.163414539661852e-05,0.0026445388793945312,0.13623809814453125,3.855858808232907,-11.889256357330705,-0.4674471282959278,0.7641955159278271,1.0,-0.013765959697610103,0.0004211897887167462,3.9713639899817905,3.794548052448261,-11.934488545814295,-12.03780707092194,0.1818921845453597,-1.744131943532588
19.056461095809937,0.10372066497802734,0.633467435836792,-4.258703231811523,0.00022773758636454589,0.0030596256256103516,0.13623809814453125,3.8480704255328453,-11.863174781284687,-0.48744712829592785,0.7646147278987003,1.0,-0.013581478308541315,-0.000633875538237073,3.9956929242917107,3.760357665541405,-11.895648699589307,-12.039157817603805,0.1818921845453597,-1.744131943532588
19.065775632858276,0.10372066497802734,0.633467435836792,-4.258703231811523,0.00022773758636454589,0.0027849674224853516,0.13623809814453125,3.8396188597817216,-11.835341545523901,-0.5074471282959279,0.7642825442218766,1.0,-0.013485443604415762,-0.0010496572635236648,4.029225960799616,3.715740862067372,-11.847935605037538,-12.046262043803038,0.46987726518615847,-1.0332624860601602
19.075881958007812,0.10382041335105896,0.6134098768234253,-4.230270862579346,0.0003318993874148052,0.0028235912322998047,0.13623809814453125,3.8304992349251092,-11.805707489812491,-0.5274471282959279,0.764404569662691,1.0,-0.013001286314478522,-0.0019219567103872768,4.076154072397157,3.656475813574539,-11.787821661375885,-12.06257102790537,0.46987726518615847,-1.0332624860601602
19.085613250732422,0.10393986105918884,0.5931926965713501,-4.202271461486816,0.00042771851857193594,0.0031778812408447266,0.13623809814453125,3.82070940954569,-11.774221337569754,-0.5474471282959279,0.7645303932220309,1.0,-0.01240392905429349,-0.0027984607315004366,4.142678653514044,3.5763344351202133,-11.709852620710151,-12.09345742973577,0.46987726518615847,-1.0332624860601602
19.09632658958435,0.10400665551424026,0.5830382704734802,-4.188431739807129,0.00047661858699782345,0.0029077529907226562,0.13623809814453125,3.810250105849989,-11.740829830656747,-0.5674471282959279,0.7644170712327962,1.0,-0.0121064491555879,-0.003163589697136781,4.237690744926638,3.4664034687615253,-11.605475659525146,-12.147387421420868,0.46987726518615847,-1.0332624860601602
19.25865149497986,0.10400665551424026,0.5830382704734802,-4.188431739807129,0.00047661858699782345,0.0026695728302001953,0.15118908882141113,3.799125032186663,-11.705477870685753,-0.585770591010882,0.7533724125585739,1.0,-0.012021149826926394,-0.0031575859376275503,4.373159735109523,3.314696080551675,-11.460831622348769,-12.238128662147625,0.46987726518615847,-1.0332624860601602
19.26891279220581,0.110108882188797,0.35433492064476013,-3.8899881839752197,0.000720762989916128,0.0033898353576660156,0.15118908882141113,3.787213869576894,-11.668150056812568,-0.5971197799069782,0.7589130319430812,0.2723052251738849,-0.0004846775294492802,-0.016327249434332183,4.56544280080386,3.1048427076275376,-11.253757583082965,-12.387747970703588,0.5223719959668923,-1.349120776041501
19.276864051818848,0.110108882188797,0.35433492064476013,-3.8899881839752197,0.000720762989916128,0.0025665760040283203,0.15118908882141113,3.8780252949165583,-11.967403258596557,-0.39744712829592777,0.7584362372527923,0.2912957718793667,-0.005392156035881323,-0.005665099457905758,3.921793071045252,3.8720865208493156,-12.034160363219101,-12.05822619987174,0.5223719959668923,-1.349120776041501
19.289405584335327,0.11158382147550583,0.32473912835121155,-3.847846031188965,0.0006556248356532207,0.002727985382080078,0.15118908882141113,3.8724834114334947,-11.947098824420289,-0.4174471282959278,0.7592998086111107,0.10930292100918204,-0.0020048704197464812,-0.005655032572167252,3.9296800472153874,3.858846773672018,-12.015413530106722,-12.051311232645752,0.5223719959668923,-1.349120776041501
19.29674792289734,0.11158382147550583,0.32473912835121155,-3.847846031188965,0.0006556248356532207,0.0026276111602783203,0.15118908882141113,3.8663149429858485,-11.925196344640629,-0.4374471282959278,0.7588094163273026,0.13323316580492428,-0.0024485851697178948,-0.0032602018832317697,3.939939174959982,3.842171163868927,-11.993105054143259,-12.04508731951524,0.5223719959668923,-1.349120776041501
19.30936908721924,0.11254239082336426,0.3055877685546875,-3.8203842639923096,0.0005999854862425713,0.002764463424682617,0.15118908882141113,3.859506544317129,-11.901655025222963,-0.4574471282959278,0.7592836491456426,0.012688633808573435,-0.0009317387815141732,-0.0029742116748053896,3.953411975367486,3.8211739084281175,-11.966482267348136,-12.040253551152004,0.5223719959668923,-1.349120776041501
19.316901445388794,0.11254239082336426,0.3055877685546875,-3.8203842639923096,0.0005999854862425713,0.004782915115356445,0.15118908882141113,3.852047106844082,-11.876431540473009,-0.47744712829592784,0.7587849952867894,0.04136907488426489,-0.0010696977689235877,-0.0019134874301737978,3.9713639899817905,3.794548052448261,-11.934488545814295,-12.03780707092194,0.5223719959668923,-1.349120776041501
19.332362413406372,0.11392893642187119,0.2778380215167999,-3.7801806926727295,0.0005052431148604847,0.002876758575439453,0.15118908882141113,3.843927907830599,-11.8494801422482,-0.49744712829592785,0.7596049314442348,-0.14072631673515934,0.0007309184906137394,-0.0020330187695988197,3.9956929242917107,3.760357665541405,-11.895648699589307,-12.039157817603805,0.5223719959668923,-1.349120776041501
19.342546701431274,0.11437148600816727,0.26886695623397827,-3.767008066177368,0.00046949848368989244,0.0028426647186279297,0.15118908882141113,3.835142754215698,-11.82075277689328,-0.5174471282959279,0.7595425678673301,-0.17118426263215003,0.0009363500327640228,-0.0010959924798821814,4.029225960799616,3.715740862067372,-11.847935605037538,-12.046262043803038,0.5223719959668923,-1.349120776041501
19.502229690551758,0.13138766586780548,0.12449704110622406,-3.509246349334717,0.0001452100032512671,0.0048487186431884766,0.14896202087402344,3.8256881207470554,-11.790199209573462,-0.5374471282959279,0.7614786513599336,0.3373748662078788,0.012365783096496922,-0.0027652188887561466,4.076154072397157,3.656475813574539,-11.787821661375885,-12.06257102790537,0.5223719959668923,-1.349120776041501
19.514946222305298,0.1330190747976303,0.10886317491531372,-3.468113899230957,9.52866817424819e-05,0.00240325927734375,0.14896202087402344,3.815563282093616,-11.757767155664387,-0.5574471282959279,0.7623150405609533,0.3432696040002212,0.011076750215672948,0.006821598943665496,4.142678653514044,3.5763344351202133,-11.709852620710151,-12.09345742973577,0.6068970263859031,-0.8348293553577406
19.5257351398468,0.13356050848960876,0.10392529517412186,-3.454690933227539,7.984817890331619e-05,0.002744913101196289,0.14896202087402344,3.8047704386332732,-11.723402418845664,-0.5774471282959279,0.7623074940883705,0.4035820146279824,0.013885459035095606,0.006243550866307892,4.237690744926638,3.4664034687615253,-11.605475659525146,-12.147387421420868,0.6068970263859031,-0.8348293553577406
19.535456657409668,0.13410073518753052,0.09912256896495819,-3.4413950443267822,6.464402501711597e-05,0.0048902034759521484,0.14896202087402344,3.7932839471851003,-11.687058802440285,-0.5922958262745984,0.7622886514740188,0.4669371433518221,0.013544605010245937,0.009427024191624644,4.373159735109523,3.314696080551675,-11.460831622348769,-12.238128662147625,0.6068970263859031,-0.8348293553577406
19.54849123954773,0.13410073518753052,0.09912256896495819,-3.4413950443267822,6.464402501711597e-05,0.003107786178588867,0.14896202087402344,3.780882162872075,-11.648757673271971,-0.600335925997085,0.7619020094234936,0.5182445424895517,0.014418284370656988,0.009066967013704337,4.56544280080386,3.1048427076275376,-11.253757583082965,-12.387747970703588,0.6068970263859031,-0.8348293553577406
19.56398320198059,0.1357560008764267,0.0855335146188736,-3.4022791385650635,3.4318613166814393e-05,0.004479408264160156,0.14896202087402344,3.875331759029728,-11.95744834929742,-0.4074471282959278,0.7624354767598726,0.4272903467196215,0.014945043164226806,0.009749990651216128,3.921793071045252,3.8720865208493156,-12.034160363219101,-12.05822619987174,0.6068970263859031,-0.8348293553577406
19.580381393432617,0.13739582896232605,0.07314249128103256,-3.3643927574157715,3.89635225282875e-05,0.004628419876098633,0.14896202087402344,3.8694783850477252,-11.936349829296644,-0.4274471282959278,0.7629001569688519,0.30170921790107946,0.015109226355760131,0.010632542968907107,3.9296800472153874,3.858846773672018,-12.015413530106722,-12.051311232645752,0.5937899618550236,-0.8696806362460635
19.591026306152344,0.13739582896232605,0.07314249128103256,-3.3643927574157715,3.89635225282875e-05,0.0031723976135253906,0.14896202087402344,3.8629914834109593,-11.913633189647994,-0.4474471282959278,0.7625324075380236,0.29767469114159617,0.015295377708467369,0.01097112358471161,3.939939174959982,3.842171163868927,-11.993105054143259,-12.04508731951524,0.5937899618550236,-0.8696806362460635
19.759259700775146,0.1548129916191101,0.040591366589069366,-3.0910232067108154,0.0007476895403578793,0.004520416259765625,0.15656089782714844,3.855858808232907,-11.889256357330705,-0.4674471282959278,0.7611575669178081,-1.0,0.014222746355773716,0.013445272004834133,3.953411975367486,3.8211739084281175,-11.966482267348136,-12.040253551152004,0.5937899618550236,-0.8696806362460635
19.77320694923401,0.1548129916191101,0.040591366589069366,-3.0910232067108154,0.0007476895403578793,0.003588438034057617,0.15656089782714844,3.8480704255328453,-11.863174781284687,-0.48744712829592785,0.7608356942658107,-1.0,0.014654319196195623,0.009120905370802799,3.9713639899817905,3.794548052448261,-11.934488545814295,-12.03780707092194,0.5185244096050355,-0.8247234025039841
19.783138751983643,0.1581318974494934,0.042795468121767044,-3.054171085357666,0.000903585493714304,0.002841472625732422,0.15656089782714844,3.8396188597817216,-11.835341545523901,-0.5074471282959279,0.761161739537933,-1.0,0.01417683406827541,0.007261985315575774,3.9956929242917107,3.760357665541405,-11.895648699589307,-12.039157817603805,0.5185244096050355,-0.8247234025039841
19.792832851409912,0.15920911729335785,0.043837230652570724,-3.0421266555786133,0.0009616902728722121,0.0026886463165283203,0.15656089782714844,3.8304992349251092,-11.805707489812491,-0.5274471282959279,0.7610404103799147,-1.0,0.01391727974798526,0.006363723997158692,4.029225960799616,3.715740862067372,-11.847935605037538,-12.046262043803038,0.5185244096050355,-0.8247234025039841
19.802009344100952,0.1602722704410553,0.04503617435693741,-3.0302000045776367,0.0010212936284900859,0.0028228759765625,0.15656089782714844,3.82070940954569,-11.774221337569754,-0.5474471282959279,0.7608622711664185,-1.0,0.01388357142129486,0.0060096398524007565,4.076154072397157,3.656475813574539,-11.787821661375885,-12.06257102790537,0.5185244096050355,-0.8247234025039841
19.811588525772095,0.16235700249671936,0.04792153835296631,-3.006751537322998,0.0011410742434785487,0.002719879150390625,0.15656089782714844,3.810250105849989,-11.740829830656747,-0.5674471282959279,0.760690680473957,-1.0,0.014047548326120611,0.006018373539272594,4.142678653514044,3.5763344351202133,-11.709852620710151,-12.09345742973577,0.5185244096050355,-0.8247234025039841
