time,x,y,z,yaw,ctrl_comp_time,rollout_comptime,y_ref,z_ref,yaw_ref,throttle,roll_rate,pitch_rate,yaw_rate,save_tube_pyH,save_tube_pyL,save_tube_pzH,save_tube_pzL,wy,wz
15.003403186798096,-0.011677911505103111,3.8910059928894043,-12.703579902648926,0.0012546266020102446,0.17991185188293457,0.11701512336730957,3.8891250704646443,-12.65610683921227,-0.13695336092186347,0.5917607424429058,-1.0,0.009688921791883034,0.016713065162600432,3.9132615542446607,3.864117873661779,-12.658085829424751,-12.667027641325948,0.05760333604484134,0.12331026492482058
15.55687665939331,-0.011677911505103111,3.8910059928894043,-12.703579902648926,0.0012546266020102446,0.15746235847473145,0.10224294662475586,3.8899468510271897,-12.642226912754296,-0.1569533609218635,0.5913344344942174,-1.0,0.018910071983122244,0.04821175729358936,3.924368060502211,3.854722596120535,-12.64194365482507,-12.65671558135684,0.05760333604484134,0.12331026492482058
15.743927478790283,0.036947280168533325,3.9086685180664062,-12.627059936523438,-0.00297455520695662,0.0026526451110839844,0.10160112380981445,3.890678834719193,-12.627051735763498,-0.1769533609218635,0.5896255389288138,-1.0,0.09860506706562523,0.15902318297298026,3.9380483405873843,3.8426035383138886,-12.622975322627488,-12.646625535379506,0.02073193860750333,-5.510410479496557
15.753240585327148,0.036947280168533325,3.9086685180664062,-12.627059936523438,-0.00297455520695662,0.002750396728515625,0.10160112380981445,3.8912907301627344,-12.610593301009851,-0.19695336092186352,0.5882587580438031,-1.0,0.28784325519864806,0.47951159148649014,3.954974559944713,3.8270288826859296,-12.60054079841212,-12.637423728022258,0.02980218719880509,-7.104439040946618
15.762170791625977,0.03905023634433746,3.909475088119507,-12.62590503692627,-0.0029732973833111707,0.002072572708129883,0.10160112380981445,3.891751389427458,-12.592861353231351,-0.21695336092186354,0.5867484336725539,-1.0,0.44149027863905366,0.639755795743245,3.976154905477375,3.8069289780648172,-12.573704262397612,-12.630067730651913,0.02980218719880509,-7.104439040946618
15.771889448165894,0.041060589253902435,3.9102554321289062,-12.624695777893066,-0.0029665430312917546,0.005537986755371094,0.10160112380981445,3.892028909380482,-12.573863335131756,-0.23695336092186356,0.5852441191917701,-1.0,0.5490431950473376,0.7198778978716226,4.003112196299055,3.7807179285661285,-12.541080816259681,-12.625959641953713,0.02980218719880509,-7.104439040946618
15.78408670425415,0.041060589253902435,3.9102554321289062,-12.624695777893066,-0.0029665430312917546,0.0030167102813720703,0.10160112380981445,3.8920907359106076,-12.553604338080264,-0.25695336092186355,0.5838606421865796,-1.0,0.6243302365331362,0.7599389489358114,4.038155697914585,3.7460219850435914,-12.500603579435618,-12.62717888829022,0.02980218719880509,-7.104439040946618
15.793811798095703,0.042985688894987106,3.9110066890716553,-12.62336254119873,-0.0028885835652326763,0.0022525787353515625,0.10160112380981445,3.8919037707950874,-12.532087057643261,-0.27695336092186357,0.5833589143399974,-1.0,0.6770311655731954,0.7799694744679057,4.084784426663493,3.6992764517951104,-12.449174523124798,-12.636831295901167,0.02980218719880509,-7.104439040946618
15.801496267318726,0.044272612780332565,3.9116809368133545,-12.622806549072266,-0.0027635522466954664,0.0034112930297851562,0.10160112380981445,3.8914344809721437,-12.509311754066518,-0.2969533609218636,0.5829100370906467,-1.0,0.7139218159012368,0.7899847372339529,4.148247564353537,3.6351654881283055,-12.382168953032286,-12.659544524145701,0.02980218719880509,-7.104439040946618
15.931986570358276,0.06267459690570831,3.921780586242676,-12.588394165039062,0.011559780086700062,0.002300739288330078,0.118988037109375,3.8906490099779782,-12.48527621781419,-0.3169533609218636,0.6174909495802579,-0.3229880561164544,0.7397452711308657,0.7949923686169765,4.236216200337077,3.545950587054494,-12.292383691284785,-12.702519809582538,0.02980218719880509,-7.104439040946618
15.943732261657715,0.06267459690570831,3.921780586242676,-12.588394165039062,0.011559780086700062,0.0021626949310302734,0.118988037109375,3.8895132913031576,-12.459975740258923,-0.3369533609218636,0.6162151454099685,-0.3875579798109541,0.757821689791606,0.7974961843084883,4.359288184168002,3.4209659474868737,-12.167484692551715,-12.778084286055954,0.08243971410201192,-2.159155554646235
15.951611042022705,0.06491461396217346,3.923725128173828,-12.581308364868164,0.014361419942278082,0.0035059452056884766,0.118988037109375,3.887993163420035,-12.433403089605065,-0.35695336092186364,0.6186488436692807,-0.342554185433822,0.7704751828541242,0.7987480921542441,4.530688513424436,3.2469183148640584,-11.989888645926257,-12.903809329409073,0.08243971410201192,-2.159155554646235
15.962054014205933,0.0659399926662445,3.9245898723602295,-12.577476501464844,0.01583021123022669,0.002002239227294922,0.118988037109375,3.8955431098955695,-12.65238907216199,-0.12717615290608936,0.6192520906824702,-0.3530740427158965,0.7793326279978869,0.799374046077122,3.9154369374178333,3.874862409570638,-12.655088634500231,-12.661959991658044,0.08243971410201192,-2.159155554646235
15.971895217895508,0.06778398156166077,3.9260854721069336,-12.569192886352539,0.018896425220264287,0.003313779830932617,0.118988037109375,3.896291681053222,-12.639132255027711,-0.14717615290608937,0.6217189376365876,-0.3031944316220201,0.7855328395985208,0.799687023038561,3.925331488925121,3.866518451659584,-12.640157914928455,-12.651690878845098,0.08243971410201192,-2.159155554646235
15.981432676315308,0.0685967355966568,3.9267075061798096,-12.56475830078125,0.020495763291836708,0.0018696784973144531,0.118988037109375,3.8969650346616427,-12.624572775676992,-0.1671761529060894,0.6221651710738407,-0.31484984499613855,0.7898729877189646,0.7998435115192805,3.937554901695003,3.8557243044300606,-12.622644348775928,-12.641384613950642,0.08243971410201192,-2.159155554646235
15.9920814037323,0.06933501362800598,3.9272401332855225,-12.560144424438477,0.022141972258544446,0.0029015541076660156,0.118988037109375,3.8975333253004463,-12.608723680876569,-0.1871761529060894,0.6225682605092623,-0.3300064295257694,0.7929110914032753,0.7999217557596402,3.952657349064822,3.8418710802226403,-12.602017184925087,-12.631600216726177,0.08243971410201192,-2.159155554646235
16.00155520439148,0.06999613344669342,3.927680253982544,-12.555397033691406,0.023837027395087806,0.002653837203979492,0.118988037109375,3.897965803925878,-12.591595797322949,-0.20717615290608943,0.6229465493106904,-0.34926581493343156,0.7950377639822928,0.7999608778798201,3.9714631861612957,3.8240738048761083,-12.577504549075076,-12.623133449555054,0.08243971410201192,-2.159155554646235
16.011561393737793,0.07107678800821304,3.928269863128662,-12.545385360717773,0.02736126796203997,0.002022266387939453,0.118988037109375,3.898230917714821,-12.57319767543688,-0.22717615290608945,0.6250045337726444,-0.31819433567723765,0.796526434787605,0.79998043893991,3.9952129478137,3.8010296163496418,-12.547970465599532,-12.617139678659806,0.08243971410201192,-2.159155554646235
16.02188730239868,0.07149156928062439,3.9284141063690186,-12.54012393951416,0.029187022351009617,0.0031251907348632812,0.118988037109375,3.898296412893391,-12.553535537790685,-0.24717615290608946,0.625368123106701,-0.3471355880806416,0.7975685043513235,0.799990219469955,4.025785020770224,3.7707962952355873,-12.51172551991904,-12.615323103916083,0.08243971410201192,-2.159155554646235
16.031501293182373,0.07181941717863083,3.928455114364624,-12.534695625305176,0.031052963159712912,0.0019507408142089844,0.118988037109375,3.8981294403211133,-12.532613232304312,-0.2671761529060895,0.6257336071773194,-0.3797440477638282,0.7982979530459264,0.7999951097349774,4.066028705158802,3.7304594117693526,-12.466240635288848,-12.620222883655838,0.08243971410201192,-2.159155554646235
16.04180097579956,0.07205775380134583,3.9283909797668457,-12.529098510742188,0.03296422337599403,0.002677440643310547,0.118988037109375,3.897696663596328,-12.510432190334246,-0.2871761529060895,0.6261056415122804,-0.4158319826046436,0.7988085671321485,0.7999975548674888,4.12024568308918,3.67565107097613,-12.407726652817065,-12.635633465904515,-0.08790457875203939,-1.714814601840212
16.18013596534729,0.06474244594573975,3.9117114543914795,-12.401545524597168,0.07476523088610867,0.0018520355224609375,0.12922310829162598,3.8969643694437055,-12.486991389767478,-0.3071761529060895,0.6550883568498469,-0.06674956167819524,0.48831703778530366,0.7999987774337444,4.194820894444741,3.599919255432318,-12.330481955904823,-12.667256885097208,-0.08790457875203939,-1.714814601840212
16.18681526184082,0.06474244594573975,3.9117114543914795,-12.401545524597168,0.07476523088610867,0.0024688243865966797,0.12922310829162598,3.8958985801406176,-12.462287323220794,-0.32717615290608953,0.653835986590783,-0.1766285429554817,0.30092064484220876,0.7999993887168723,4.298870543160251,3.4940800418629525,-12.22475302907809,-12.724842134516589,0.09089613061981208,-0.721997757090194
16.19454288482666,0.06474244594573975,3.9117114543914795,-12.401545524597168,0.07476523088610867,0.0023450851440429688,0.12922310829162598,3.8944651677355653,-12.436313971433352,-0.34717615290608955,0.6525791984703847,-0.289503738707359,0.19381712046851463,0.7999996943584361,4.444387586346202,3.3460723387242473,-12.075869202737143,-12.823050363114803,0.09089613061981208,-0.721997757090194
16.20150136947632,0.06252329796552658,3.9069995880126953,-12.384505271911621,0.08029631740628135,0.0025942325592041016,0.12922310829162598,3.895543109895556,-12.65238907216199,-0.12717615290608936,0.6553529891327154,-0.28525434952389084,0.08429938775377406,0.7700021640913652,3.915436937417822,3.874862409570627,-12.655088634500231,-12.661959991658044,0.09089613061981208,-0.721997757090194
16.211742639541626,0.06252329796552658,3.9069995880126953,-12.384505271911621,0.08029631740628135,0.0024025440216064453,0.12922310829162598,3.896291681053204,-12.639132255027711,-0.14717615290608937,0.6540940576598486,-0.4044078738963377,0.005796862271763882,0.6164697285495935,3.925331488925105,3.866518451659568,-12.640157914928455,-12.651690878845098,0.09089613061981208,-0.721997757090194
16.22176742553711,0.05796905606985092,3.898926019668579,-12.357623100280762,0.08910774036922242,0.007226705551147461,0.12922310829162598,3.8969650346616183,-12.624572775676992,-0.1671761529060894,0.65877456477432,-0.3378182666149466,-0.18466516486413495,0.41246374512987244,3.9375549016949813,3.855724304430039,-12.622644348775928,-12.641384613950638,0.09089613061981208,-0.721997757090194
16.23651361465454,0.05796905606985092,3.898926019668579,-12.357623100280762,0.08910774036922242,0.0038368701934814453,0.12922310829162598,3.897533325300415,-12.608723680876567,-0.1871761529060894,0.6575178624559905,-0.4635426862943386,-0.3692656154048945,-0.02638890396591318,3.952657349064794,3.841871080222612,-12.602017184925087,-12.631600216726172,0.09089613061981208,-0.721997757090194
16.24700403213501,0.054061952978372574,3.8928258419036865,-12.338854789733887,0.09589578012540197,0.0023298263549804688,0.12922310829162598,3.897965803925839,-12.591595797322947,-0.20717615290608943,0.6599654809163745,-0.4642431204784303,-0.4984859307834261,-0.4131944519829566,3.9714631861612606,3.8240738048760723,-12.577504549075076,-12.623133449555047,-0.023373784234797745,-0.9949403330970129
16.253339052200317,0.054061952978372574,3.8928258419036865,-12.338854789733887,0.09589578012540197,0.0029082298278808594,0.12922310829162598,3.8982309177147725,-12.573197675436877,-0.22717615290608945,0.658710429830861,-0.5965420780655375,-0.5889401515483983,-0.6065972259914784,3.995212947813657,3.8010296163495965,-12.547970465599533,-12.617139678659795,-0.023373784234797745,-0.9949403330970129
16.262114763259888,0.04685066640377045,3.8825838565826416,-12.309659004211426,0.10796921525028207,0.0026044845581054688,0.12922310829162598,3.898296412893332,-12.553535537790678,-0.24717615290608946,0.6629786964593218,-0.541671953029264,-0.6522581060838789,-0.7032986129957391,4.025785020770172,3.7707962952355314,-12.511725519919043,-12.615323103916069,-0.023373784234797745,-0.9949403330970129
16.27190899848938,0.04685066640377045,3.8825838565826416,-12.309659004211426,0.10796921525028207,0.005917549133300781,0.12922310829162598,3.898129440321043,-12.532613232304305,-0.2671761529060895,0.6617329686066208,-0.6809101494486118,-0.6965806742587152,-0.7516493064978697,4.066028705158741,3.730459411769284,-12.466240635288855,-12.620222883655819,-0.023373784234797745,-0.9949403330970129
16.40476393699646,0.04685066640377045,3.8825838565826416,-12.309659004211426,0.10796921525028207,0.0047342777252197266,0.1179811954498291,3.897696663596245,-12.510432190334235,-0.2871761529060895,0.6510926592012197,-1.0,-0.7276064719811006,-0.7758246532489349,4.120245683089109,3.6756510709760475,-12.407726652817077,-12.635633465904487,-0.023373784234797745,-0.9949403330970129
16.415216207504272,-0.032145656645298004,3.7881922721862793,-12.127100944519043,0.1819740416916941,0.0023310184478759766,0.1179811954498291,3.8969643694436087,-12.486991389767466,-0.3071761529060895,0.6775739722486109,0.5599061061075279,-0.7493245303867705,-0.7879123266244673,4.194820894444661,3.5999192554322192,-12.330481955904835,-12.667256885097178,-0.22724319158547104,-1.6418670422384904
16.425551414489746,-0.032145656645298004,3.7881922721862793,-12.127100944519043,0.1819740416916941,0.003086090087890625,0.1179811954498291,3.8958985801405057,-12.46228732322078,-0.32717615290608953,0.6763897506059894,0.4141974885988329,-0.7645271712707394,-0.7939561633122336,4.298870543160157,3.4940800418628393,-12.224753029078094,-12.72484213451656,-0.22724319158547104,-1.6418670422384904
16.433035373687744,-0.05269453302025795,3.765272617340088,-12.092082977294922,0.1918107165728896,0.0023946762084960938,0.1179811954498291,3.8944651677354365,-12.436313971433334,-0.34717615290608955,0.6804533899549643,0.6583697661679246,-0.7751690198895177,-0.7969780816561168,4.444387586346084,3.3460723387241256,-12.075869202737147,-12.82305036311477,-0.22724319158547104,-1.6418670422384904
16.441711902618408,-0.05269453302025795,3.765272617340088,-12.092082977294922,0.1918107165728896,0.0031960010528564453,0.1179811954498291,3.895924970292337,-12.645924396886778,-0.13717615290608937,0.679265566019194,0.5055465695139296,-0.7826183139226625,-0.7984890408280585,3.915436937417822,3.874862409570627,-12.655088634500231,-12.661959991658044,-0.10895348172171739,-1.394165168465717
16.45148777961731,-0.06899116933345795,3.748380422592163,-12.068674087524414,0.1974440456450069,0.003609180450439453,0.1179811954498291,3.8966396030625106,-12.632014481363287,-0.15717615290608938,0.681614220177665,0.623931682969,-0.7878328197458637,-0.7992445204140293,3.925331488925105,3.866518451659568,-12.640157914928455,-12.651690878845098,-0.10895348172171739,-1.394165168465717
16.461669206619263,-0.08561097830533981,3.7307465076446533,-12.044790267944336,0.20258825982813217,0.0027031898498535156,0.1179811954498291,3.8972642146437035,-12.616808700825633,-0.1771761529060894,0.6839957130898049,0.7478315996915379,-0.7914829738221046,-0.7996222602070147,3.9375549016949813,3.855724304430039,-12.622644348775928,-12.641384613950638,-0.10895348172171739,-1.394165168465717
16.471813440322876,-0.09403517842292786,3.7216382026672363,-12.032644271850586,0.20495883750576455,0.0043261051177978516,0.1179811954498291,3.897768495518667,-12.600318999315064,-0.19717615290608942,0.6844798541737113,0.7283596019137817,-0.7940380816754733,-0.7998111301035074,3.952657349064794,3.841871080222612,-12.602017184925087,-12.631600216726172,-0.10895348172171739,-1.394165168465717
16.481499195098877,-0.10252036154270172,3.712329864501953,-12.020374298095703,0.20717529758098546,0.0023889541625976562,0.1179811954498291,3.8981212820816276,-12.582555072129667,-0.21717615290608944,0.684934280626633,0.7017906915599543,-0.7958266571728313,-0.7999055650517537,3.9714631861612606,3.8240738048760723,-12.577504549075076,-12.623133449555047,-0.10895348172171739,-1.394165168465717
16.491851091384888,-0.11107543110847473,3.702815294265747,-12.00798225402832,0.20921805479183836,0.0032792091369628906,0.1179811954498291,3.898290658002853,-12.563524311917558,-0.23717615290608945,0.6853770745852683,0.6663272409393306,-0.7970786600209819,-0.7999527825258769,3.995212947813657,3.8010296163495965,-12.547970465599533,-12.617139678659795,-0.10895348172171739,-1.394165168465717
16.501540422439575,-0.12838232517242432,3.6831607818603516,-11.982836723327637,0.21290334254456927,0.003228902816772461,0.1179811954498291,3.8982440584640137,-12.543231759472338,-0.2571761529060895,0.6874154212049253,0.7454239563136689,-0.7979550620146874,-0.7999763912629384,4.025785020770172,3.7707962952355314,-12.511725519919043,-12.615323103916069,-0.10895348172171739,-1.394165168465717
16.511618852615356,-0.13712817430496216,3.6730191707611084,-11.97014331817627,0.21455929502223658,0.002622365951538086,0.1179811954498291,3.8979483770325793,-12.521680059360783,-0.2771761529060895,0.6878090753929953,0.6845636535200832,-0.7985685434102812,-0.7999881956314693,4.066028705158741,3.730459411769284,-12.466240635288855,-12.620222883655819,-0.10895348172171739,-1.394165168465717
16.637764930725098,-0.28135210275650024,3.487299680709839,-11.774579048156738,0.2248023168270388,0.0032198429107666016,0.11689925193786621,3.8973700749384412,-12.498869420501007,-0.2971761529060895,0.7029905478944407,0.3943678047027477,-0.7989979803871968,-0.7999940978157347,4.120245683089109,3.6756510709760475,-12.407726652817077,-12.635633465904487,-0.10895348172171739,-1.394165168465717
16.647490978240967,-0.29139283299446106,3.4732260704040527,-11.760932922363281,0.22447044625033538,0.0022869110107421875,0.11689925193786621,3.8964752925114987,-12.47479758179733,-0.3171761529060895,0.7033063549400329,0.2732568665103585,-0.7992985862710378,-0.7999970489078674,4.194820894444661,3.5999192554322192,-12.330481955904835,-12.667256885097178,0.11251858456068774,-1.0000272089711477
16.6546733379364,-0.3014369308948517,3.459003210067749,-11.747178077697754,0.22401512714938443,0.0031211376190185547,0.11689925193786621,3.895229962535106,-12.44945978292596,-0.33717615290608954,0.7036355477560131,0.1467536941263501,-0.7995090103897264,-0.7999985244539337,4.298870543160157,3.4940800418628393,-12.224753029078094,-12.72484213451656,0.11251858456068774,-1.0000272089711477
16.662395238876343,-0.3014369308948517,3.459003210067749,-11.747178077697754,0.22401512714938443,0.002929210662841797,0.11689925193786621,3.8935999252670426,-12.422848740353425,-0.35717615290608956,0.7028569550508273,-0.06058834637805255,-0.7996563072728086,-0.7999992622269669,4.444387586346084,3.3460723387241256,-12.075869202737147,-12.82305036311477,0.11251858456068774,-1.0000272089711477
16.671621322631836,-0.3315645158290863,3.415475606918335,-11.705440521240234,0.22191501781730708,0.0048923492431640625,0.11689925193786621,3.896291681053204,-12.639132255027711,-0.14717615290608937,0.7054291357086021,-0.049931433765695976,-0.799759415090966,-0.7999996311134835,3.915436937417822,3.874862409570627,-12.655088634500231,-12.661959991658044,0.11251858456068774,-1.0000272089711477
16.683804988861084,-0.3315645158290863,3.415475606918335,-11.705440521240234,0.22191501781730708,0.0046863555908203125,0.11689925193786621,3.8969650346616183,-12.624572775676992,-0.1671761529060894,0.704722676029365,-0.26494143637893663,-0.7998315905636763,-0.7999998155567418,3.925331488925105,3.866518451659568,-12.640157914928455,-12.651690878845098,0.11251858456068774,-1.0000272089711477
16.694533824920654,-0.3516984283924103,3.382455587387085,-11.678988456726074,0.2200007575408927,0.002912282943725586,0.11689925193786621,3.897533325300415,-12.608723680876567,-0.1871761529060894,0.7059963331102372,-0.3244479373634501,-0.7998821133945734,-0.7999999077783709,3.9375549016949813,3.855724304430039,-12.622644348775928,-12.641384613950638,0.11251858456068774,-1.0000272089711477
16.701472282409668,-0.3717852234840393,3.3490450382232666,-11.652087211608887,0.2177254580273588,0.0034241676330566406,0.11689925193786621,3.897965803925839,-12.591595797322947,-0.20717615290608943,0.707093221115235,-0.38319952516579847,-0.7999174793762014,-0.7999999538891855,3.952657349064794,3.841871080222612,-12.602017184925087,-12.631600216726172,0.11251858456068774,-1.0000272089711477
16.71180009841919,-0.38180485367774963,3.3321945667266846,-11.638538360595703,0.2164256569522767,0.002579927444458008,0.11689925193786621,3.8982309177147725,-12.573197675436877,-0.22717615290608945,0.7073169996129756,-0.5238242743776429,-0.799942235563341,-0.7999999769445928,3.9714631861612606,3.8240738048760723,-12.577504549075076,-12.623133449555047,0.11251858456068774,-1.0000272089711477
16.721628665924072,-0.3918044865131378,3.3152501583099365,-11.624893188476562,0.21502296689567885,0.0034918785095214844,0.11689925193786621,3.898296412893332,-12.553535537790678,-0.24717615290608946,0.7075665040476043,-0.6649268618650899,-0.7999595648943387,-0.7999999884722964,3.995212947813657,3.8010296163495965,-12.547970465599533,-12.617139678659795,0.11251858456068774,-1.0000272089711477
16.731595754623413,-0.40178078413009644,3.298213481903076,-11.611154556274414,0.21352201549406996,0.0025010108947753906,0.11689925193786621,3.898129440321043,-12.532613232304305,-0.2671761529060895,0.7078441781735492,-0.7879156661406417,-0.7999716954260371,-0.7999999942361482,4.025785020770172,3.7707962952355314,-12.511725519919043,-12.615323103916069,0.11251858456068774,-1.0000272089711477
16.74190068244934,-0.42164963483810425,3.2638702392578125,-11.583404541015625,0.21024396782435753,0.003412485122680664,0.11689925193786621,3.897696663596245,-12.510432190334235,-0.2871761529060895,0.7089610246542597,-0.6453923859216535,-0.7999801867982259,-0.7999999971180741,4.066028705158741,3.730459411769284,-12.466240635288855,-12.620222883655819,0.22899830361458692,-1.2019895961456457
16.871015310287476,-0.574397087097168,2.97037935256958,-11.352132797241211,0.17638832471317065,0.0036187171936035156,0.11870861053466797,3.8969643694436087,-12.486991389767466,-0.3071761529060895,0.7049714639018696,1.0,-0.7999861307587581,-0.6117629410468184,4.120245683089109,3.6756510709760475,-12.407726652817077,-12.635633465904487,0.22899830361458692,-1.2019895961456457
16.880544662475586,-0.574397087097168,2.97037935256958,-11.352132797241211,0.17638832471317065,0.0023016929626464844,0.11870861053466797,3.8958985801405057,-12.46228732322078,-0.32717615290608953,0.704049752131252,1.0,-0.7999902915311307,-0.5093557350962516,4.194820894444661,3.5999192554322192,-12.330481955904835,-12.667256885097178,0.3171812289408841,-1.385574102023222
16.88796329498291,-0.5833235383033752,2.9509503841400146,-11.337106704711914,0.17402342919110952,0.003443479537963867,0.11870861053466797,3.8944651677354365,-12.436313971433334,-0.34717615290608955,0.7040293992576817,1.0,-0.7999932040717914,-0.49789148757811125,4.298870543160157,3.4940800418628393,-12.224753029078094,-12.72484213451656,0.3171812289408841,-1.385574102023222
16.89717125892639,-0.5921428203582764,2.931415319442749,-11.321993827819824,0.1716384321790745,0.00247955322265625,0.11870861053466797,3.8926299698088065,-12.409062781928316,-0.36717615290608957,0.7040181938983123,1.0,-0.799995242850254,-0.49432409077704464,4.444387586346084,3.3460723387241256,-12.075869202737147,-12.82305036311477,0.3171812289408841,-1.385574102023222
16.906095027923584,-0.609437882900238,2.8920040130615234,-11.291508674621582,0.16683497631825872,0.003956794738769531,0.11870861053466797,3.8966396030625106,-12.632014481363287,-0.15717615290608938,0.7049523313390819,1.0,-0.7941317559780641,-0.49012150698805423,3.915436937417822,3.874862409570627,-12.655088634500231,-12.661959991658044,0.3171812289408841,-1.385574102023222
16.9137179851532,-0.609437882900238,2.8920040130615234,-11.291508674621582,0.16683497631825872,0.002371072769165039,0.11870861053466797,3.8972642146437035,-12.616808700825633,-0.1771761529060894,0.7040220434750746,1.0,-0.7916969741455223,-0.4859464261925536,3.925331488925105,3.866518451659568,-12.640157914928455,-12.651690878845098,0.3171812289408841,-1.385574102023222
16.921658039093018,-0.6262512803077698,2.85212779045105,-11.260810852050781,0.1620908931318786,0.0035991668701171875,0.11870861053466797,3.897768495518667,-12.600318999315064,-0.19717615290608942,0.7048387199196506,1.0,-0.7444647549185324,-0.48077829347374673,3.9375549016949813,3.855724304430039,-12.622644348775928,-12.641384613950638,0.3171812289408841,-1.385574102023222
16.931540966033936,-0.634465217590332,2.832003116607666,-11.245347023010254,0.15977814707037907,0.0024421215057373047,0.11870861053466797,3.8981212820816276,-12.582555072129667,-0.21717615290608944,0.7047762639126051,1.0,-0.702480751678621,-0.4576479871643837,3.952657349064794,3.841871080222612,-12.602017184925087,-12.631600216726172,0.3171812289408841,-1.385574102023222
16.943359851837158,-0.651735782623291,2.7909095287323,-11.215067863464355,0.1553203670334992,0.0028905868530273438,0.11870861053466797,3.898290658002853,-12.563524311917558,-0.23717615290608945,0.7056292776979137,1.0,-0.6377159254706057,-0.43225196302138674,3.9714631861612606,3.8240738048760723,-12.577504549075076,-12.623133449555047,0.17064081770578413,-1.7022254919042519
16.95141077041626,-0.6601366996765137,2.770177125930786,-11.199786186218262,0.15312596142026552,0.0029020309448242188,0.11870861053466797,3.8982440584640137,-12.543231759472338,-0.2571761529060895,0.7056375021305916,1.0,-0.5875578604129469,-0.39873017935691507,3.995212947813657,3.8010296163495965,-12.547970465599533,-12.617139678659795,0.17064081770578413,-1.7022254919042519
16.96168613433838,-0.6683778166770935,2.7493233680725098,-11.184464454650879,0.15089532834165872,0.0026254653930664062,0.11870861053466797,3.8979483770325793,-12.521680059360783,-0.2771761529060895,0.7056652744895685,1.0,-0.5427657064404966,-0.36902499449017023,4.025785020770172,3.7707962952355314,-12.511725519919043,-12.615323103916069,0.17064081770578413,-1.7022254919042519
16.971500873565674,-0.6764624118804932,2.7283477783203125,-11.16904354095459,0.1486176823281588,0.003607511520385742,0.11870861053466797,3.8973700749384412,-12.498869420501007,-0.2971761529060895,0.7057105056006363,1.0,-0.5003479117414424,-0.34349845630442444,4.066028705158741,3.730459411769284,-12.466240635288855,-12.620222883655819,0.17064081770578413,-1.7022254919042519
17.1015522480011,-0.7830051183700562,2.3502111434936523,-10.90052604675293,0.09966997797168126,0.003561258316040039,0.12009286880493164,3.8964752925114987,-12.47479758179733,-0.3171761529060895,0.7245624205803769,1.0,-0.07429180933579618,-0.48917801232536073,4.120245683089109,3.6756510709760475,-12.407726652817077,-12.635633465904487,0.17064081770578413,-1.7022254919042519
17.112332105636597,-0.7872915267944336,2.32684588432312,-10.884499549865723,0.09651697329765851,0.0023756027221679688,0.12009286880493164,3.895229962535106,-12.44945978292596,-0.33717615290608954,0.7248919473911482,1.0,0.08575450150375498,-0.34523689953448666,4.194820894444661,3.5999192554322192,-12.330481955904835,-12.667256885097178,0.5116442483436316,-0.5664681233451443
17.12178635597229,-0.7913866639137268,2.30346417427063,-10.868359565734863,0.09332925106294224,0.006140947341918945,0.12009286880493164,3.8935999252670426,-12.422848740353425,-0.35717615290608956,0.7252515816990694,1.0,0.17647086091308778,-0.23776073966689848,4.298870543160157,3.4940800418628393,-12.224753029078094,-12.72484213451656,0.5116442483436316,-0.5664681233451443
17.135101318359375,-0.7913866639137268,2.30346417427063,-10.868359565734863,0.09332925106294224,0.004774570465087891,0.12009286880493164,3.8915510448770805,-12.39495462865732,-0.3771761529060896,0.7246814262287904,1.0,0.2159249051356984,-0.16487346422262744,4.444387586346084,3.3460723387241256,-12.075869202737147,-12.82305036311477,0.5116442483436316,-0.5664681233451443
17.14684295654297,-0.8025079965591431,2.2332706451416016,-10.819265365600586,0.08353729923683664,0.0018911361694335938,0.12009286880493164,3.8969650346616183,-12.624572775676992,-0.1671761529060894,0.7270273877396822,1.0,0.3048750271443852,-0.14610006940503828,3.915436937417822,3.874862409570627,-12.655088634500231,-12.661959991658044,0.5955684650107981,-0.2859113237484768
17.15192151069641,-0.8025079965591431,2.2332706451416016,-10.819265365600586,0.08353729923683664,0.003253459930419922,0.12009286880493164,3.897533325300415,-12.608723680876567,-0.1871761529060894,0.7264384423167154,1.0,0.3405163659672156,-0.10995645828581155,3.925331488925105,3.866518451659568,-12.640157914928455,-12.651690878845098,0.5955684650107981,-0.2859113237484768
17.16542148590088,-0.8089163899421692,2.1864798069000244,-10.786101341247559,0.07663160247305047,0.0035161972045898438,0.12009286880493164,3.897965803925839,-12.591595797322947,-0.20717615290608943,0.7275238210235532,1.0,0.39893779669777496,-0.09803958434272247,3.9375549016949813,3.855724304430039,-12.622644348775928,-12.641384613950638,0.5955684650107981,-0.2859113237484768
17.174404859542847,-0.8089163899421692,2.1864798069000244,-10.786101341247559,0.07663160247305047,0.0030176639556884766,0.12009286880493164,3.8982309177147725,-12.573197675436877,-0.22717615290608945,0.7269168880585544,1.0,0.4222334805198253,-0.0738737142857111,3.952657349064794,3.841871080222612,-12.602017184925087,-12.631600216726172,0.5955684650107981,-0.2859113237484768
17.182025909423828,-0.8161949515342712,2.115358591079712,-10.736059188842773,0.06583245507285057,0.001984119415283203,0.12009286880493164,3.898296412893332,-12.553535537790678,-0.24717615290608946,0.7286687588187131,1.0,0.4805285772683252,-0.07185372960640263,3.9714631861612606,3.8240738048760723,-12.577504549075076,-12.623133449555047,0.5955684650107981,-0.2859113237484768
17.191880464553833,-0.8176983594894409,2.0910255908966064,-10.71937084197998,0.06250641876080923,0.0032639503479003906,0.12009286880493164,3.898129440321043,-12.532613232304305,-0.2671761529060895,0.7288158858420082,1.0,0.5153916885602596,-0.0537470323195004,3.995212947813657,3.8010296163495965,-12.547970465599533,-12.617139678659795,0.5955684650107981,-0.2859113237484768
17.201491117477417,-0.8189975023269653,2.066741943359375,-10.702605247497559,0.05922398947038004,0.003298521041870117,0.12009286880493164,3.897696663596245,-12.510432190334235,-0.2871761529060895,0.728962058084467,1.0,0.5405023857980361,-0.036783252142580464,4.025785020770172,3.7707962952355314,-12.511725519919043,-12.615323103916069,0.5955684650107981,-0.2859113237484768
17.319215297698975,-0.8133866190910339,1.709575891494751,-10.445598602294922,0.021873591976381994,0.004487514495849609,0.10763931274414062,3.8969643694436087,-12.486991389767466,-0.3071761529060895,0.7167745639569143,0.834755756801965,0.5828754544990564,0.00532059305447824,4.066028705158741,3.730459411769284,-12.466240635288855,-12.620222883655819,0.5955684650107981,-0.2859113237484768
17.333291053771973,-0.8133866190910339,1.709575891494751,-10.445598602294922,0.021873591976381994,0.0018465518951416016,0.10763931274414062,3.8958985801405057,-12.46228732322078,-0.32717615290608953,0.7158842823565639,0.8066532592914528,0.603102698784684,0.04174991568284492,4.120245683089109,3.6756510709760475,-12.407726652817077,-12.635633465904487,0.6901926951202386,-1.1973200574247869
17.34402346611023,-0.8049503564834595,1.6384481191635132,-10.39424991607666,0.01841362400575179,0.0024819374084472656,0.10763931274414062,3.8944651677354365,-12.436313971433334,-0.34717615290608955,0.7175593446272484,0.6953345481281527,0.6084086216620043,0.07663504194775825,4.194820894444661,3.5999192554322192,-12.330481955904835,-12.667256885097178,0.7163191147487769,-1.4434360372962174
17.351408004760742,-0.8018471598625183,1.6150628328323364,-10.376986503601074,0.017462558590977728,0.0022771358489990234,0.10763931274414062,3.8926299698088065,-12.409062781928316,-0.36717615290608957,0.717553839325089,0.638437516843199,0.6125514183528717,0.08840165549957005,4.298870543160157,3.4940800418628393,-12.224753029078094,-12.72484213451656,0.7163191147487769,-1.4434360372962174
17.36173939704895,-0.7986044883728027,1.5918474197387695,-10.359711647033691,0.016607195098027425,0.0027756690979003906,0.10763931274414062,3.89035890652403,-12.380522653007118,-0.3871761529060896,0.7175654907921074,0.5814855288913402,0.6129004274531781,0.09758035045267119,4.444387586346084,3.3460723387241256,-12.075869202737147,-12.82305036311477,0.7163191147487769,-1.4434360372962174
17.371584177017212,-0.7952264547348022,1.5688058137893677,-10.342362403869629,0.01585311807776857,0.0028467178344726562,0.10763931274414062,3.8972642146437035,-12.616808700825633,-0.1771761529060894,0.717622261950536,0.5249173031138556,0.6113642842219492,0.10418060092707834,3.915436937417822,3.874862409570627,-12.655088634500231,-12.661959991658044,0.7163191147487769,-1.4434360372962174
17.381555795669556,-0.7880698442459106,1.523270606994629,-10.307430267333984,0.014700182040787366,0.0021979808807373047,0.10763931274414062,3.897768495518667,-12.600318999315064,-0.19717615290608942,0.7187072610922,0.4281466105990761,0.6045754495332119,0.11612996504843537,3.925331488925105,3.866518451659568,-12.640157914928455,-12.651690878845098,0.7163191147487769,-1.4434360372962174
17.39215922355652,-0.7842994332313538,1.50078547000885,-10.28984546661377,0.014322865687710379,0.004581928253173828,0.10763931274414062,3.8981212820816276,-12.582555072129667,-0.21717615290608944,0.7188488619764566,0.3732544306736353,0.5992650064488528,0.11835440816909884,3.9375549016949813,3.855724304430039,-12.622644348775928,-12.641384613950638,0.7163191147487769,-1.4434360372962174
17.401411533355713,-0.7804099917411804,1.4784901142120361,-10.272180557250977,0.01407825557320079,0.002355813980102539,0.10763931274414062,3.898290658002853,-12.563524311917558,-0.23717615290608945,0.719016542399559,0.32085465864298335,0.5926192573403458,0.12100883653414385,3.952657349064794,3.841871080222612,-12.602017184925087,-12.631600216726172,0.7163191147487769,-1.4434360372962174
17.4117534160614,-0.7764053344726562,1.4563884735107422,-10.254500389099121,0.013954430862199926,0.0024945735931396484,0.10763931274414062,3.8982440584640137,-12.543231759472338,-0.2571761529060895,0.7192018488345744,0.27114330548176135,0.5850143187644089,0.12324361763135608,3.9714631861612606,3.8240738048760723,-12.577504549075076,-12.623133449555047,0.7163191147487769,-1.4434360372962174
17.421656847000122,-0.7680665254592896,1.4127795696258545,-10.218896865844727,0.014043171344352998,0.002467632293701172,0.10763931274414062,3.8979483770325793,-12.521680059360783,-0.2771761529060895,0.7204739854198448,0.18324608663193176,0.5702306501067722,0.1324773780527991,3.995212947813657,3.8010296163495965,-12.547970465599533,-12.617139678659795,0.7163191147487769,-1.4434360372962174
17.431599617004395,-0.7630184888839722,1.391327142715454,-10.20196533203125,0.014242437769878644,0.001973867416381836,0.10763931274414062,3.8973700749384412,-12.498869420501007,-0.2971761529060895,0.7206551253883555,0.1390970070662434,0.5601269714807247,0.12983426273956855,4.025785020770172,3.7707962952355314,-12.511725519919043,-12.615323103916069,0.7163191147487769,-1.4434360372962174
17.540231227874756,-0.7630184888839722,1.391327142715454,-10.20196533203125,0.014242437769878644,0.002950906753540039,0.09997844696044922,3.8964752925114987,-12.47479758179733,-0.3171761529060895,0.7132682872216217,1.0,0.5554669975913433,0.12175269454500147,4.066028705158741,3.730459411769284,-12.466240635288855,-12.620222883655819,0.6861321007109504,-0.981532354247184
17.54772686958313,-0.6960870623588562,1.1507384777069092,-9.991718292236328,0.02492183293578429,0.0019001960754394531,0.09997844696044922,3.895229962535106,-12.44945978292596,-0.33717615290608954,0.7254078111161532,0.6349049553531162,0.4479592189318729,0.24811624315922431,4.120245683089109,3.6756510709760475,-12.407726652817077,-12.635633465904487,0.6861321007109504,-0.981532354247184
17.55402684211731,-0.6779706478118896,1.095650315284729,-9.937223434448242,0.028651035339615855,0.0022635459899902344,0.09997844696044922,3.8935999252670426,-12.422848740353425,-0.35717615290608956,0.7280513556033639,0.5998544824827998,0.4301796653012098,0.14573948904046613,4.194820894444661,3.5999192554322192,-12.330481955904835,-12.667256885097178,0.6861321007109504,-0.981532354247184
17.56195855140686,-0.6779706478118896,1.095650315284729,-9.937223434448242,0.028651035339615855,0.0020952224731445312,0.09997844696044922,3.8915510448770805,-12.39495462865732,-0.3771761529060896,0.7273636746820211,0.6096619543428234,0.40184192632326887,0.13922510125254406,4.298870543160157,3.4940800418628393,-12.224753029078094,-12.72484213451656,0.6861321007109504,-0.981532354247184
17.57180428504944,-0.6652830839157104,1.0605794191360474,-9.901254653930664,0.03145129886670453,0.0031485557556152344,0.09997844696044922,3.889049327048192,-12.36576506720667,-0.3971761529060896,0.728895652882568,0.5192907432429852,0.373145905663455,0.13168496507258068,4.444387586346084,3.3460723387241256,-12.075869202737147,-12.82305036311477,0.6861321007109504,-0.981532354247184
17.58148455619812,-0.6652830839157104,1.0605794191360474,-9.901254653930664,0.03145129886670453,0.0019876956939697266,0.09997844696044922,3.897533325300415,-12.608723680876567,-0.1871761529060894,0.7282273798141446,0.4952054041646156,0.36267307205585775,0.10974617021712854,3.915436937417822,3.874862409570627,-12.655088634500231,-12.661959991658044,0.6861321007109504,-0.981532354247184
17.59177541732788,-0.6460255980491638,1.0096652507781982,-9.846626281738281,0.03600009757897707,0.0028595924377441406,0.09997844696044922,3.897965803925839,-12.591595797322947,-0.20717615290608943,0.7308073920325646,0.3498324790411052,0.3265659767744605,0.12743906741477556,3.925331488925105,3.866518451659568,-12.640157914928455,-12.651690878845098,0.6861321007109504,-0.981532354247184
17.601499557495117,-0.6460255980491638,1.0096652507781982,-9.846626281738281,0.03600009757897707,0.0022008419036865234,0.09997844696044922,3.8982309177147725,-12.573197675436877,-0.22717615290608945,0.7301565805726096,0.3263176081309142,0.318710316426328,0.0998636802597349,3.9375549016949813,3.855724304430039,-12.622644348775928,-12.641384613950638,0.6861321007109504,-0.981532354247184
17.611669301986694,-0.6330637335777283,0.9768427014350891,-9.809859275817871,0.038906068602468674,0.002119779586791992,0.09997844696044922,3.898296412893332,-12.553535537790678,-0.24717615290608946,0.7316430605784524,0.19945330056661853,0.2951724301821014,0.1048169576266238,3.952657349064794,3.841871080222612,-12.602017184925087,-12.631600216726172,0.6861321007109504,-0.981532354247184
17.621843338012695,-0.6330637335777283,0.9768427014350891,-9.809859275817871,0.038906068602468674,0.0028676986694335938,0.09997844696044922,3.898129440321043,-12.532613232304305,-0.2671761529060895,0.7310046952691844,0.17647641774885425,0.2880694889705365,0.08790470935670752,3.9714631861612606,3.8240738048760723,-12.577504549075076,-12.623133449555047,0.6861321007109504,-0.981532354247184
17.631577014923096,-0.6135233640670776,0.9293514490127563,-9.754226684570312,0.042957291733380754,0.0019485950469970703,0.09997844696044922,3.897696663596245,-12.510432190334235,-0.2871761529060895,0.733583035215478,-0.021687280157651145,0.26388185060328295,0.09553727675375362,3.995212947813657,3.8010296163495965,-12.547970465599533,-12.617139678659795,0.6861321007109504,-0.981532354247184
17.6417236328125,-0.6135233640670776,0.9293514490127563,-9.754226684570312,0.042957291733380754,0.002860546112060547,0.09997844696044922,3.8969643694436087,-12.486991389767466,-0.3071761529060895,0.7329541308451663,-0.04415784062609035,0.25654612250973907,0.07816155027302031,4.025785020770172,3.7707962952355314,-12.511725519919043,-12.615323103916069,0.554353087597756,-0.7560625356257386
17.651514768600464,-0.6004661917686462,0.8988713622093201,-9.716767311096191,0.04550975408251032,0.002115488052368164,0.09997844696044922,3.8958985801405057,-12.46228732322078,-0.32717615290608953,0.7345044666929146,-0.1881541681016834,0.24074678645777353,0.07637170498942582,4.066028705158741,3.730459411769284,-12.466240635288855,-12.620222883655819,0.554353087597756,-0.7560625356257386
17.661773920059204,-0.6004661917686462,0.8988713622093201,-9.716767311096191,0.04550975408251032,0.002187013626098633,0.09997844696044922,3.8944651677354365,-12.436313971433334,-0.34717615290608955,0.733880452704139,-0.21014839914046296,0.2344090076724587,0.06340384075095716,4.120245683089109,3.6756510709760475,-12.407726652817077,-12.635633465904487,0.554353087597756,-0.7560625356257386
17.671630859375,-0.5808717012405396,0.8549421429634094,-9.66023063659668,0.04917644041813857,0.0022716522216796875,0.09997844696044922,3.8926299698088065,-12.409062781928316,-0.36717615290608957,0.7365598559051253,-0.4113357742015795,0.21642735774526675,0.06415572246059024,4.194820894444661,3.5999192554322192,-12.330481955904835,-12.667256885097178,0.554353087597756,-0.7560625356257386
17.785890579223633,-0.5808717012405396,0.8549421429634094,-9.66023063659668,0.04917644041813857,0.0025720596313476562,0.10637617111206055,3.89035890652403,-12.380522653007118,-0.3871761529060896,0.7233755355670576,-0.4494643180910698,0.2091902393351306,0.04872226520575514,4.298870543160157,3.4940800418628393,-12.224753029078094,-12.72484213451656,0.554353087597756,-0.7560625356257386
17.796305418014526,-0.4923805892467499,0.6893649101257324,-9.38908863067627,0.06454774397458823,0.0019526481628417969,0.10637617111206055,3.8876180987152598,-12.35067992312711,-0.4071761529060896,0.7383849815525053,-1.0,0.1533944187263884,0.055981313030882225,4.444387586346084,3.3460723387241256,-12.075869202737147,-12.82305036311477,0.6780570443952565,-1.1262440238686202
17.801436185836792,-0.4923805892467499,0.6893649101257324,-9.38908863067627,0.06454774397458823,0.0021283626556396484,0.10637617111206055,3.9137241119069026,-12.572528510433326,-0.13781162431856464,0.7377440012262849,-1.0,0.13135559012045794,0.008547510845209827,3.938036792127245,3.8891595690233647,-12.574024867731291,-12.582883968110528,0.6780570443952565,-1.1262440238686202
17.81205153465271,-0.4800732731819153,0.6692706942558289,-9.349587440490723,0.06645590245391242,0.0025696754455566406,0.10637617111206055,3.9139105996805696,-12.559680927595416,-0.15781162431856466,0.7392750380923432,-1.0,0.10972976262545114,-0.021069187819356454,3.9484236840890987,3.879235196433361,-12.558979242081831,-12.573560930325176,0.6780570443952565,-1.1262440238686202
17.821876764297485,-0.47357210516929626,0.6602766513824463,-9.331000328063965,0.0673900893222267,0.002872467041015625,0.10637617111206055,3.913985840551536,-12.545516864830198,-0.17781162431856468,0.7396420387612022,-1.0,0.09511225734385197,-0.04003986487627194,3.9613192927373504,3.866608631551875,-12.54112636058629,-12.56439900538227,0.6780570443952565,-1.1262440238686202
17.831664562225342,-0.46068644523620605,0.6428616046905518,-9.29358959197998,0.06933924760045511,0.001941680908203125,0.10637617111206055,3.913920119625968,-12.53004786708199,-0.1978116243185647,0.7409964110523595,-1.0,0.0805770088770805,-0.053680412288005845,3.977383243834491,3.8505617396670857,-12.519846510876622,-12.556043184764388,0.6780570443952565,-1.1262440238686202
17.841740369796753,-0.4543039798736572,0.6344380974769592,-9.274773597717285,0.07026296461710183,0.0029783248901367188,0.10637617111206055,3.9136828749428427,-12.513283246894925,-0.2178116243185647,0.7412921586769856,-1.0,0.07078241833435955,-0.0632673882905089,3.9976068915541285,3.8300428648978424,-12.494233831466108,-12.54942020146229,0.4990802744289827,-0.7470509692307796
17.85164189338684,-0.44796302914619446,0.626201868057251,-9.255890846252441,0.0711240177267084,0.0023283958435058594,0.10637617111206055,3.913242798388781,-12.495230030651257,-0.23781162431856473,0.7415708548314436,-1.0,0.06346999592976124,-0.07017764243413147,4.023489166144372,3.8034911813239565,-12.462947584246585,-12.545887145371363,0.4990802744289827,-0.7470509692307796
17.861696004867554,-0.44166433811187744,0.6181501150131226,-9.236944198608398,0.07191406093135667,0.0021851062774658203,0.10637617111206055,3.91256793947898,-12.475892909497214,-0.25781162431856475,0.741834595478456,-1.0,0.05783498888537376,-0.07535538497661254,4.057304274312475,3.768569197354428,-12.4239855943989,-12.547457920511421,0.4990802744289827,-0.7470509692307796
17.87173056602478,-0.4291957914829254,0.6025866270065308,-9.198995590209961,0.07328595802938982,0.0023801326751708984,0.10637617111206055,3.9116258117730984,-12.455274195086266,-0.27781162431856476,0.7430053042770244,-1.0,0.05188133949404989,-0.08029268966103055,4.102498402019666,3.7217662631878885,-12.374322590061984,-12.557164811995735,0.4990802744289827,-0.7470509692307796
17.881575107574463,-0.4230264127254486,0.5950669050216675,-9.179933547973633,0.07387819814470697,0.0019254684448242188,0.10637617111206055,3.910383501689899,-12.433373780257847,-0.2978116243185648,0.7432152159914527,-1.0,0.04825225740594474,-0.08390885228951811,4.164241265035066,3.657847235548838,-12.309158781782532,-12.579809822975324,0.4990802744289827,-0.7470509692307796
17.89202117919922,-0.41689354181289673,0.5877206921577454,-9.160816192626953,0.07441539301470916,0.002893209457397461,0.10637617111206055,3.908807779479985,-12.410189104757675,-0.3178116243185648,0.7434048888260233,-1.0,0.04576535405571902,-0.08659841503244813,4.250089801561446,3.5691890049099464,-12.221066255345532,-12.622818208182442,0.4990802744289827,-0.7470509692307796
17.901490449905396,-0.4108043611049652,0.5805389881134033,-9.141647338867188,0.0749006751310863,0.0024030208587646484,0.10637617111206055,3.9068652121121485,-12.385715126093704,-0.3378116243185648,0.7435752957465467,-1.0,0.043964521192410934,-0.08865134149237618,4.370498095480412,3.445270796167498,-12.0985476508031,-12.697679731456018,0.4990802744289827,-0.7470509692307796
18.022170305252075,-0.31474795937538147,0.49699121713638306,-8.830926895141602,0.07851921334139343,0.003683805465698242,0.1093440055847168,3.9045222778256066,-12.359944295609555,-0.35781162431856484,0.7439124329763951,-0.5328342650165373,0.0540093086800876,-0.08847445594043361,4.538520729049926,3.2729710434447497,-11.924381174757428,-12.821603600369173,0.4990802744289827,-0.7470509692307796
18.0319185256958,-0.31474795937538147,0.49699121713638306,-8.830926895141602,0.07851921334139343,0.0018994808197021484,0.1093440055847168,3.9138294402612313,-12.566270086203502,-0.14781162431856465,0.7431483775155631,-0.5796066312033361,0.05605351168750986,-0.09208014545190256,3.938036792127245,3.8891595690233647,-12.574024867731291,-12.582883968110528,0.3943301705416549,-0.7076564151594874
18.04179883003235,-0.30332112312316895,0.4888114929199219,-8.791796684265137,0.07855933450582794,0.002788543701171875,0.1093440055847168,3.913963962144614,-12.552762682984278,-0.16781162431856467,0.7438219784831515,-0.5289460586118463,0.058356979391022,-0.09503084897126726,3.9484236840890987,3.879235196433361,-12.558979242081831,-12.573560930325176,0.3732064788348074,-0.728361943610904
18.05149531364441,-0.2976754307746887,0.4847920536994934,-8.77220630645752,0.0785479123814186,0.002002716064453125,0.1093440055847168,3.9139724917507897,-12.537944847820505,-0.18781162431856468,0.7437531058045558,-0.5261180410391318,0.05989178972402894,-0.09676417078862659,3.9613192927373504,3.866608631551875,-12.54112636058629,-12.56439900538227,0.3732064788348074,-0.728361943610904
18.06188941001892,-0.2920738756656647,0.48081260919570923,-8.75260066986084,0.07851686235471156,0.002225160598754883,0.1093440055847168,3.913824878225987,-12.521827016464199,-0.2078116243185647,0.7436635660190863,-0.5226944924080226,0.06120476855154323,-0.09810871780378579,3.977383243834491,3.8505617396670857,-12.519846510876622,-12.556043184764388,0.3732064788348074,-0.728361943610904
18.071645259857178,-0.28208276629447937,0.4753536581993103,-8.715286254882812,0.07848906026366845,0.0022513866424560547,0.1093440055847168,3.9134901737341656,-12.504417364808976,-0.22781162431856472,0.7441075501388814,-0.476775659571296,0.06250038221450847,-0.09960011199241395,3.9976068915541285,3.8300428648978424,-12.494233831466108,-12.54942020146229,0.3732064788348074,-0.728361943610904
18.081644535064697,-0.2771310806274414,0.4726305305957794,-8.696581840515137,0.07849511618776381,0.0020608901977539062,0.1093440055847168,3.9129367358334535,-12.485721757455162,-0.24781162431856474,0.7439233577814364,-0.4832509066954399,0.06313783474234584,-0.10071749382757003,4.023489166144372,3.8034911813239565,-12.462947584246585,-12.545887145371363,0.3732064788348074,-0.728361943610904
18.091760396957397,-0.27220818400382996,0.4699060022830963,-8.67784595489502,0.07848287525291366,0.0029098987579345703,0.1093440055847168,3.9121323326037793,-12.46574370102886,-0.26781162431856476,0.7437384702224502,-0.4924130340550217,0.06350187687910445,-0.10175759086366253,4.057304274312475,3.768569197354428,-12.4239855943989,-12.547457920511421,0.3732064788348074,-0.728361943610904
18.10149836540222,-0.2673138380050659,0.4671784043312073,-8.659079551696777,0.078453124081983,0.0020830631256103516,0.1093440055847168,3.9110442502919542,-12.444484302378928,-0.2878116243185648,0.7435519519833237,-0.5043291838778443,0.06366496596590224,-0.10268190375444801,4.102498402019666,3.7217662631878885,-12.374322590061984,-12.557164811995735,0.3732064788348074,-0.728361943610904
18.111742973327637,-0.25760918855667114,0.4616923928260803,-8.621463775634766,0.07831581749254138,0.002899646759033203,0.1093440055847168,3.9096394032356976,-12.421942231763987,-0.3078116243185648,0.7439829411616512,-0.46133535320527286,0.06352556360349404,-0.10372548367174943,4.164241265035066,3.657847235548838,-12.309158781782532,-12.579809822975324,0.3732064788348074,-0.728361943610904
18.12244486808777,-0.25279876589775085,0.45892754197120667,-8.602686882019043,0.07821530113816552,0.002337932586669922,0.1093440055847168,3.9078844458239566,-12.398113691129561,-0.3278116243185648,0.7437826265866422,-0.43375187689218486,0.06336003340931333,-0.10439719797682356,4.250089801561446,3.5691890049099464,-12.221066255345532,-12.622818208182442,0.3732064788348074,-0.728361943610904
18.131608247756958,-0.2480161190032959,0.45614364743232727,-8.583883285522461,0.07809470462545352,0.0019690990447998047,0.1093440055847168,3.905745886247339,-12.372992387563304,-0.3478116243185648,0.7435770824191854,-0.40617110960553743,0.06314497748278376,-0.1049001010362767,4.370498095480412,3.445270796167498,-12.0985476508031,-12.697679731456018,0.3732064788348074,-0.728361943610904
18.247868061065674,-0.2480161190032959,0.45614364743232727,-8.583883285522461,0.07809470462545352,0.0019237995147705078,0.10814189910888672,3.903190201789565,-12.346569512004038,-0.36781162431856484,0.7354141619698716,-0.40375347791835603,0.0633104016819843,-0.10499226044408486,4.538520729049926,3.2729710434447497,-11.924381174757428,-12.821603600369173,0.2967525898442585,-0.7879079696486336
18.25541615486145,-0.17527325451374054,0.4129205048084259,-8.307876586914062,0.07422542912240729,0.0022263526916503906,0.10814189910888672,3.9139105996805696,-12.559680927595416,-0.15781162431856466,0.74355852211245,0.2951066813009755,0.058429761102329024,-0.10768585403530632,3.938036792127245,3.8891595690233647,-12.574024867731291,-12.582883968110528,0.2967525898442585,-0.7879079696486336
18.262054204940796,-0.17527325451374054,0.4129205048084259,-8.307876586914062,0.07422542912240729,0.0021915435791015625,0.10814189910888672,3.913985840551536,-12.545516864830198,-0.17781162431856468,0.742737127206368,0.2779865363368585,0.05760898794037049,-0.10362848564352817,3.9484236840890987,3.879235196433361,-12.558979242081831,-12.573560930325176,0.2967525898442585,-0.7879079696486336
18.27159833908081,-0.16086891293525696,0.4033864736557007,-8.253449440002441,0.0730168925667366,0.003060579299926758,0.10814189910888672,3.913920119625968,-12.53004786708199,-0.1978116243185647,0.7436507516022383,0.4193642361363937,0.056234707756532436,-0.10275762251067759,3.9613192927373504,3.866608631551875,-12.54112636058629,-12.56439900538227,0.2967525898442585,-0.7879079696486336
18.281543970108032,-0.15613628923892975,0.400081068277359,-8.23525619506836,0.07258143647447172,0.0019943714141845703,0.10814189910888672,3.9136828749428427,-12.513283246894925,-0.2178116243185647,0.743426575434761,0.4569927502513081,0.0553975422205222,-0.10003605089668605,3.977383243834491,3.8505617396670857,-12.519846510876622,-12.556043184764388,0.2967525898442585,-0.7879079696486336
18.292059183120728,-0.1467723846435547,0.39326736330986023,-8.198766708374023,0.07166694408524568,0.004565238952636719,0.10814189910888672,3.913242798388781,-12.495230030651257,-0.23781162431856473,0.7437222124816569,0.548832202535928,0.05417666065204445,-0.09841565672208552,3.9976068915541285,3.8300428648978424,-12.494233831466108,-12.54942020146229,0.2967525898442585,-0.7879079696486336
18.3014395236969,-0.1421363800764084,0.38976290822029114,-8.18048095703125,0.07118697328364904,0.0019605159759521484,0.10814189910888672,3.91256793947898,-12.475892909497214,-0.25781162431856475,0.7434504215405585,0.5823228544977723,0.053161979861096914,-0.0957988869053906,4.023489166144372,3.8034911813239565,-12.462947584246585,-12.545887145371363,0.2967525898442585,-0.7879079696486336
18.31178903579712,-0.13753335177898407,0.3861856460571289,-8.162168502807617,0.07069876518663061,0.0023956298828125,0.10814189910888672,3.9116258117730984,-12.455274195086266,-0.27781162431856476,0.7431895979703879,0.6118271900592495,0.052153311667072225,-0.09380769756678185,4.057304274312475,3.768569197354428,-12.4239855943989,-12.547457920511421,0.2967525898442585,-0.7879079696486336
18.321537256240845,-0.13331153988838196,0.38283050060272217,-8.144740104675293,0.07019668812898476,0.00417327880859375,0.10814189910888672,3.910383501689899,-12.433373780257847,-0.2978116243185648,0.7428907100493137,0.6354440817036693,0.05086521329897428,-0.09203654308737376,4.102498402019666,3.7217662631878885,-12.374322590061984,-12.557164811995735,0.2967525898442585,-0.7879079696486336
18.331717252731323,-0.12911581993103027,0.37939453125,-8.127263069152832,0.06971468613562204,0.00193023681640625,0.10814189910888672,3.908807779479985,-12.410189104757675,-0.3178116243185648,0.7426057725272583,0.6545116590699414,0.04945730571007244,-0.0904444516536323,4.164241265035066,3.657847235548838,-12.309158781782532,-12.579809822975324,0.2967525898442585,-0.7879079696486336
18.34157943725586,-0.1249462440609932,0.37587815523147583,-8.109740257263184,0.06922173169548902,0.00394439697265625,0.10814189910888672,3.9068652121121485,-12.385715126093704,-0.3378116243185648,0.742331502015359,0.6689855756042179,0.04799606439084314,-0.08895664720013151,4.250089801561446,3.5691890049099464,-12.221066255345532,-12.622818208182442,0.18494916800322164,-0.863693186304419
18.352062225341797,-0.1249462440609932,0.37587815523147583,-8.109740257263184,0.06922173169548902,0.002918720245361328,0.10814189910888672,3.9045222778256066,-12.359944295609555,-0.35781162431856484,0.7415286746307211,0.6524825316386693,0.04765461146124618,-0.08813319227030444,4.370498095480412,3.445270796167498,-12.0985476508031,-12.697679731456018,0.18494916800322164,-0.863693186304419
18.47060775756836,-0.057491399347782135,0.3019620180130005,-7.813541412353516,0.059817451527207216,0.0030214786529541016,0.10737228393554688,3.9017454820978013,-12.332866539845023,-0.37781162431856485,0.7482232655372101,0.5508351634861504,0.022235090730230247,-0.06542353041735907,4.538520729049926,3.2729710434447497,-11.924381174757428,-12.821603600369173,0.18494916800322164,-0.863693186304419
18.48129963874817,-0.057491399347782135,0.3019620180130005,-7.813541412353516,0.059817451527207216,0.0019304752349853516,0.10737228393554688,3.913963962144614,-12.552762682984278,-0.16781162431856467,0.7474740757534811,0.535231136317375,0.019376653302242027,-0.067080539241337,3.938036792127245,3.8891595690233647,-12.574024867731291,-12.582883968110528,0.18025653659485447,-0.5193166728128012
18.487181901931763,-0.05370466411113739,0.2967052757740021,-7.796691417694092,0.05921375497689048,0.0024187564849853516,0.10737228393554688,3.9139724917507897,-12.537944847820505,-0.18781162431856468,0.747270893678898,0.503991821596369,0.017454197820345477,-0.06769458102427424,3.9484236840890987,3.879235196433361,-12.558979242081831,-12.573560930325176,0.18025653659485447,-0.5193166728128012
18.495593309402466,-0.04995110630989075,0.2914370000362396,-7.779784202575684,0.0586043606351912,0.002516031265258789,0.10737228393554688,3.913824878225987,-12.521827016464199,-0.2078116243185647,0.7470760689007985,0.47109154306520334,0.015642533451461528,-0.06780418177985074,3.9613192927373504,3.866608631551875,-12.54112636058629,-12.56439900538227,0.18025653659485447,-0.5193166728128012
18.502132415771484,-0.04623083770275116,0.28616055846214294,-7.762822151184082,0.05799116436052796,0.002415895462036133,0.10737228393554688,3.9134901737341656,-12.504417364808976,-0.22781162431856472,0.7468879984855048,0.43665457247095707,0.01380299396367411,-0.0676507103177314,3.977383243834491,3.8505617396670857,-12.519846510876622,-12.556043184764388,0.18025653659485447,-0.5193166728128012
18.511677265167236,-0.038889650255441666,0.275601327419281,-7.728740215301514,0.05675951963488752,0.002374887466430664,0.10737228393554688,3.9129367358334535,-12.485721757455162,-0.24781162431856474,0.7472649873614351,0.3789940910324749,0.010269383949136414,-0.06618985695124104,3.9976068915541285,3.8300428648978424,-12.494233831466108,-12.54942020146229,0.18025653659485447,-0.5193166728128012
18.52163314819336,-0.035269204527139664,0.270325630903244,-7.711698532104492,0.05614463190948296,0.0024094581604003906,0.10737228393554688,3.9121323326037793,-12.46574370102886,-0.26781162431856476,0.7470500120056247,0.3408632748711501,0.008235890586776668,-0.06613111014641182,4.023489166144372,3.8034911813239565,-12.462947584246585,-12.545887145371363,0.18025653659485447,-0.5193166728128012
18.531836986541748,-0.03168313577771187,0.26505547761917114,-7.694613456726074,0.05552757379497819,0.0021889209747314453,0.10737228393554688,3.9110442502919542,-12.444484302378928,-0.2878116243185648,0.7468297118016114,0.30216203772198647,0.006501874649858864,-0.06603620513068056,4.057304274312475,3.768569197354428,-12.4239855943989,-12.547457920511421,0.18025653659485447,-0.5193166728128012
18.54157042503357,-0.028131693601608276,0.25979429483413696,-7.677486896514893,0.054910357903488596,0.0025870800018310547,0.10737228393554688,3.9096394032356976,-12.421942231763987,-0.3078116243185648,0.7466092553864626,0.26324128360916466,0.00492739373870691,-0.0658707714895911,4.102498402019666,3.7217662631878885,-12.374322590061984,-12.557164811995735,0.18601181408847184,-0.648177878233315
18.551490545272827,-0.021133247762918472,0.24931202828884125,-7.643117904663086,0.05367758285067996,0.0020961761474609375,0.10737228393554688,3.9078844458239566,-12.398113691129561,-0.3278116243185648,0.7469339631933107,0.20067866552707286,0.002414566073595477,-0.06484202996974833,4.164241265035066,3.657847235548838,-12.309158781782532,-12.579809822975324,0.18601181408847184,-0.648177878233315
18.56279993057251,-0.017686406150460243,0.24409720301628113,-7.62587833404541,0.05306009516063261,0.002269268035888672,0.10737228393554688,3.905745886247339,-12.372992387563304,-0.3478116243185648,0.746727223658496,0.1619159740906676,0.0011026065754903627,-0.06466359236001692,4.250089801561446,3.5691890049099464,-12.221066255345532,-12.622818208182442,0.18601181408847184,-0.648177878233315
