time,x,y,z,yaw,ctrl_comp_time,x_ref,y_ref,z_ref,yaw_ref,throttle,roll_rate,pitch_rate,yaw_rate,save_tube_pyH,save_tube_pyL,save_tube_pzH,save_tube_pzL
15.669098854064941,0.0139755355194211,3.9966039657592773,-11.730716705322266,0.0008846518046286451,0.28708577156066895,0.0,4.020792609788616,-11.74330186372414,0.0488115480605358,0.6023454761894093,-0.9899677307942402,0.031145209313168942,0.014235235080723193,-11.745869772338867,-11.746069772338867,-0.05422760715484619,-0.054427607154846194
17.125340461730957,-0.06479410827159882,3.7633278369903564,-11.250773429870605,0.0002622055808392809,0.3588135242462158,0.0,3.9962247231893517,-11.728206742706364,0.04762325841032728,0.7298834529468421,1.0,-0.07789396068006216,-0.199367422746677,-11.70278703754136,-11.705497502516664,0.3058037882356035,-0.3873838274223602
17.434077501296997,-0.22251646220684052,2.697084426879883,-10.774425506591797,-0.01216128962988039,0.003327608108520508,0.0,3.7633157515300137,-11.227852580258258,-0.5324862222747728,0.672652896130993,-1.0,1.2786499395841062,-0.49968371137333784,-11.610181499932093,-11.651175788161618,0.681029154398277,-0.931363156760473
17.702432870864868,-0.22251646220684052,2.697084426879883,-10.774425506591797,-0.01216128962988039,0.0034220218658447266,0.0,2.6914713697612975,-10.764181025320303,1.0889126530238877,0.6850226886249065,0.37509474625944694,1.1350549577088744,3.1720281739750646,-11.340168718646238,-11.71460198474674,1.350627241900728,-1.963858211919334
18.01387119293213,-0.6424753069877625,4.467252254486084,-9.545546531677246,0.47570576211141774,0.006323337554931641,0.0,2.6914713697612975,-10.764181025320303,1.0889126530238877,0.6740653715794951,-1.0,1.0345384703962124,1.9860140869875327,-9.821729530636214,-12.966337061222514,3.056748690692097,-4.223393686305051
18.269310474395752,-0.6424753069877625,4.467252254486084,-9.545546531677246,0.47570576211141774,0.004052877426147461,0.0,4.461381666324708,-9.488415759212824,0.9823309206455659,0.7590711292280107,-1.0,0.964176929277349,-3.847960790709413,-11.730616705322266,-11.730816705322265,-0.023306092077493668,-0.023506092077493667
18.559772729873657,-2.4921772480010986,7.753107070922852,-7.049339294433594,1.3652898727985352,0.0038564205169677734,0.0,4.461381666324708,-9.488415759212824,0.9823309206455659,0.7340893744966789,-1.0,0.9149238504941452,1184.5581599050195,-11.689250397448738,-11.6918970232874,0.3355422326063911,-0.3576085504806986
18.845268726348877,-2.4921772480010986,7.753107070922852,-7.049339294433594,1.3652898727985352,0.00702214241027832,0.0,7.774431647280546,-6.972009160913707,0.5472036121095527,0.7030661169348508,-1.0,0.8804466953459016,592.6790799525097,-11.598222986934372,-11.639782766606231,0.7093081772742047,-0.902449204115965
19.188161849975586,-6.1863508224487305,10.8716402053833,-3.406379222869873,2.4681794004055857,0.00722503662109375,0.0,7.774431647280546,-6.972009160913707,0.5472036121095527,0.7736689892777414,1.0,-15.352884595967451,296.73953997625483,-11.329710400587073,-11.705830609756754,1.3763613446679104,-1.9346883337830332
19.439446926116943,-7.682854175567627,11.637097358703613,-1.7019124031066895,2.34922670464979,0.004248380661010742,0.0,10.888535049021131,-3.332431466073892,0.2849998252422987,0.7736689892777414,-1.0,-9.901347473300573,148.76976998812742,-9.827105346124316,-12.946110455810851,3.0758170532563964,-4.189792440530185
19.751318216323853,-9.728455543518066,12.422715187072754,1.2749493420124054,2.450757481493685,0.009567499160766602,0.0,11.599299897273715,-1.6334343936495515,0.8994538054961068,0.7736689892777414,1.0,-7.170943231310401,74.7848849940637,-11.250673429870606,-11.250873429870605,-1.1447806524276734,-1.1449806524276733
20.045576572418213,-9.728455543518066,12.422715187072754,1.2749493420124054,2.450757481493685,0.005801677703857422,0.0,12.47063151591669,1.3799818600501628,-0.25306351416421613,0.7736689892777414,-1.0,2.998833016892762,17.745647351375936,-10.993167302263359,-11.023129640609312,-1.3747453390679965,-1.9687536178825995
20.314835786819458,-9.266899108886719,14.339861869812012,1.5814176201820374,-1.540980659716246,0.005262851715087891,0.0,12.47063151591669,1.3799818600501628,-0.25306351416421613,-0.01,-1.0,-12.410289020631026,9.272823675687967,-10.635088019573889,-10.823239336497101,-1.553488550669937,-3.0032753029008967
20.570149421691895,-9.266899108886719,14.339861869812012,1.5814176201820374,-1.540980659716246,0.00567317008972168,0.0,14.367237839986723,1.5613945169872612,-0.5226985554534171,0.7736689892777414,-1.0,-8.927202314441718,5.036411837843984,-9.878111950786606,-10.936049284425865,-1.2012028217919464,-4.6363214823454575
20.591782093048096,-9.303199768066406,14.957831382751465,1.6676982045173645,0.09388196433955699,0.005487918853759766,0.0,14.393965235465975,1.5412863901937426,-0.5326985554534172,0.7736689892777414,-1.0,-3.5477541056331994,-102.12533424863052,-5.980664401985089,-14.126676761594489,0.9571093844238432,-7.951158169324976
20.90406084060669,-9.303199768066406,14.957831382751465,1.6676982045173645,0.09388196433955699,0.0059528350830078125,0.0,14.98452314452115,1.6754964162960375,0.3296921768814427,0.6507825900878351,-1.0,-2.7234278739432396,-51.46266712431526,-10.774325506591797,-10.774525506591797,0.6440998149871826,0.6438998149871826
21.194819927215576,-9.914899826049805,14.800188064575195,1.6390725374221802,1.492044117054097,0.0061419010162353516,0.0,14.98452314452115,1.6754964162960375,0.3296921768814427,0.7165094344899461,1.0,213.92613659191642,56.69120117331368,-10.622172502532344,-10.649357729365594,1.673418465843502,1.3405758149279698
21.44836950302124,-9.914899826049805,14.800188064575195,1.6390725374221802,1.492044117054097,0.005043745040893555,0.0,14.783643805729708,1.6494548622829375,1.2181925482449936,0.7233127283197377,-1.0,149.9882956143415,28.745600586656835,-10.345150197035032,-10.494052545302795,2.766125021084079,1.8872085830351484
21.733680248260498,-11.01815128326416,15.182221412658691,0.42418092489242554,-1.4289964378390492,0.003180980682373047,0.0,14.783643805729708,1.6494548622829375,1.2181925482449936,0.7736689892777414,1.0,105.23180693003906,14.772800293328416,-9.816105010533985,-10.461565451962109,4.180325478485649,1.9968331816475104
22.010164260864258,-11.01815128326416,15.182221412658691,0.42418092489242554,-1.4289964378390492,0.005212306976318359,0.0,15.173983778214362,0.4155159070614913,-1.931797314355949,0.5014583527689406,-1.0,58.22490167982554,-2.1641113013543833,-8.083174113007992,-11.534449566260635,6.52754117526782,1.0427027172953451
22.3117253780365,-12.933403015136719,15.425798416137695,1.2493216544389725,2.543084304669143,0.0031778812408447266,0.0,15.173983778214362,0.4155159070614913,-1.911797314355949,-0.01,-1.0,40.99743117587788,-1.482055650677184,-10.774325506591797,-10.774525506591797,0.6440998149871826,0.6438998149871826
22.58344078063965,-12.933403015136719,15.425798416137695,1.2493216544389725,2.543084304669143,0.004441022872924805,0.0,15.416718609458908,1.210641488974991,2.9242368658592057,0.6637998661678542,-1.0,28.93820182311451,-1.141027825338592,-10.622172502532344,-10.649357729365594,1.673418465843502,1.3405758149279698
22.861139059066772,-13.718255996704102,15.008869171142578,1.8391165137290955,-0.8859510565942756,0.0032749176025390625,0.0,15.416718609458908,1.210641488974991,2.9242368658592057,0.7736689892777414,1.0,20.496741276180156,1.939047969927207,-10.345150197035032,-10.494052545302795,2.766125021084079,1.8872085830351484
23.161479711532593,-13.718255996704102,15.008869171142578,1.8391165137290955,-0.8859510565942756,0.003561735153198242,0.0,14.999898165621143,1.8371655595503886,-3.1243110284347235,0.7675916999718214,-1.0,7.495370969248454,1.3695239849635974,-9.816105010533985,-10.461565451962109,4.180325478485649,1.9968331816475104
23.50281596183777,-13.206510543823242,15.138245582580566,1.7605924606323242,1.0191756030112875,0.00606536865234375,0.0,14.999898165621143,1.8371655595503886,-3.1243110284347235,0.7610463256366293,-1.0,5.486759678473916,1.0847619924817988,-8.083174113007992,-11.534449566260635,6.52754117526782,1.0427027172953451
23.78641700744629,-12.75040054321289,15.095752716064453,1.7063061594963074,0.18306568671563084,0.00342559814453125,0.0,15.116075298241958,1.7599912649031533,3.128782841217501,0.7736689892777414,1.0,4.080731774931741,-8.608667740840357,-9.545446531677246,-9.545646531677246,4.462706430053711,4.462506430053711
24.07426404953003,-12.75040054321289,15.095752716064453,1.7063061594963074,0.18306568671563084,0.0027000904083251953,0.0,15.084724921292539,1.7063196322266825,-3.150553228811967,0.7736689892777414,-1.0,-41.13870506807147,46.13287574627185,-8.92734506371776,-8.960281852663897,5.470878682108481,5.045897399339197
24.34893298149109,-11.96440601348877,14.877676963806152,1.5933784246444702,1.7182062888862628,0.006042957305908203,0.0,15.084724921292539,1.7063196322266825,-3.150553228811967,0.7736689892777414,-1.0,-29.037093547650027,23.466437873135924,-8.127659362845712,-8.447401472094558,6.661894272360104,5.324226667911903
24.66029143333435,-11.561193466186523,14.553693771362305,1.522651195526123,2.419618310450548,0.0042760372161865234,0.0,14.869539164398837,1.5940112869173586,3.1261321994909963,0.77065706862254,1.0,-20.56596548335502,-57.53095616680769,-6.035610882260605,-9.160257678808781,8.761823900896754,4.55674232755511
24.952438592910767,-11.561193466186523,14.553693771362305,1.522651195526123,2.419618310450548,0.005563259124755859,0.0,14.558613173430606,1.5235125306717998,-3.1511239617533984,0.7736464980765139,-1.0,-11.552977512655362,146.5173137188822,7.661787162352016,-21.4545863570188,14.55480203056643,-0.054003437450804756
25.218067169189453,-11.009690284729004,14.388276100158691,1.388728678226471,2.7032383137693596,0.003332376480102539,0.0,14.558613173430606,1.5235125306717998,-3.1511239617533984,0.7721806959241175,1.0,-8.327084258858752,-53.917326375755756,-9.545446531677246,-9.545646531677246,4.462706430053711,4.462506430053711
25.474087715148926,-10.747413635253906,14.374188423156738,1.3147758543491364,-2.415012097263486,0.0037081241607666016,0.0,14.38675119428428,1.390360147479659,-3.1483377231396252,0.7718458738490938,-1.0,-6.068958981201127,210.31794367522352,-8.927608780711124,-8.960631495398378,5.471188737719013,5.045587343728667
25.731935501098633,-10.747413635253906,14.374188423156738,1.3147758543491364,-2.415012097263486,0.004144191741943359,0.0,14.37337509938225,1.316616004811179,-3.1433446077247273,0.7736689892777414,-1.0,-4.488271286840789,105.55897183761176,-8.126250699660984,-8.451937766015797,6.667370324302715,5.318750615969296
26.000701665878296,-10.25395679473877,13.362079620361328,1.1786366701126099,2.8215954598232886,0.005858421325683594,0.0,14.37337509938225,1.316616004811179,-3.1433446077247273,0.7559477773070139,-1.0,0.6994043207551901,53.179485918805895,-5.984828863199007,-9.21949899203504,8.796411757077852,4.522154471374029
26.283204317092896,-9.758337020874023,13.134998321533203,1.1056865006685257,2.748171944468942,0.005572795867919922,0.0,13.381160820638504,1.1809527253662757,-3.1472548515726344,0.766404287174744,0.364124078259801,0.7295830245286331,-7.04299275120492,8.389704833075134,-22.200053101068555,14.766900205112085,-0.26610161199644183
26.581706762313843,-9.758337020874023,13.134998321533203,1.1056865006685257,2.748171944468942,0.00348663330078125,0.0,13.151534394437641,1.1082630316502087,-3.1498728165962144,0.7676698492818635,-1.0,-2.216610562995974,-3.9214963756024606,-7.049239294433594,-7.0494392944335935,5.899328572845459,5.899128572845459
26.870479106903076,-9.149384498596191,12.988458633422852,0.9500913172960281,-2.2754284841412624,0.0055539608001708984,0.0,13.151534394437641,1.1082630316502087,-3.1498728165962144,0.7570665050358892,1.0,-1.791627394097183,-2.360748187801237,-6.249749832127666,-6.294949239484564,6.696463716408495,6.062779639766809
27.140164852142334,-9.149384498596191,12.988458633422852,0.9500913172960281,-2.2754284841412624,0.00532078742980957,0.0,12.98230811842844,0.9530488916021679,-3.1270434352682703,0.7736689892777414,1.0,-1.4941391758680271,30.380609120576835,-5.205731160240164,-5.792245321528381,7.705703295130688,5.838930249391563
27.394501209259033,-7.90053653717041,13.003776550292969,0.8338448703289032,2.8882270196336677,0.005409717559814453,0.0,12.98230811842844,0.9530488916021679,-3.1270434352682703,0.751870580496368,-1.0,-1.2858974231076188,15.590304560288418,-1.6552532933907582,-7.838176638728274,9.897600993623769,4.249179357961501
27.676514148712158,-7.90053653717041,13.003776550292969,0.8338448703289032,2.8882270196336677,0.00644993782043457,0.0,13.01901342022991,0.8370570821693567,3.1291519042759965,0.7678687147660144,-1.0,-1.140128196175334,8.19515228014421,24.96443523399163,-33.0262006831637,17.915293309771187,-3.3556259842597194
27.96942138671875,-7.207873821258545,13.42923641204834,0.7011571526527405,2.1385383831387768,0.003983974456787109,0.0,13.01901342022991,0.8370570821693567,3.1291519042759965,0.7647964247889171,0.9148113305365562,14.921781156632683,4.497576140072109,-7.049239294433594,-7.0494392944335935,5.899328572845459,5.899128572845459
28.26892900466919,-7.239166259765625,13.511772155761719,0.6192008554935455,1.074457359686033,0.005413055419921875,0.0,13.431110076670826,0.7046510306966972,3.129485325952816,0.7705434304960468,1.0,10.685246809642878,2.6487880700360584,-6.250675418020304,-6.296086257040664,6.696754277843343,6.0624890783319625
28.578826189041138,-7.080219268798828,13.824041366577148,0.5516681969165802,0.6183952985919083,0.0051043033599853516,0.0,13.508788100977652,0.6229306876581268,-3.1409987254613885,0.7712557472737267,-1.0,-30.991957622890563,1.7243940350180047,-5.206590691465736,-5.800563036761292,7.7099112590298455,5.834722285492406
28.842259883880615,-6.945675849914551,14.202705383300781,0.5066174566745758,0.6226359968903881,0.0048046112060546875,0.0,13.820740765945184,0.5554547268652406,-3.1441349368367795,0.7706730886477281,-0.8655797465431406,55.73681819967587,-379.99346402286443,-1.6138032237584985,-7.901527986935101,9.92745605696662,4.219324294618652
29.09455418586731,-6.945675849914551,14.202705383300781,0.5066174566745758,0.6226359968903881,0.006296873092651367,0.0,14.194949302246142,0.5104679929824073,-3.1396818569548612,0.773568826260692,-0.3664734787287358,39.25577273977311,-190.39673201143222,25.862723092590095,-33.964995103912,18.113655211756527,-3.5539878862450567
29.36025381088257,-6.784352779388428,14.910886764526367,0.4382309317588806,0.6812143713567245,0.006224632263183594,0.0,14.194949302246142,0.5104679929824073,-3.1396817761638123,0.7624794746431567,0.12161879678815579,27.719040917841173,-20.33385340681871,-3.406279222869873,-3.4064792228698733,3.7665570808410647,3.7663570808410642
29.640737771987915,-6.784352779388428,14.910886764526367,0.4382309317588806,0.6812143713567245,0.0028753280639648438,0.0,14.892094398234867,0.44192134292248636,-3.1263657464001575,0.7723280969375114,1.0,19.64332864248882,-10.566926703409358,-2.659488988904631,-2.692083805126649,4.361378432504143,3.656543917992292
30.01368522644043,-6.47646427154541,16.16394805908203,0.3723854422569275,1.3724699562325042,0.0057566165924072266,0.0,14.892094398234867,0.44192134292248636,-3.1263657464001575,0.7736689892777414,-1.0,13.990330049742173,-5.683463351704681,-1.698753147019604,-2.248973589626673,5.169708693870792,3.1411705033427757
30.32676076889038,-6.47646427154541,16.16394805908203,0.3723854422569275,1.3724699562325042,0.006128072738647461,0.0,16.160932316492264,0.3764412685418286,3.1311009046445406,0.7733725539451453,-1.0,10.033231034819522,44.31902832893056,1.7725196707541528,-4.397216602355277,7.276761840997941,1.1320957328618446
30.666582822799683,-6.271505355834961,15.484091758728027,0.28487592935562134,-1.7000714120657923,0.005519866943359375,0.0,16.160932316492264,0.3764412685418286,3.1311009046445406,0.76056757134293,1.0,7.263261724373666,22.559514164465277,29.952840055936164,-31.351870503228024,15.693075810964386,-7.382197298081401
30.941344022750854,-6.271505355834961,15.484091758728027,0.28487592935562134,-1.7000714120657923,0.00561070442199707,0.0,15.500245556469107,0.28898113074063936,-3.149573913415198,0.7620297368885541,-1.0,1.821919551108631,11.679757082232639,-1.7018124031066895,-1.7020124031066894,3.0827354026794436,3.082535402679443
31.270926475524902,-6.345241069793701,15.131524085998535,0.18046969175338745,-1.2209889281056214,0.0032105445861816406,0.0,15.500245556469107,0.28898113074063936,-3.149573913415198,0.7492406994074663,1.0,1.5153436857760416,-14.629582524292168,-0.952990032886513,-1.000832481970463,4.06731208623298,3.589308345989548
31.513898611068726,-6.345241069793701,15.131524085998535,0.18046969175338745,-1.2209889281056214,0.006006956100463867,0.0,15.123851909539823,0.1846423370511421,-3.148491988207033,0.7713479626486465,-1.0,1.3007405800432292,24.318913963364018,0.06663574704414198,-0.4209729833208632,5.297096511590348,3.7163946655112294
31.858012914657593,-6.638949394226074,15.14986515045166,0.10394740104675293,-1.443234410113206,0.00484776496887207,0.0,15.123851909539823,0.1846423370511421,-3.148491988207033,0.7680623347994866,-1.0,-9.617376590016422,2.253847351032291,3.3781976750799365,-2.0308897208768095,7.744797200535742,2.4775284354992917
32.200050830841064,-6.638949394226074,15.14986515045166,0.10394740104675293,-1.443234410113206,0.005169391632080078,0.0,15.151875293585672,0.10829905549490798,-3.1476186858064024,0.7682754693183625,-1.0,1169.3874228913708,-6722.3382846180375,29.084745257705347,-25.98112272572825,15.756322121624562,-4.485276586927777
32.45186138153076,-8.405535697937012,15.71222972869873,0.08108878135681152,0.25235826458093213,0.003702402114868164,0.0,15.151875293585672,0.10829905549490798,-3.1476186858064024,0.7505325962822982,-1.0,818.8111960239595,-3361.569142309019,1.2750493420124054,1.2748493420124054,2.1229904724121096,2.122790472412109
32.729459047317505,-8.405535697937012,15.71222972869873,0.08108878135681152,0.25235826458093213,0.007227897644042969,0.0,15.691748959403462,0.08524811221368245,3.1311354352899388,0.7715246374778999,-1.0,573.4078372167716,-1681.1845711545095,2.337617016885325,2.2682202037579717,2.206749150030783,1.4820923975004718
33.08928346633911,-8.463826179504395,16.145076751708984,0.0071111321449279785,-0.6235273201421125,0.00594639778137207,0.0,15.691748959403462,0.08524811221368245,3.1311354352899388,0.7629422498165233,-1.0,401.62548605174004,-840.9922855772546,4.027725089480256,2.533476282655095,2.687185305713031,0.2598508544777229
33.37985157966614,-8.02795696258545,15.88992977142334,0.008220136165618896,-0.2148009100572954,0.006078958511352539,0.0,16.14892926425983,0.011125521857312755,3.1310498839436867,0.7624691261533849,1.0,281.37784023621805,-420.8961427886273,11.602408711942958,-3.1841740251189394,5.675588823409728,-3.6478121663849707
33.65900421142578,-7.844659805297852,16.05542755126953,0.02635711431503296,0.9409567529560063,0.005579233169555664,0.0,15.882890803208781,0.012313397832500886,3.1269810265825937,0.7703506834706244,-0.8144548023305509,197.20448816535264,-210.84807139431365,108.86589756280544,-98.68170762841861,23.016883900817017,-22.07663592569492
33.92654776573181,-7.5289435386657715,16.088464736938477,0.0331079363822937,0.15177369794574447,0.005994558334350586,0.0,16.045514274383404,0.030371879374986407,3.1271271409861456,0.7691375699359927,-1.0,138.28314171574686,-105.82403569715683,1.2750493420124054,1.2748493420124054,2.1229904724121096,2.122790472412109
34.22338008880615,-7.4192070960998535,15.75057315826416,0.03452193737030029,-1.0056026535404283,0.006800651550292969,0.0,16.0894600972192,0.03669070328852094,3.1253567849146675,0.7652762578595113,-1.0,97.0381992010228,-53.312017848578414,2.3376203226441645,2.268216897999131,2.206774974559011,1.4820665729722449
34.47961139678955,-7.4192070960998535,15.75057315826416,0.03452193737030029,-1.0056026535404283,0.0044384002685546875,0.0,15.760143624281312,0.0381694374959139,3.1269895652266992,0.7634500345684063,-1.0,68.16673944071596,46.89289469265588,4.027796909062327,2.5334044630730257,2.6872566927364465,0.2597794674543095
34.71739602088928,-7.077352046966553,15.420561790466309,0.02142322063446045,-0.7842004789745667,0.007830381393432617,0.0,15.760143624281312,0.0381694374959139,3.1269895652266992,0.7579302387998541,1.0,47.95671760850117,23.846447346327942,11.603116149142746,-3.1848814623187236,5.675878938683059,-3.6481022816582986
34.98129630088806,-7.077352046966553,15.420561790466309,0.02142322063446045,-0.7842004789745667,0.005849599838256836,0.0,15.414216176010989,0.025218447355954767,3.1255227786274338,0.7704542770750011,-1.0,33.80970232595082,-160.69626227417868,108.87935631260116,-98.69516637821432,23.01850588514947,-22.078257910027375
nan,nan,nan,nan,nan,nan,nan,nan,nan,nan,nan,nan,nan,nan,1.5815176201820373,1.5813176201820374,3.367902143096924,3.3677021430969236
nan,nan,nan,nan,nan,nan,nan,nan,nan,nan,nan,nan,nan,nan,1.3956927302672681,1.3628310731753857,3.1424605356260846,2.5556363956349823
nan,nan,nan,nan,nan,nan,nan,nan,nan,nan,nan,nan,nan,nan,1.2777397876428471,1.0887302742902287,2.91121980414956,1.5884957177078598
nan,nan,nan,nan,nan,nan,nan,nan,nan,nan,nan,nan,nan,nan,1.356425264211629,0.6643820389056238,2.944463579222929,0.2079703096705144
nan,nan,nan,nan,nan,nan,nan,nan,nan,nan,nan,nan,nan,nan,2.3294286021851995,-0.5732246250450576,3.8893712419300988,-2.2196576168364723
nan,nan,nan,nan,nan,nan,nan,nan,nan,nan,nan,nan,nan,nan,1.5815176201820373,1.5813176201820374,3.367902143096924,3.3677021430969236
nan,nan,nan,nan,nan,nan,nan,nan,nan,nan,nan,nan,nan,nan,1.3956927302672681,1.3628310731753857,3.1424605356260846,2.5556363956349823
nan,nan,nan,nan,nan,nan,nan,nan,nan,nan,nan,nan,nan,nan,1.2777397876428471,1.0887302742902287,2.91121980414956,1.5884957177078598
nan,nan,nan,nan,nan,nan,nan,nan,nan,nan,nan,nan,nan,nan,1.356425264211629,0.6643820389056238,2.944463579222929,0.2079703096705144
nan,nan,nan,nan,nan,nan,nan,nan,nan,nan,nan,nan,nan,nan,2.3294286021851995,-0.5732246250450576,3.8893712419300988,-2.2196576168364723
nan,nan,nan,nan,nan,nan,nan,nan,nan,nan,nan,nan,nan,nan,1.6677982045173645,1.6675982045173645,2.776586158370972,2.7763861583709715
nan,nan,nan,nan,nan,nan,nan,nan,nan,nan,nan,nan,nan,nan,1.7593660871709658,1.7341738127738837,3.393694969226809,2.72866375041546
nan,nan,nan,nan,nan,nan,nan,nan,nan,nan,nan,nan,nan,nan,1.9130552705802832,1.7334805019283948,4.042079256953829,2.459545619198455
nan,nan,nan,nan,nan,nan,nan,nan,nan,nan,nan,nan,nan,nan,2.3330655275810797,1.4483542117568957,5.007222404216423,1.6797588799884384
nan,nan,nan,nan,nan,nan,nan,nan,nan,nan,nan,nan,nan,nan,4.461889072050168,-0.5722420100212571,7.1455899742803375,-0.46901405043891553
nan,nan,nan,nan,nan,nan,nan,nan,nan,nan,nan,nan,nan,nan,1.6677982045173645,1.6675982045173645,2.776586158370972,2.7763861583709715
nan,nan,nan,nan,nan,nan,nan,nan,nan,nan,nan,nan,nan,nan,1.7593668629814347,1.7341730369634147,3.3937147275274517,2.7286439921148196
nan,nan,nan,nan,nan,nan,nan,nan,nan,nan,nan,nan,nan,nan,1.9130612726734737,1.7334744998352059,4.0421241252284075,2.4595007509238807
nan,nan,nan,nan,nan,nan,nan,nan,nan,nan,nan,nan,nan,nan,2.3331013812773707,1.448318358060613,5.007313045128908,1.6796682390759712
nan,nan,nan,nan,nan,nan,nan,nan,nan,nan,nan,nan,nan,nan,4.462133512926924,-0.5724864508979737,7.145798388117156,-0.46922246427568
nan,nan,nan,nan,nan,nan,nan,nan,nan,nan,nan,nan,nan,nan,1.6391725374221802,1.6389725374221802,0.42220471630096434,0.42200471630096437
nan,nan,nan,nan,nan,nan,nan,nan,nan,nan,nan,nan,nan,nan,1.8014620180601988,1.7749292083124795,1.4663753990883002,1.1927982659460175
nan,nan,nan,nan,nan,nan,nan,nan,nan,nan,nan,nan,nan,nan,2.1179361403138866,1.940249234003038,2.628278155335278,1.762818808046189
nan,nan,nan,nan,nan,nan,nan,nan,nan,nan,nan,nan,nan,nan,2.8430910508764935,1.8484555258096595,4.383172552036071,1.6395019705079465
nan,nan,nan,nan,nan,nan,nan,nan,nan,nan,nan,nan,nan,nan,7.068005814090364,-1.6268170661179375,7.997043287202661,-0.45943912832400713
nan,nan,nan,nan,nan,nan,nan,nan,nan,nan,nan,nan,nan,nan,1.6391725374221802,1.6389725374221802,0.42220471630096434,0.42200471630096437
nan,nan,nan,nan,nan,nan,nan,nan,nan,nan,nan,nan,nan,nan,1.8023730042539368,1.7765244905324855,1.4646950393925329,1.194478625641785
nan,nan,nan,nan,nan,nan,nan,nan,nan,nan,nan,nan,nan,nan,2.119525851519237,1.9529928615164842,2.60051676103362,1.7905802023478485
nan,nan,nan,nan,nan,nan,nan,nan,nan,nan,nan,nan,nan,nan,2.7726986231768835,1.9594088134001342,4.210509791092569,1.8121647314514546
nan,nan,nan,nan,nan,nan,nan,nan,nan,nan,nan,nan,nan,nan,5.784381859279671,-0.259373843134289,7.234016289839564,0.3035878690391044
nan,nan,nan,nan,nan,nan,nan,nan,nan,nan,nan,nan,nan,nan,0.4242809248924255,0.42408092489242555,1.0970114303588867,1.0968114303588867
nan,nan,nan,nan,nan,nan,nan,nan,nan,nan,nan,nan,nan,nan,0.39416139414825546,0.3704841711114965,0.3268549297528694,0.05828970330687278
nan,nan,nan,nan,nan,nan,nan,nan,nan,nan,nan,nan,nan,nan,0.501259512807316,0.3703801263909395,-0.3120694561202424,-1.0269357095919425
nan,nan,nan,nan,nan,nan,nan,nan,nan,nan,nan,nan,nan,nan,0.808150360522638,0.34321171151992586,-0.614186041314934,-2.347213359421891
nan,nan,nan,nan,nan,nan,nan,nan,nan,nan,nan,nan,nan,nan,1.800780590178902,-0.22122995085611005,-0.07201460159202344,-4.393813043518014
nan,nan,nan,nan,nan,nan,nan,nan,nan,nan,nan,nan,nan,nan,0.4242809248924255,0.42408092489242555,1.0970114303588867,1.0968114303588867
nan,nan,nan,nan,nan,nan,nan,nan,nan,nan,nan,nan,nan,nan,0.38660298994817127,0.3672439113261389,0.2702987269106593,0.05727849594506113
nan,nan,nan,nan,nan,nan,nan,nan,nan,nan,nan,nan,nan,nan,0.47439168757174066,0.3754567263578056,-0.5090571044469496,-1.020455988871573
nan,nan,nan,nan,nan,nan,nan,nan,nan,nan,nan,nan,nan,nan,0.741447253071912,0.3997000301559051,-1.056528263259796,-2.2593622995262685
nan,nan,nan,nan,nan,nan,nan,nan,nan,nan,nan,nan,nan,nan,1.4540682118794703,0.160775787612918,-0.9605048626249612,-4.052227407712704
nan,nan,nan,nan,nan,nan,nan,nan,nan,nan,nan,nan,nan,nan,1.2494216544389725,1.2492216544389725,0.09231017360687256,0.09211017360687256
nan,nan,nan,nan,nan,nan,nan,nan,nan,nan,nan,nan,nan,nan,0.8872538205744854,0.8696382705421922,0.6688182566792905,0.005083955943978591
nan,nan,nan,nan,nan,nan,nan,nan,nan,nan,nan,nan,nan,nan,0.6132950668162688,0.4841875690220082,1.406223690470986,-0.055771263517582756
nan,nan,nan,nan,nan,nan,nan,nan,nan,nan,nan,nan,nan,nan,0.5967887054479705,-0.055979789340951894,2.5060555440134187,-0.29874441991307743
nan,nan,nan,nan,nan,nan,nan,nan,nan,nan,nan,nan,nan,nan,1.6220842092177612,-1.5124414336912295,4.48422997890681,-1.2483131237047531
nan,nan,nan,nan,nan,nan,nan,nan,nan,nan,nan,nan,nan,nan,1.2494216544389725,1.2492216544389725,0.09231017360687256,0.09211017360687256
nan,nan,nan,nan,nan,nan,nan,nan,nan,nan,nan,nan,nan,nan,0.8887262183110999,0.871018149962176,0.6689037440447708,0.004998468578497953
nan,nan,nan,nan,nan,nan,nan,nan,nan,nan,nan,nan,nan,nan,0.6194468545088503,0.4891974073770275,1.407328863817998,-0.05687643686459731
nan,nan,nan,nan,nan,nan,nan,nan,nan,nan,nan,nan,nan,nan,0.6121594829154803,-0.047904636881856845,2.512118657092681,-0.30480753299234614
nan,nan,nan,nan,nan,nan,nan,nan,nan,nan,nan,nan,nan,nan,1.6635781067634858,-1.5157412159221713,4.50867759915098,-1.2727607439489397
nan,nan,nan,nan,nan,nan,nan,nan,nan,nan,nan,nan,nan,nan,1.8392165137290954,1.8390165137290955,0.9021885825157165,0.9019885825157166
nan,nan,nan,nan,nan,nan,nan,nan,nan,nan,nan,nan,nan,nan,1.8237017376370832,1.818987104831625,1.265335519537588,0.5734967385560972
nan,nan,nan,nan,nan,nan,nan,nan,nan,nan,nan,nan,nan,nan,1.8393798466009244,1.7737853146303069,1.8130074658950437,0.21679102661512734
nan,nan,nan,nan,nan,nan,nan,nan,nan,nan,nan,nan,nan,nan,2.0090984632931406,1.5723361244151455,2.745235250376814,-0.4844790359085758
nan,nan,nan,nan,nan,nan,nan,nan,nan,nan,nan,nan,nan,nan,3.233710511534281,0.3057872279723478,4.689815025904723,-2.2378147608742043
nan,nan,nan,nan,nan,nan,nan,nan,nan,nan,nan,nan,nan,nan,1.8392165137290954,1.8390165137290955,0.9021885825157165,0.9019885825157166
nan,nan,nan,nan,nan,nan,nan,nan,nan,nan,nan,nan,nan,nan,1.8238215178870347,1.8191148689347945,1.2653562985676998,0.5734922804634051
nan,nan,nan,nan,nan,nan,nan,nan,nan,nan,nan,nan,nan,nan,1.839904997981408,1.774350151946317,1.8134957504861047,0.2171508657353287
nan,nan,nan,nan,nan,nan,nan,nan,nan,nan,nan,nan,nan,nan,2.010162171901314,1.5737488916688782,2.7466686504247995,-0.4835948373755347
nan,nan,nan,nan,nan,nan,nan,nan,nan,nan,nan,nan,nan,nan,3.234516906231336,0.3092750472509231,4.692871557659345,-2.2370184562582587
nan,nan,nan,nan,nan,nan,nan,nan,nan,nan,nan,nan,nan,nan,1.7606924606323242,1.7604924606323242,2.216950757598877,2.2167507575988767
nan,nan,nan,nan,nan,nan,nan,nan,nan,nan,nan,nan,nan,nan,1.7660859920049354,1.7569971851181707,2.6097117310399187,1.9176800129711842
nan,nan,nan,nan,nan,nan,nan,nan,nan,nan,nan,nan,nan,nan,1.836996013073633,1.7218960329381165,3.210046145674647,1.6060566729803303
nan,nan,nan,nan,nan,nan,nan,nan,nan,nan,nan,nan,nan,nan,2.1730343752147703,1.4651226696872148,4.2908263989702595,1.006123634536481
nan,nan,nan,nan,nan,nan,nan,nan,nan,nan,nan,nan,nan,nan,3.9869582406777573,-0.21117778508179202,6.600757006229581,-0.6356280840870004
nan,nan,nan,nan,nan,nan,nan,nan,nan,nan,nan,nan,nan,nan,1.7064061594963074,1.7062061594963074,1.1028774810791016,1.1026774810791016
nan,nan,nan,nan,nan,nan,nan,nan,nan,nan,nan,nan,nan,nan,1.7104127423462345,1.7046283591473383,1.4847202020311618,0.7924356486240738
nan,nan,nan,nan,nan,nan,nan,nan,nan,nan,nan,nan,nan,nan,1.7422917237467526,1.6717802937330588,2.0175298748237185,0.41450347036646856
nan,nan,nan,nan,nan,nan,nan,nan,nan,nan,nan,nan,nan,nan,1.9269538980800833,1.4731917272530453,2.9219225768653256,-0.3430514995102948
nan,nan,nan,nan,nan,nan,nan,nan,nan,nan,nan,nan,nan,nan,3.2228339284666148,0.14472362789308915,4.870614867720116,-2.201249798922877
nan,nan,nan,nan,nan,nan,nan,nan,nan,nan,nan,nan,nan,nan,1.7064061594963074,1.7062061594963074,1.1028774810791016,1.1026774810791016
nan,nan,nan,nan,nan,nan,nan,nan,nan,nan,nan,nan,nan,nan,1.7104130138219158,1.704628435822703,1.4847292790408009,0.7924295752350957
nan,nan,nan,nan,nan,nan,nan,nan,nan,nan,nan,nan,nan,nan,1.7422938582286838,1.671779902308005,2.0175529421651097,0.4144915495033265
nan,nan,nan,nan,nan,nan,nan,nan,nan,nan,nan,nan,nan,nan,1.9269654048348055,1.473185684780383,2.9219688813214577,-0.34307734907369064
nan,nan,nan,nan,nan,nan,nan,nan,nan,nan,nan,nan,nan,nan,3.2229033450869036,0.14466532805159898,4.870710583303272,-2.2013169747040098
nan,nan,nan,nan,nan,nan,nan,nan,nan,nan,nan,nan,nan,nan,1.5934784246444702,1.5932784246444702,0.8142133785247803,0.8140133785247803
nan,nan,nan,nan,nan,nan,nan,nan,nan,nan,nan,nan,nan,nan,1.6033429313412284,1.5973629692687386,1.2095761926496995,0.5175308148092629
nan,nan,nan,nan,nan,nan,nan,nan,nan,nan,nan,nan,nan,nan,1.6480255204205303,1.572366803494223,1.8122615072907817,0.20869518865073103
nan,nan,nan,nan,nan,nan,nan,nan,nan,nan,nan,nan,nan,nan,1.8800484238439863,1.3746886077450304,2.8897561972117685,-0.3829164236680738
nan,nan,nan,nan,nan,nan,nan,nan,nan,nan,nan,nan,nan,nan,3.3272989482362783,-0.008500671652296541,5.147960281357134,-1.968058824191415
nan,nan,nan,nan,nan,nan,nan,nan,nan,nan,nan,nan,nan,nan,1.522751195526123,1.522551195526123,-0.49188052287101747,-0.49208052287101745
nan,nan,nan,nan,nan,nan,nan,nan,nan,nan,nan,nan,nan,nan,1.5284621236894527,1.5236962330795518,-0.10222235567825297,-0.794468759631591
nan,nan,nan,nan,nan,nan,nan,nan,nan,nan,nan,nan,nan,nan,1.5488366870915358,1.4905312519765042,0.4949238245856396,-1.1092624743396522
nan,nan,nan,nan,nan,nan,nan,nan,nan,nan,nan,nan,nan,nan,1.6940522384450523,1.322682910189513,1.5659937955010677,-1.705718617078115
nan,nan,nan,nan,nan,nan,nan,nan,nan,nan,nan,nan,nan,nan,2.8464031296751284,0.1525724012435592,3.787327718959163,-3.2915363925239634
nan,nan,nan,nan,nan,nan,nan,nan,nan,nan,nan,nan,nan,nan,1.522751195526123,1.522551195526123,-0.49188052287101747,-0.49208052287101745
nan,nan,nan,nan,nan,nan,nan,nan,nan,nan,nan,nan,nan,nan,1.528462094035181,1.523696104625146,-0.1022155207884837,-0.7944755945213599
nan,nan,nan,nan,nan,nan,nan,nan,nan,nan,nan,nan,nan,nan,1.5488371186942755,1.4905301790269092,0.49493946754203855,-1.1092781172960504
nan,nan,nan,nan,nan,nan,nan,nan,nan,nan,nan,nan,nan,nan,1.6940576866680992,1.3226760643622897,1.5660253605517673,-1.7057501821288166
nan,nan,nan,nan,nan,nan,nan,nan,nan,nan,nan,nan,nan,nan,2.846455118614063,0.1525180350101178,3.7873957657818442,-3.291604730712463
nan,nan,nan,nan,nan,nan,nan,nan,nan,nan,nan,nan,nan,nan,1.388828678226471,1.388628678226471,0.15205874869823455,0.15185874869823457
nan,nan,nan,nan,nan,nan,nan,nan,nan,nan,nan,nan,nan,nan,1.4046270397843463,1.4007001415373572,0.5391344398919897,-0.15340404624140588
nan,nan,nan,nan,nan,nan,nan,nan,nan,nan,nan,nan,nan,nan,1.4392632834269787,1.3856831512512762,1.1317394994522552,-0.47520141620379414
nan,nan,nan,nan,nan,nan,nan,nan,nan,nan,nan,nan,nan,nan,1.6121157369819614,1.2280932062107095,2.1544908046287947,-1.1292906544238392
nan,nan,nan,nan,nan,nan,nan,nan,nan,nan,nan,nan,nan,nan,2.844307930025885,0.00539825109310622,4.24967321460024,-2.8704565126856227
nan,nan,nan,nan,nan,nan,nan,nan,nan,nan,nan,nan,nan,nan,1.3148758543491363,1.3146758543491364,0.07991186360120774,0.07971186360120773
nan,nan,nan,nan,nan,nan,nan,nan,nan,nan,nan,nan,nan,nan,1.332215579290909,1.3287100439049961,0.4621803648269516,-0.23052465192245505
nan,nan,nan,nan,nan,nan,nan,nan,nan,nan,nan,nan,nan,nan,1.3666417705732292,1.31624641661197,1.0525956934259515,-0.5553276687019729
nan,nan,nan,nan,nan,nan,nan,nan,nan,nan,nan,nan,nan,nan,1.5376983986766382,1.1635847311714351,2.0870934296677595,-1.2006640407317928
nan,nan,nan,nan,nan,nan,nan,nan,nan,nan,nan,nan,nan,nan,2.765033518500847,-0.048596908746529825,4.204867226330564,-2.928776872109061
nan,nan,nan,nan,nan,nan,nan,nan,nan,nan,nan,nan,nan,nan,1.3148758543491363,1.3146758543491364,0.07991186360120774,0.07971186360120773
nan,nan,nan,nan,nan,nan,nan,nan,nan,nan,nan,nan,nan,nan,1.3322155848567627,1.3287099765171224,0.46218588116167586,-0.2305301682571785
nan,nan,nan,nan,nan,nan,nan,nan,nan,nan,nan,nan,nan,nan,1.3666420839348812,1.316245479688782,1.052608253009918,-0.5553403174515611
nan,nan,nan,nan,nan,nan,nan,nan,nan,nan,nan,nan,nan,nan,1.5377031791801619,1.1635782100537893,2.0871183692524258,-1.200690045930297
nan,nan,nan,nan,nan,nan,nan,nan,nan,nan,nan,nan,nan,nan,2.765078899421732,-0.048645669214994955,4.2049212950423005,-2.928833480383494
nan,nan,nan,nan,nan,nan,nan,nan,nan,nan,nan,nan,nan,nan,1.1787366701126099,1.1785366701126099,-1.909006731414795,-1.909206731414795
nan,nan,nan,nan,nan,nan,nan,nan,nan,nan,nan,nan,nan,nan,1.1952596754847373,1.1871818316129235,-1.5227430744538974,-2.215778542034724
nan,nan,nan,nan,nan,nan,nan,nan,nan,nan,nan,nan,nan,nan,1.2323194593927709,1.1311347525782673,-0.9250502345102608,-2.5386268957482634
nan,nan,nan,nan,nan,nan,nan,nan,nan,nan,nan,nan,nan,nan,1.456018439920682,0.8533625497304105,0.16515752795363547,-3.1615836873478265
nan,nan,nan,nan,nan,nan,nan,nan,nan,nan,nan,nan,nan,nan,2.92640981661454,-0.6912433558461646,2.507929012882778,-4.849366334026614
nan,nan,nan,nan,nan,nan,nan,nan,nan,nan,nan,nan,nan,nan,1.1057865006685257,1.1055865006685257,-1.653947966003418,-1.654147966003418
nan,nan,nan,nan,nan,nan,nan,nan,nan,nan,nan,nan,nan,nan,1.125508573804168,1.1179082053566975,-1.2651319386569693,-1.9581444328890496
nan,nan,nan,nan,nan,nan,nan,nan,nan,nan,nan,nan,nan,nan,1.1648415407178523,1.0702891388212727,-0.664885640583514,-2.278465646220044
nan,nan,nan,nan,nan,nan,nan,nan,nan,nan,nan,nan,nan,nan,1.3821599153795208,0.8136079027499571,0.42678261373594106,-2.8979002104311995
nan,nan,nan,nan,nan,nan,nan,nan,nan,nan,nan,nan,nan,nan,2.8048962061777964,-0.6644497042823706,2.760760061081107,-4.5722367106514685
nan,nan,nan,nan,nan,nan,nan,nan,nan,nan,nan,nan,nan,nan,1.1057865006685257,1.1055865006685257,-1.653947966003418,-1.654147966003418
nan,nan,nan,nan,nan,nan,nan,nan,nan,nan,nan,nan,nan,nan,1.12550977605322,1.1179092288495545,-1.265126355542642,-1.958150016003377
nan,nan,nan,nan,nan,nan,nan,nan,nan,nan,nan,nan,nan,nan,1.1648473241959636,1.070292406509575,-0.6648732655419296,-2.2784780212616313
nan,nan,nan,nan,nan,nan,nan,nan,nan,nan,nan,nan,nan,nan,1.3821789334595034,0.8136086650207712,0.42680575846430996,-2.8979233551595796
nan,nan,nan,nan,nan,nan,nan,nan,nan,nan,nan,nan,nan,nan,2.8049645114061885,-0.6644844547536889,2.7608022146594693,-4.5722787988259475
nan,nan,nan,nan,nan,nan,nan,nan,nan,nan,nan,nan,nan,nan,0.9501913172960281,0.9499913172960281,0.6137996746063232,0.6135996746063233
nan,nan,nan,nan,nan,nan,nan,nan,nan,nan,nan,nan,nan,nan,0.9766312975831359,0.9712878215898707,0.9134005213103067,0.22050191442507847
nan,nan,nan,nan,nan,nan,nan,nan,nan,nan,nan,nan,nan,nan,1.0182435577586721,0.9572696333758323,1.260655734825653,-0.3519408968206547
nan,nan,nan,nan,nan,nan,nan,nan,nan,nan,nan,nan,nan,nan,1.1903936559582335,0.8006839505415996,1.9743744648680832,-1.3368961670347548
nan,nan,nan,nan,nan,nan,nan,nan,nan,nan,nan,nan,nan,nan,2.3996376920079916,-0.40096746272851713,3.7970229121969723,-3.4212695728532285
nan,nan,nan,nan,nan,nan,nan,nan,nan,nan,nan,nan,nan,nan,0.9501913172960281,0.9499913172960281,0.6137996746063232,0.6135996746063233
nan,nan,nan,nan,nan,nan,nan,nan,nan,nan,nan,nan,nan,nan,0.9766313574370995,0.9712875345582596,0.9134031974615129,0.22049547726784421
nan,nan,nan,nan,nan,nan,nan,nan,nan,nan,nan,nan,nan,nan,1.0182438233972126,0.9572658261214633,1.2606537784871887,-0.35196252131849404
nan,nan,nan,nan,nan,nan,nan,nan,nan,nan,nan,nan,nan,nan,1.1903948649594798,0.8006683006692326,1.9743667981870199,-1.3369379734655542
nan,nan,nan,nan,nan,nan,nan,nan,nan,nan,nan,nan,nan,nan,2.399655440174841,-0.4010175442511209,3.797010697592416,-3.4213307342816566
nan,nan,nan,nan,nan,nan,nan,nan,nan,nan,nan,nan,nan,nan,0.8339448703289032,0.8337448703289032,-1.5227984355926514,-1.5229984355926514
nan,nan,nan,nan,nan,nan,nan,nan,nan,nan,nan,nan,nan,nan,0.8605720482499801,0.8530076301617228,-1.1298544038971832,-1.8229749260437986
nan,nan,nan,nan,nan,nan,nan,nan,nan,nan,nan,nan,nan,nan,0.9072597017022052,0.8144408060883017,-0.5246308882333542,-2.1402030055185497
nan,nan,nan,nan,nan,nan,nan,nan,nan,nan,nan,nan,nan,nan,1.1317972436348387,0.5695576569588716,0.5744358016110082,-2.7591239194288275
nan,nan,nan,nan,nan,nan,nan,nan,nan,nan,nan,nan,nan,nan,2.563154010046683,-0.8954951213603445,2.9193935637737893,-4.436583023790511
nan,nan,nan,nan,nan,nan,nan,nan,nan,nan,nan,nan,nan,nan,0.8339448703289032,0.8337448703289032,-1.5227984355926514,-1.5229984355926514
nan,nan,nan,nan,nan,nan,nan,nan,nan,nan,nan,nan,nan,nan,0.860575123963834,0.8530104581860912,-1.1298501229127162,-1.8229792070282662
nan,nan,nan,nan,nan,nan,nan,nan,nan,nan,nan,nan,nan,nan,0.9072733494279689,0.8144511451588373,-0.5246222390520024,-2.1402116546999097
nan,nan,nan,nan,nan,nan,nan,nan,nan,nan,nan,nan,nan,nan,1.1318348522506352,0.5695724062700379,0.5744479081293228,-2.7591360259471727
nan,nan,nan,nan,nan,nan,nan,nan,nan,nan,nan,nan,nan,nan,2.5632396277429716,-0.89549203920529,2.919396153910252,-4.436585613927067
nan,nan,nan,nan,nan,nan,nan,nan,nan,nan,nan,nan,nan,nan,0.7012571526527405,0.7010571526527405,-0.1865297721862793,-0.18672977218627929
nan,nan,nan,nan,nan,nan,nan,nan,nan,nan,nan,nan,nan,nan,0.7343572594977561,0.7300546377264997,0.20605361755367133,-0.48699852731873206
nan,nan,nan,nan,nan,nan,nan,nan,nan,nan,nan,nan,nan,nan,0.7828826323921385,0.7293220280720955,0.8101949632459255,-0.8037909979358918
nan,nan,nan,nan,nan,nan,nan,nan,nan,nan,nan,nan,nan,nan,0.9635714914187672,0.5913622539478564,1.9030503090992212,-1.4171343232213254
nan,nan,nan,nan,nan,nan,nan,nan,nan,nan,nan,nan,nan,nan,2.2694341106472615,-0.6619564135162846,4.207674108111975,-3.054874081777333
nan,nan,nan,nan,nan,nan,nan,nan,nan,nan,nan,nan,nan,nan,0.6193008554935455,0.6191008554935455,0.29707319865226745,0.29687319865226747
nan,nan,nan,nan,nan,nan,nan,nan,nan,nan,nan,nan,nan,nan,0.6548682929221901,0.65263925172243,0.6516158671854465,-0.04208616187750376
nan,nan,nan,nan,nan,nan,nan,nan,nan,nan,nan,nan,nan,nan,0.7003770914036067,0.6639075562290022,1.1342669977713884,-0.48192705123712787
nan,nan,nan,nan,nan,nan,nan,nan,nan,nan,nan,nan,nan,nan,0.8626610887529313,0.5462018265341717,2.010799338691958,-1.3154774253963206
nan,nan,nan,nan,nan,nan,nan,nan,nan,nan,nan,nan,nan,nan,2.0785453400118166,-0.6369652626693235,3.996622092991984,-3.272826737637579
nan,nan,nan,nan,nan,nan,nan,nan,nan,nan,nan,nan,nan,nan,0.5517681969165802,0.5515681969165802,0.3282523883342743,0.3280523883342743
nan,nan,nan,nan,nan,nan,nan,nan,nan,nan,nan,nan,nan,nan,0.5890702598855818,0.5858281538834378,0.6975575088971978,0.003892480054088244
nan,nan,nan,nan,nan,nan,nan,nan,nan,nan,nan,nan,nan,nan,0.6408563610086685,0.5955790328424719,1.2164214406987521,-0.40001905940287463
nan,nan,nan,nan,nan,nan,nan,nan,nan,nan,nan,nan,nan,nan,0.8196391521509285,0.46754141741208305,2.13485186029518,-1.1938575907629985
nan,nan,nan,nan,nan,nan,nan,nan,nan,nan,nan,nan,nan,nan,2.091249725529692,-0.7648930276037423,4.1640971582727015,-3.1232364294546873
nan,nan,nan,nan,nan,nan,nan,nan,nan,nan,nan,nan,nan,nan,0.5067174566745758,0.5065174566745758,0.773549182510376,0.773349182510376
nan,nan,nan,nan,nan,nan,nan,nan,nan,nan,nan,nan,nan,nan,0.5447317460459291,0.5413558328554509,1.127239048408197,0.43344387963221814
nan,nan,nan,nan,nan,nan,nan,nan,nan,nan,nan,nan,nan,nan,0.598909893943124,0.54884154198892,1.6070936464191712,-0.010304496506289321
nan,nan,nan,nan,nan,nan,nan,nan,nan,nan,nan,nan,nan,nan,0.7899258648601899,0.4064328376073764,2.477455621661939,-0.8569555030531515
nan,nan,nan,nan,nan,nan,nan,nan,nan,nan,nan,nan,nan,nan,2.113777657826166,-0.8824323593514615,4.467465921708295,-2.8521867656915996
nan,nan,nan,nan,nan,nan,nan,nan,nan,nan,nan,nan,nan,nan,0.5067174566745758,0.5065174566745758,0.773549182510376,0.773349182510376
nan,nan,nan,nan,nan,nan,nan,nan,nan,nan,nan,nan,nan,nan,0.5447315975949155,0.5413556595943697,1.127241613044148,0.4334407222138147
nan,nan,nan,nan,nan,nan,nan,nan,nan,nan,nan,nan,nan,nan,0.5989095228958796,0.5488406299763594,1.6070991927237752,-0.010312007385659525
nan,nan,nan,nan,nan,nan,nan,nan,nan,nan,nan,nan,nan,nan,0.7899270067411566,0.40642891625370753,2.477466985811617,-0.8569703554335677
nan,nan,nan,nan,nan,nan,nan,nan,nan,nan,nan,nan,nan,nan,2.113797337929928,-0.8824567611117862,4.4674911511695266,-2.8522167881359684
nan,nan,nan,nan,nan,nan,nan,nan,nan,nan,nan,nan,nan,nan,0.4383309317588806,0.4381309317588806,1.8773820234298706,1.8771820234298706
nan,nan,nan,nan,nan,nan,nan,nan,nan,nan,nan,nan,nan,nan,0.46881909215609036,0.46041533371776944,2.178899417131533,1.4854115032500623
nan,nan,nan,nan,nan,nan,nan,nan,nan,nan,nan,nan,nan,nan,0.5227312936468791,0.4228149708931923,2.5291526818787124,0.9097509065544012
nan,nan,nan,nan,nan,nan,nan,nan,nan,nan,nan,nan,nan,nan,0.7689911506986173,0.171525675482481,3.245161357093503,-0.1074115895797879
nan,nan,nan,nan,nan,nan,nan,nan,nan,nan,nan,nan,nan,nan,2.328538672784202,-1.4032983899526459,5.123640611912096,-2.3168386149794036
nan,nan,nan,nan,nan,nan,nan,nan,nan,nan,nan,nan,nan,nan,0.4383309317588806,0.4381309317588806,1.8773820234298706,1.8771820234298706
nan,nan,nan,nan,nan,nan,nan,nan,nan,nan,nan,nan,nan,nan,0.46881655140809714,0.46041232517559244,2.178897498454934,1.4854045755285368
nan,nan,nan,nan,nan,nan,nan,nan,nan,nan,nan,nan,nan,nan,0.5227222735452254,0.4228023158730619,2.5291404863824067,0.9097302382661633
nan,nan,nan,nan,nan,nan,nan,nan,nan,nan,nan,nan,nan,nan,0.7689719758246987,0.17149995383623437,3.245133954447888,-0.10744434045642925
nan,nan,nan,nan,nan,nan,nan,nan,nan,nan,nan,nan,nan,nan,2.3284912918265372,-1.403324395262339,5.123583800830228,-2.316865254317077
nan,nan,nan,nan,nan,nan,nan,nan,nan,nan,nan,nan,nan,nan,0.3724854422569275,0.3722854422569275,0.30187366733551024,0.30167366733551026
nan,nan,nan,nan,nan,nan,nan,nan,nan,nan,nan,nan,nan,nan,0.41355476987430057,0.40905609335820237,0.6930068732030302,-0.00030867563804598726
nan,nan,nan,nan,nan,nan,nan,nan,nan,nan,nan,nan,nan,nan,0.47818657219737243,0.417818139323665,1.296742317397322,-0.31982857661622693
nan,nan,nan,nan,nan,nan,nan,nan,nan,nan,nan,nan,nan,nan,0.7020119630431279,0.27176694560796477,2.394219504476785,-0.9408653279160654
nan,nan,nan,nan,nan,nan,nan,nan,nan,nan,nan,nan,nan,nan,2.1573170596805626,-1.087008593302674,4.728537805483531,-2.6112787359236735
nan,nan,nan,nan,nan,nan,nan,nan,nan,nan,nan,nan,nan,nan,0.3724854422569275,0.3722854422569275,0.30187366733551024,0.30167366733551026
nan,nan,nan,nan,nan,nan,nan,nan,nan,nan,nan,nan,nan,nan,0.41355475749776066,0.40905604154017766,0.693009434743576,-0.0003112371785920465
nan,nan,nan,nan,nan,nan,nan,nan,nan,nan,nan,nan,nan,nan,0.47818675962429996,0.4178176921073534,1.2967482009501745,-0.3198344601690818
nan,nan,nan,nan,nan,nan,nan,nan,nan,nan,nan,nan,nan,nan,0.7020143629822576,0.271763981133955,2.394231485693733,-0.9408773091330198
nan,nan,nan,nan,nan,nan,nan,nan,nan,nan,nan,nan,nan,nan,2.157339375457002,-1.0870318607062237,4.728563991657473,-2.611304922097636
nan,nan,nan,nan,nan,nan,nan,nan,nan,nan,nan,nan,nan,nan,0.2849759293556213,0.28477592935562135,-1.6161052154541016,-1.6163052154541016
nan,nan,nan,nan,nan,nan,nan,nan,nan,nan,nan,nan,nan,nan,0.3207962941035734,0.31317018258057544,-1.2272988412385881,-1.920877451402949
nan,nan,nan,nan,nan,nan,nan,nan,nan,nan,nan,nan,nan,nan,0.3786599419341471,0.28227137067322994,-0.6245990592258222,-2.2442321238692338
nan,nan,nan,nan,nan,nan,nan,nan,nan,nan,nan,nan,nan,nan,0.6258456995273595,0.03326631597295362,0.477966697940607,-2.8751329242047294
nan,nan,nan,nan,nan,nan,nan,nan,nan,nan,nan,nan,nan,nan,2.1411396835036367,-1.4983532982256842,2.8471900435935193,-4.585084186079177
nan,nan,nan,nan,nan,nan,nan,nan,nan,nan,nan,nan,nan,nan,0.2849759293556213,0.28477592935562135,-1.6161052154541016,-1.6163052154541016
nan,nan,nan,nan,nan,nan,nan,nan,nan,nan,nan,nan,nan,nan,0.3207944761946058,0.31316839057148776,-1.2272968902159522,-1.9208794024255844
nan,nan,nan,nan,nan,nan,nan,nan,nan,nan,nan,nan,nan,nan,0.3786524495264827,0.28226418356280614,-0.6245939749337505,-2.244237208161303
nan,nan,nan,nan,nan,nan,nan,nan,nan,nan,nan,nan,nan,nan,0.6258286766106397,0.033251250243984676,0.4779798030364104,-2.8751460293005247
nan,nan,nan,nan,nan,nan,nan,nan,nan,nan,nan,nan,nan,nan,2.141128085164074,-1.4983961733934057,2.847231163309492,-4.585125305795125
nan,nan,nan,nan,nan,nan,nan,nan,nan,nan,nan,nan,nan,nan,0.18056969175338744,0.18036969175338746,0.7660201622009277,0.7658201622009277
nan,nan,nan,nan,nan,nan,nan,nan,nan,nan,nan,nan,nan,nan,0.22559781049771008,0.2201474933801227,1.15372560966517,0.46022976641403857
nan,nan,nan,nan,nan,nan,nan,nan,nan,nan,nan,nan,nan,nan,0.302800355437091,0.23122576244557752,1.7429166088471002,0.12485266772097625
nan,nan,nan,nan,nan,nan,nan,nan,nan,nan,nan,nan,nan,nan,0.5483874607204733,0.07175899121272135,2.7591291085864036,-0.5849101066779139
nan,nan,nan,nan,nan,nan,nan,nan,nan,nan,nan,nan,nan,nan,2.046948616721543,-1.3512946623761644,4.911816862935597,-2.4744767661996803
nan,nan,nan,nan,nan,nan,nan,nan,nan,nan,nan,nan,nan,nan,0.18056969175338744,0.18036969175338746,0.7660201622009277,0.7658201622009277
nan,nan,nan,nan,nan,nan,nan,nan,nan,nan,nan,nan,nan,nan,0.22559612372085786,0.22014565458902743,1.1537270176786594,0.46022835840054976
nan,nan,nan,nan,nan,nan,nan,nan,nan,nan,nan,nan,nan,nan,0.30279352827273026,0.23121777652722003,1.7429163412240753,0.12484699372616527
nan,nan,nan,nan,nan,nan,nan,nan,nan,nan,nan,nan,nan,nan,0.5483711960080316,0.0717418241484295,2.7591216984801603,-0.584922541762605
nan,nan,nan,nan,nan,nan,nan,nan,nan,nan,nan,nan,nan,nan,2.046907229428035,-1.3513115080235525,4.911789690174858,-2.4744853736029095
nan,nan,nan,nan,nan,nan,nan,nan,nan,nan,nan,nan,nan,nan,0.10404740104675293,0.10384740104675293,-0.20264205505847932,-0.2028420550584793
nan,nan,nan,nan,nan,nan,nan,nan,nan,nan,nan,nan,nan,nan,0.14616906582135655,0.14210926098161156,0.18422472709708027,-0.5093043283420542
nan,nan,nan,nan,nan,nan,nan,nan,nan,nan,nan,nan,nan,nan,0.20515894580923658,0.15119679975859487,0.7841682346094642,-0.833697155012694
nan,nan,nan,nan,nan,nan,nan,nan,nan,nan,nan,nan,nan,nan,0.40221956989378804,0.01819399516742337,1.8787430672279788,-1.4603283461377239
nan,nan,nan,nan,nan,nan,nan,nan,nan,nan,nan,nan,nan,nan,1.7600049265464823,-1.2662664748435568,4.198597423383764,-3.1396850323337375
nan,nan,nan,nan,nan,nan,nan,nan,nan,nan,nan,nan,nan,nan,0.10404740104675293,0.10384740104675293,-0.20264205505847932,-0.2028420550584793
nan,nan,nan,nan,nan,nan,nan,nan,nan,nan,nan,nan,nan,nan,0.14616833608665006,0.1421085545883992,0.1842264179147521,-0.5093060191597254
nan,nan,nan,nan,nan,nan,nan,nan,nan,nan,nan,nan,nan,nan,0.20515591586719617,0.15119400465518412,0.7841722190798305,-0.8337011394830575
nan,nan,nan,nan,nan,nan,nan,nan,nan,nan,nan,nan,nan,nan,0.40221271716813056,0.018188155693944576,1.8787517128903257,-1.4603369918000573
nan,nan,nan,nan,nan,nan,nan,nan,nan,nan,nan,nan,nan,nan,1.7600015029032001,-1.2662845853678761,4.1986184054669575,-3.1397070335360064
nan,nan,nan,nan,nan,nan,nan,nan,nan,nan,nan,nan,nan,nan,0.08118878135681153,0.08098878135681152,2.048366887664795,2.0481668876647947
nan,nan,nan,nan,nan,nan,nan,nan,nan,nan,nan,nan,nan,nan,0.13352854453662918,0.12470229209300267,2.4396471292733803,1.7459698853608068
nan,nan,nan,nan,nan,nan,nan,nan,nan,nan,nan,nan,nan,nan,0.2493119430211994,0.1361886293237129,3.045905360072632,1.4238602192388794
nan,nan,nan,nan,nan,nan,nan,nan,nan,nan,nan,nan,nan,nan,0.6258208341032566,-0.07361257307064514,4.1612675258451945,0.7848728249851502
nan,nan,nan,nan,nan,nan,nan,nan,nan,nan,nan,nan,nan,nan,2.625327070193331,-1.8535688571345854,6.606148155712705,-0.9961666057704571
nan,nan,nan,nan,nan,nan,nan,nan,nan,nan,nan,nan,nan,nan,0.08118878135681153,0.08098878135681152,2.048366887664795,2.0481668876647947
nan,nan,nan,nan,nan,nan,nan,nan,nan,nan,nan,nan,nan,nan,0.13352878785925934,0.12470252105781315,2.4396483293328597,1.745968685301326
nan,nan,nan,nan,nan,nan,nan,nan,nan,nan,nan,nan,nan,nan,0.24931306670055722,0.1361893987852358,3.045908366982866,1.4238572123286393
nan,nan,nan,nan,nan,nan,nan,nan,nan,nan,nan,nan,nan,nan,0.6258249665393415,-0.07361264087022487,4.161274743457024,0.7848656073733025
nan,nan,nan,nan,nan,nan,nan,nan,nan,nan,nan,nan,nan,nan,2.6253512027966055,-1.8535862380701185,6.606168273817683,-0.9961867238754806
nan,nan,nan,nan,nan,nan,nan,nan,nan,nan,nan,nan,nan,nan,0.007211132144927979,0.007011132144927978,-0.3849333094596863,-0.38513330945968627
nan,nan,nan,nan,nan,nan,nan,nan,nan,nan,nan,nan,nan,nan,0.04572511463176038,0.041009673175591635,0.0062623060494878865,-0.6870781451412685
nan,nan,nan,nan,nan,nan,nan,nan,nan,nan,nan,nan,nan,nan,0.10226240868127644,0.04234711932693106,0.6099846950712713,-1.0064860275325067
nan,nan,nan,nan,nan,nan,nan,nan,nan,nan,nan,nan,nan,nan,0.30188471947179957,-0.10549371524497361,1.7061663154833817,-1.6261301910794717
nan,nan,nan,nan,nan,nan,nan,nan,nan,nan,nan,nan,nan,nan,1.6207200638187234,-1.364488813511132,4.026266316286816,-3.282231189529776
nan,nan,nan,nan,nan,nan,nan,nan,nan,nan,nan,nan,nan,nan,0.008320136165618896,0.008120136165618897,0.7058769894599914,0.7056769894599915
nan,nan,nan,nan,nan,nan,nan,nan,nan,nan,nan,nan,nan,nan,0.05247478754235282,0.04673065694137434,1.1010293498368247,0.4077429290699638
nan,nan,nan,nan,nan,nan,nan,nan,nan,nan,nan,nan,nan,nan,0.1302012360586806,0.05664644802096634,1.7090665091671702,0.09191011945359821
nan,nan,nan,nan,nan,nan,nan,nan,nan,nan,nan,nan,nan,nan,0.39098928928765125,-0.10282157579070697,2.81337007970803,-0.5281226609185192
nan,nan,nan,nan,nan,nan,nan,nan,nan,nan,nan,nan,nan,nan,1.9680848113918827,-1.5506978352887453,5.1723467866326835,-2.215600810876362
nan,nan,nan,nan,nan,nan,nan,nan,nan,nan,nan,nan,nan,nan,0.02645711431503296,0.02625711431503296,0.9932105971336365,0.9930105971336365
nan,nan,nan,nan,nan,nan,nan,nan,nan,nan,nan,nan,nan,nan,0.07142035377013947,0.0649823634393333,1.3882277363819273,0.6949256678972585
nan,nan,nan,nan,nan,nan,nan,nan,nan,nan,nan,nan,nan,nan,0.15625189919247587,0.07425811165932047,1.9962717109259422,0.3788027983970278
nan,nan,nan,nan,nan,nan,nan,nan,nan,nan,nan,nan,nan,nan,0.4396129393598504,-0.09581234207701644,3.102027127953091,-0.24295939773976108
nan,nan,nan,nan,nan,nan,nan,nan,nan,nan,nan,nan,nan,nan,2.0929943424991406,-1.6025884377632158,5.473421131570357,-1.9431239648963092
nan,nan,nan,nan,nan,nan,nan,nan,nan,nan,nan,nan,nan,nan,0.033207936382293704,0.0330079363822937,-0.09719994088411331,-0.09739994088411331
nan,nan,nan,nan,nan,nan,nan,nan,nan,nan,nan,nan,nan,nan,0.06833252600592088,0.0639889488238244,0.2994227655646556,-0.39362424585771894
nan,nan,nan,nan,nan,nan,nan,nan,nan,nan,nan,nan,nan,nan,0.12068490349155044,0.06837827073637827,0.9077052864914653,-0.7065542249764553
nan,nan,nan,nan,nan,nan,nan,nan,nan,nan,nan,nan,nan,nan,0.3114550217882771,-0.06599447099273137,2.00542050174182,-1.3169138230529938
nan,nan,nan,nan,nan,nan,nan,nan,nan,nan,nan,nan,nan,nan,1.6522603788937038,-1.3361997696702315,4.318909364190978,-2.9559134891910253
nan,nan,nan,nan,nan,nan,nan,nan,nan,nan,nan,nan,nan,nan,0.034621937370300296,0.03442193737030029,-0.9552574919700623,-0.9554574919700622
nan,nan,nan,nan,nan,nan,nan,nan,nan,nan,nan,nan,nan,nan,0.06805111374770992,0.06171400677129149,-0.5601596474409709,-1.253353755001996
nan,nan,nan,nan,nan,nan,nan,nan,nan,nan,nan,nan,nan,nan,0.1217118501874256,0.044406366920726255,0.04724736722560287,-1.5685729720555919
nan,nan,nan,nan,nan,nan,nan,nan,nan,nan,nan,nan,nan,nan,0.3371575478409282,-0.1502087865798519,1.1466759264287005,-2.1837469614191867
nan,nan,nan,nan,nan,nan,nan,nan,nan,nan,nan,nan,nan,nan,1.6771330345725777,-1.4703722026770822,3.4714916967664724,-3.837079901279464
nan,nan,nan,nan,nan,nan,nan,nan,nan,nan,nan,nan,nan,nan,0.034621937370300296,0.03442193737030029,-0.9552574919700623,-0.9554574919700622
nan,nan,nan,nan,nan,nan,nan,nan,nan,nan,nan,nan,nan,nan,0.06805220290768936,0.061715026871650217,-0.560159037673664,-1.2533543647693022
nan,nan,nan,nan,nan,nan,nan,nan,nan,nan,nan,nan,nan,nan,0.12171659591917632,0.04441017923392344,0.047248496438204945,-1.5685741012681926
nan,nan,nan,nan,nan,nan,nan,nan,nan,nan,nan,nan,nan,nan,0.3371702004116967,-0.1502027812712374,1.146676926417843,-2.1837479614083257
nan,nan,nan,nan,nan,nan,nan,nan,nan,nan,nan,nan,nan,nan,1.6771594226976647,-1.470367014526742,3.471487347304827,-3.8370755518178092
nan,nan,nan,nan,nan,nan,nan,nan,nan,nan,nan,nan,nan,nan,0.02152322063446045,0.02132322063446045,0.6369533968925476,0.6367533968925476
nan,nan,nan,nan,nan,nan,nan,nan,nan,nan,nan,nan,nan,nan,0.06243767068833592,0.056776801917666785,1.033465308387152,0.34031489992282093
nan,nan,nan,nan,nan,nan,nan,nan,nan,nan,nan,nan,nan,nan,0.13566097588145012,0.06391400890045325,1.6422898520771363,0.02652119575306924
nan,nan,nan,nan,nan,nan,nan,nan,nan,nan,nan,nan,nan,nan,0.3873711376027133,-0.09451213232373593,2.7450094845186706,-0.5891580227971223
nan,nan,nan,nan,nan,nan,nan,nan,nan,nan,nan,nan,nan,nan,1.9278137706248222,-1.5144037275440976,5.092879614539435,-2.262844511376853
