time,x,y,z,yaw,ctrl_comp_time,x_ref,y_ref,z_ref,yaw_ref,throttle,roll_rate,pitch_rate,yaw_rate,save_tube_hH,save_tube_hL,save_tube_pyH,save_tube_pyL,save_tube_pzH,save_tube_pzL,save_tube_thetaH,save_tube_thetaL,save_tube_vH,save_tube_vL
15.006271600723267,0.05075227469205856,3.9877471923828125,-12.377667427062988,-0.0024038961365365303,0.07715868949890137,0.0,3.9908653624578756,-12.386941553776895,-0.012106591543382625,0.2166085299069915,-1.0,0.025495245186329424,0.015329950196716376,-0.062077512794733045,-0.06227751279473305,3.991589410400391,3.9913894104003904,-12.385763304138184,-12.385963304138183,-0.002006591543382625,-0.002206591543382625,-0.10785618593692779,-0.1080561859369278
15.499911546707153,0.05075227469205856,3.9877471923828125,-12.377667427062988,-0.0024038961365365303,0.1711418628692627,0.0,3.987110377796939,-12.378702148008376,-0.009982984050898642,0.21733372031128817,-1.0,0.2578466716304306,0.2507309651377015,1004.3112589592707,-1005.7644562889362,194504.46893534475,-194497.4256422801,194578.6928475788,-194599.7290136699,3709.12308450443,-3709.075436404684,3777.0158578599944,-3772.065170665042
15.644125699996948,0.05492887273430824,3.958378314971924,-12.379707336425781,-0.0011923322006980011,0.002275228500366211,0.0,3.987110377796939,-12.378702148008376,-0.009982984050898642,0.21812735513490084,-1.0,0.42049267014130154,0.4155116755963911,nan,nan,nan,nan,nan,nan,nan,nan,nan,nan
15.649425268173218,0.05492887273430824,3.958378314971924,-12.379707336425781,-0.0011923322006980011,0.001967906951904297,0.0,3.9864721350243575,-12.378841934437869,-0.01998298405089864,0.23656172753549565,-1.0,0.5343448690989112,0.5308581729174737,nan,nan,nan,nan,nan,nan,nan,nan,nan,nan
15.654608011245728,0.05524572730064392,3.957913398742676,-12.379715919494629,-0.0011922185000498623,0.0020580291748046875,0.0,3.98583997938821,-12.378112503636379,-0.029982984050898644,0.25301145557723054,-1.0,0.6140414083692376,0.6116007210422311,nan,nan,nan,nan,nan,nan,nan,nan,nan,nan
15.66499948501587,0.05539199709892273,3.957669973373413,-12.379767417907715,-0.0011926605846199695,0.0021233558654785156,0.0,3.9852206756235757,-12.376538933704365,-0.039982984050898646,0.26819024175499667,-1.0,0.6698289858584666,0.6681205047295613,nan,nan,nan,nan,nan,nan,nan,nan,nan,nan
15.675354957580566,0.05553048476576805,3.9574193954467773,-12.379839897155762,-0.0011879710245895712,0.002871990203857422,0.0,3.984620265041084,-12.374145656991823,-0.04998298405089865,0.2821948501179505,-1.0,0.7088802901009266,0.7076843533106931,nan,nan,nan,nan,nan,nan,nan,nan,nan,nan
15.684891939163208,0.05614331364631653,3.957003593444824,-12.379302024841309,-0.0011570886112077703,0.001980304718017578,0.0,3.9840440925149765,-12.37095645441964,-0.05998298405089865,0.2961185767053698,-1.0,0.7362162030706487,0.7353790473174854,nan,nan,nan,nan,nan,nan,nan,nan,nan,nan
15.694826602935791,0.05733174458146095,3.9561755657196045,-12.378053665161133,-0.0010554364325098898,0.0018529891967773438,0.0,3.983496833270791,-12.366994450660147,-0.06998298405089864,0.3111008101704796,-1.0,0.7553513421494542,0.7547653331222396,nan,nan,nan,nan,nan,nan,nan,nan,nan,nan
15.704807043075562,0.057907987385988235,3.955763339996338,-12.37730884552002,-0.0009646079958233378,0.002062559127807617,0.0,3.9829825194493704,-12.362282110148735,-0.07998298405089864,0.3240965631824864,-1.0,0.768745939504618,0.7683357331855678,nan,nan,nan,nan,nan,nan,nan,nan,nan,nan
15.714715003967285,0.058469511568546295,3.955347776412964,-12.376459121704102,-0.0008556107535132639,0.0018620491027832031,0.0,3.982504566425394,-12.356841233898548,-0.08998298405089863,0.3362387903705813,-1.0,0.7781221576532326,0.7778350132298977,nan,nan,nan,nan,nan,nan,nan,nan,nan,nan
15.725176572799683,0.05901605635881424,3.9549286365509033,-12.375514030456543,-0.0007102200347721842,0.0023865699768066406,0.0,3.9820657988600963,-12.350692957090482,-0.09998298405089863,0.3476747569613559,-1.0,0.7846855103572627,0.7844845092609283,nan,nan,nan,nan,nan,nan,nan,nan,nan,nan
15.73515009880066,0.06006371229887009,3.954077959060669,-12.37332534790039,-0.0003379871648037023,0.00205230712890625,0.0,3.9816684764692187,-12.343857747410901,-0.10998298405089862,0.3598500636377907,-1.0,0.7892798572500839,0.7891391564826497,nan,nan,nan,nan,nan,nan,nan,nan,nan,nan
15.745080947875977,0.0605638287961483,3.9536452293395996,-12.37210750579834,-0.00013035392366980442,0.0022063255310058594,0.0,3.9813143194886393,-12.336355404109774,-0.11998298405089862,0.3697714983622538,-1.0,0.7924959000750587,0.792397409537855,nan,nan,nan,nan,nan,nan,nan,nan,nan,nan
15.755091667175293,0.06104690954089165,3.9532065391540527,-12.370855331420898,8.13607261602239e-05,0.0024428367614746094,0.0,3.9810045338214173,-12.32820505775223,-0.12998298405089861,0.3785249669353088,-1.0,0.794747130052541,0.7946781866764986,nan,nan,nan,nan,nan,nan,nan,nan,nan,nan
15.764963626861572,0.0615123026072979,3.952760696411133,-12.369593620300293,0.0003291439178743621,0.002156496047973633,0.0,3.9807398358512804,-12.319425170636887,-0.13998298405089862,0.3870704758709245,-1.0,0.7963229910367786,0.796274730673549,nan,nan,nan,nan,nan,nan,nan,nan,nan,nan
15.900377035140991,0.0615123026072979,3.952760696411133,-12.369593620300293,0.0003291439178743621,0.0018062591552734375,0.0,3.9521875531249795,-12.369205610215397,-0.01479233905878721,0.2642302929458008,-1.0,0.7974260937257449,0.7973923114714841,nan,nan,nan,nan,nan,nan,nan,nan,nan,nan
15.905555486679077,0.06616376340389252,3.943970203399658,-12.342327117919922,0.006360947933229538,0.0027799606323242188,0.0,3.9516261432993938,-12.367965252799374,-0.024792339058787208,0.272024171829284,-0.9749441340995454,0.7981982656080215,0.7981746180300393,nan,nan,nan,nan,nan,nan,nan,nan,nan,nan
15.91527509689331,0.06616376340389252,3.943970203399658,-12.342327117919922,0.006360947933229538,0.0032148361206054688,0.0,3.951083040908578,-12.365897270182618,-0.03479233905878721,0.2860905746148996,-1.0,0.7987387859256152,0.7987222326210278,nan,nan,nan,nan,nan,nan,nan,nan,nan,nan
15.924844026565552,0.06626584380865097,3.9421210289001465,-12.340537071228027,0.007213290102448462,0.0022916793823242188,0.0,3.950564104319399,-12.363025751219496,-0.04479233905878721,0.2956923501813452,-1.0,0.7991171501479305,0.7991055628347197,nan,nan,nan,nan,nan,nan,nan,nan,nan,nan
15.934885740280151,0.06626584380865097,3.9421210289001465,-12.340537071228027,0.007213290102448462,0.0020613670349121094,0.0,3.9500745027909465,-12.359374145550342,-0.054792339058787214,0.308020250222783,-1.0,0.7993820051035516,0.7993738939843034,nan,nan,nan,nan,nan,nan,nan,nan,nan,nan
15.944968938827515,0.06638229638338089,3.9410245418548584,-12.339312553405762,0.007906809504060676,0.0018587112426757812,0.0,3.949618742791433,-12.354965258516561,-0.06479233905878722,0.3200430915089168,-1.0,0.799567403572486,0.7995617257890122,nan,nan,nan,nan,nan,nan,nan,nan,nan,nan
15.954790830612183,0.06638229638338089,3.9410245418548584,-12.339312553405762,0.007906809504060676,0.0024237632751464844,0.0,3.9492006941089306,-12.349821246901463,-0.07479233905878721,0.3308737990654479,-1.0,0.7996971825007401,0.7996932080523084,nan,nan,nan,nan,nan,nan,nan,nan,nan,nan
15.964775562286377,0.06643953174352646,3.939889430999756,-12.337636947631836,0.008943241936038451,0.0018782615661621094,0.0,3.948823615733923,-12.343963615469601,-0.0847923390587872,0.3468773940297438,-1.0,0.799788027750518,0.7997852456366158,nan,nan,nan,nan,nan,nan,nan,nan,nan,nan
15.974974393844604,0.06643953174352646,3.939889430999756,-12.337636947631836,0.008943241936038451,0.002386331558227539,0.0,3.9484901814930686,-12.337413214277458,-0.0947923390587872,0.35636761082735147,-1.0,0.7998516194253626,0.799849671945631,nan,nan,nan,nan,nan,nan,nan,nan,nan,nan
15.98513650894165,0.06642932444810867,3.9381330013275146,-12.33297348022461,0.01111937176373848,0.0019478797912597656,0.0,3.948202505414983,-12.33019023672861,-0.1047923390587872,0.3768301007430574,-1.0,0.799896133597754,0.7998947703619417,nan,nan,nan,nan,nan,nan,nan,nan,nan,nan
15.994912147521973,0.06642932444810867,3.9381330013275146,-12.33297348022461,0.01111937176373848,0.00206756591796875,0.0,3.947962166810175,-12.32231421834665,-0.11479233905878719,0.38511739740867773,-1.0,0.7999272935184278,0.7999263392533589,nan,nan,nan,nan,nan,nan,nan,nan,nan,nan
16.004736185073853,0.06640084832906723,3.9375321865081787,-12.33073616027832,0.01198958588663063,0.0019233226776123047,0.0,3.9477702350485973,-12.313804036239487,-0.12479233905878719,0.39693727177974003,-1.0,0.7999491054628995,0.7999484374773514,nan,nan,nan,nan,nan,nan,nan,nan,nan,nan
16.014925003051758,0.06630387902259827,3.936302661895752,-12.325177192687988,0.013904256613608244,0.002119779586791992,0.0,3.9476272940195196,-12.304677909228925,-0.13479233905878718,0.4121217381035456,-1.0,0.7999643738240296,0.7999639062341458,nan,nan,nan,nan,nan,nan,nan,nan,nan,nan
16.152479887008667,0.06630387902259827,3.936302661895752,-12.325177192687988,0.013904256613608244,0.0020401477813720703,0.0,3.9355000791077623,-12.322379784242951,-0.036962049275515364,0.3308793385944101,-1.0,0.7999750616768206,0.7999747343639019,nan,nan,nan,nan,nan,nan,nan,nan,nan,nan
16.158774614334106,0.06321737170219421,3.9177839756011963,-12.204684257507324,0.03771371916649237,0.0022575855255126953,0.0,3.9347276713278667,-12.318800667092864,-0.046962049275515366,0.413873041722711,-0.3262248233112668,0.7999825431737745,0.7999823140547315,nan,nan,nan,nan,nan,nan,nan,nan,nan,nan
16.16504406929016,0.06321737170219421,3.9177839756011963,-12.204684257507324,0.03771371916649237,0.0021097660064697266,0.0,3.933990126185108,-12.314462670424032,-0.05696204927551537,0.42259020806280834,-0.3864409364707664,0.7213755292021031,0.799987619838312,-0.06358321925401687,-0.06378321925401688,3.9878471923828127,3.9876471923828123,-12.377567427062989,-12.377767427062988,0.00011701594910135914,-8.298405089864087e-05,-0.10337101092338562,-0.10357101092338562
16.174818992614746,0.06272783130407333,3.916407585144043,-12.194734573364258,0.03926474491472606,0.002126932144165039,0.0,3.9332914888283645,-12.309387985629263,-0.06696204927551537,0.4344699687350399,-0.39726824106588476,0.6670279452431053,0.7999913338868183,998.9804075366898,-1000.4216588169639,192321.34884241727,-192314.30418998245,192395.2513848213,-192416.2696725446,3676.3019416067236,-3676.2550667742976,3750.4089716536478,-3745.459647585231
16.184990882873535,0.06160064414143562,3.913534164428711,-12.173840522766113,0.042406492873807766,0.0019648075103759766,0.0,3.932635187569765,-12.303598162323453,-0.07696204927551537,0.44934516534158664,-0.3565995569647604,0.5361631994531829,0.7999939337207729,nan,nan,nan,nan,nan,nan,nan,nan,nan,nan
16.19501495361328,0.06118595227599144,3.9127702713012695,-12.161822319030762,0.04399478542581822,0.0020296573638916016,0.0,3.9320240593002005,-12.297114105138087,-0.08696204927551536,0.4603630724418017,-0.36997648850021336,0.44842865117532565,0.799995753604541,nan,nan,nan,nan,nan,nan,nan,nan,nan,nan
16.204829216003418,0.060717783868312836,3.9119465351104736,-12.149486541748047,0.04557823133782171,0.002351999282836914,0.0,3.931460374657002,-12.289956071268167,-0.09696204927551536,0.4708827343003117,-0.38482464788478743,0.3801219508170364,0.7999970275231788,nan,nan,nan,nan,nan,nan,nan,nan,nan,nan
16.21512508392334,0.05960996076464653,3.910106658935547,-12.123884201049805,0.04885233328260913,0.0020422935485839844,0.0,3.9309458629251894,-12.282143668745261,-0.10696204927551535,0.4842432719763391,-0.3539444166713851,0.26394267240554686,0.7999979192662251,nan,nan,nan,nan,nan,nan,nan,nan,nan,nan
16.224895238876343,0.058964766561985016,3.909083604812622,-12.110627174377441,0.05057040115466814,0.002854585647583008,0.0,3.930481736655023,-12.27369585541062,-0.11696204927551535,0.4937679204122358,-0.3758758663413825,0.19013122027505136,0.7999985434863576,nan,nan,nan,nan,nan,nan,nan,nan,nan,nan
16.235028743743896,0.05825480818748474,3.907987594604492,-12.097070693969727,0.052364363520496254,0.0018672943115234375,0.0,3.9300687159798477,-12.264630938562547,-0.12696204927551535,0.5028892559332698,-0.400852470969004,0.13106567903192412,0.7999989804404504,nan,nan,nan,nan,nan,nan,nan,nan,nan,nan
16.245150804519653,0.05747717246413231,3.906815528869629,-12.083223342895508,0.054249616477609064,0.002151966094970703,0.0,3.9297070526194555,-12.25496657525256,-0.13696204927551536,0.5116386732135902,-0.4287760254438059,0.07667041706756468,0.7999992863083153,nan,nan,nan,nan,nan,nan,nan,nan,nan,nan
16.25492286682129,0.05662868916988373,3.905564069747925,-12.069090843200684,0.05624519572162126,0.001970529556274414,0.0,3.9293965535553705,-12.24471977320519,-0.14696204927551537,0.5200316573948026,-0.45944159116486816,0.02485777544668675,0.7999995004158207,nan,nan,nan,nan,nan,nan,nan,nan,nan,nan
16.264954805374146,0.054705679416656494,3.90280818939209,-12.039999961853027,0.060647428525031286,0.0021631717681884766,0.0,3.9291366043656057,-12.233906892336638,-0.15696204927551538,0.530797865755775,-0.453273482882379,-0.06037382202232866,0.7865701593404351,nan,nan,nan,nan,nan,nan,nan,nan,nan,nan
16.275333166122437,0.05363559350371361,3.9013028144836426,-12.025056838989258,0.06308665381271514,0.0037450790405273438,0.0,3.928926192207534,-12.222543646847914,-0.1669620492755154,0.5384115373727263,-0.4899582534490968,-0.12414159153873654,0.6814782390437296,nan,nan,nan,nan,nan,nan,nan,nan,nan,nan
16.416292190551758,0.05363559350371361,3.9013028144836426,-12.025056838989258,0.06308665381271514,0.0033071041107177734,0.0,3.9028830507420507,-12.008003753760105,-0.23719873517794113,0.5909778362943746,-0.2966772251659213,-0.20889209949772747,0.5302818025455344,nan,nan,nan,nan,nan,nan,nan,nan,nan,nan
16.425187349319458,0.018912149593234062,3.8601105213165283,-11.681933403015137,0.13398280959536218,0.00287628173828125,0.0,3.904369761394684,-11.990582987436012,-0.23869971703471335,0.6346119541416962,0.49758503801304954,-0.38622446964840923,0.17322708223669803,nan,nan,nan,nan,nan,nan,nan,nan,nan,nan
16.43502140045166,0.016201075166463852,3.8567981719970703,-11.661471366882324,0.13852937774798416,0.001987934112548828,0.0,3.9057337533493937,-11.972801682828988,-0.2388673708158686,0.6393521474808743,0.629588196092719,-0.5103571287538865,-0.24049585675442103,nan,nan,nan,nan,nan,nan,nan,nan,nan,nan
16.44528293609619,0.012146045453846455,3.8536434173583984,-11.640015602111816,0.14312085285023823,0.0021741390228271484,0.0,3.9069480600649147,-11.9546676060171,-0.2378277438905699,0.6440203652945983,0.7557444661726087,-0.5972499901277206,-0.4083470997280947,nan,nan,nan,nan,nan,nan,nan,nan,nan,nan
16.454843282699585,0.00802573375403881,3.8503451347351074,-11.618358612060547,0.14773046102671478,0.002045869827270508,0.0,3.907987950451703,-11.93618919201127,-0.23570047598885932,0.6485896363570894,0.8766475548392564,-0.6580749930894044,-0.5258429698096663,nan,nan,nan,nan,nan,nan,nan,nan,nan,nan
16.465286016464233,-0.0004177161608822644,3.843303680419922,-11.574474334716797,0.15698887035725795,0.002084493637084961,0.0,3.908830926714541,-11.917375554795667,-0.23259884451099308,0.654855244984041,1.0,-0.7006524951625831,-0.6080900788667664,nan,nan,nan,nan,nan,nan,nan,nan,nan,nan
16.47523808479309,-0.004752188455313444,3.839540719985962,-11.55229377746582,0.16156464074850801,0.002604246139526367,0.0,3.9094567116084424,-11.89823646790568,-0.22862984195021646,0.6587746681428779,1.0,-0.7304567466138082,-0.6656630552067365,nan,nan,nan,nan,nan,nan,nan,nan,nan,nan
16.484792709350586,-0.009171443060040474,3.8355987071990967,-11.529998779296875,0.1661101410742442,0.0018873214721679688,0.0,3.909847225362382,-11.878782321244161,-0.22389428015800125,0.6624599920312869,1.0,-0.7513197226296657,-0.7059641386447156,nan,nan,nan,nan,nan,nan,nan,nan,nan,nan
16.494908094406128,-0.018288470804691315,3.8271515369415283,-11.485135078430176,0.17508778514312828,0.0020208358764648438,0.0,3.9099865524484816,-11.859024059348583,-0.2184869168006322,0.6671969410836726,1.0,-0.765923805840766,-0.734174897051301,nan,nan,nan,nan,nan,nan,nan,nan,nan,nan
16.504841566085815,-0.022987613454461098,3.822631597518921,-11.462593078613281,0.17952586411905957,0.0020182132720947266,0.0,3.9098608983967735,-11.83897310582278,-0.2124965999537283,0.6704659926580809,1.0,-0.7761466640885363,-0.7539224279359107,nan,nan,nan,nan,nan,nan,nan,nan,nan,nan
16.514965057373047,-0.027781842276453972,3.8179101943969727,-11.439987182617188,0.18391812775595617,0.0021543502807617188,0.0,3.909458536943529,-11.81864127814704,-0.20600642733840274,0.6736030693316696,1.0,-0.7833026648619754,-0.7677456995551375,nan,nan,nan,nan,nan,nan,nan,nan,nan,nan
16.524925231933594,-0.0326717309653759,3.8129851818084717,-11.417326927185059,0.18825346821906927,0.003145933151245117,0.0,3.9087697479267116,-11.79804069658661,-0.19909391720840028,0.6766297577233309,1.0,-0.7883118654033828,-0.7774219896885962,nan,nan,nan,nan,nan,nan,nan,nan,nan,nan
16.534883975982666,-0.03765713423490524,3.807856559753418,-11.394618034362793,0.19251371739840653,0.001890420913696289,0.0,3.907786746483596,-11.777183690436873,-0.19183118834647755,0.679554347157528,1.0,-0.791818305782368,-0.7841953927820173,nan,nan,nan,nan,nan,nan,nan,nan,nan,nan
16.663854598999023,-0.03765713423490524,3.807856559753418,-11.394618034362793,0.19251371739840653,0.0020394325256347656,0.0,3.808443728875815,-11.367375107894253,-0.28713094211096024,0.7256871602993584,1.0,-0.7942728140476576,-0.7889367749474121,nan,nan,nan,nan,nan,nan,nan,nan,nan,nan
16.669182062149048,-0.1462194323539734,3.692246437072754,-10.992609024047852,0.23986882087967387,0.0015418529510498047,0.0,3.808487617382882,-11.340031065249349,-0.27713094211096023,0.7407185446969131,1.0,-0.7959909698333604,-0.7922557424631885,nan,nan,nan,nan,nan,nan,nan,nan,nan,nan
16.67486047744751,-0.15335232019424438,3.6840105056762695,-10.968631744384766,0.2408960269254588,0.0022165775299072266,0.0,3.807994627971711,-11.312599062793655,-0.2671309421109602,0.7419087583047345,1.0,-0.7971936788833522,-0.782247185991172,nan,nan,nan,nan,nan,nan,nan,nan,nan,nan
16.68483281135559,-0.16053058207035065,3.6756467819213867,-10.944645881652832,0.24173032276628859,0.0019497871398925781,0.0,3.806971459878078,-11.285091997584214,-0.2571309421109602,0.7430772381785155,1.0,-0.7980355752183466,-0.7724291482673777,nan,nan,nan,nan,nan,nan,nan,nan,nan,nan
16.6950364112854,-0.1695910543203354,3.666276216506958,-10.919706344604492,0.24237413636097177,0.0019409656524658203,0.0,3.805425102094864,-11.257522500245964,-0.2471309421109602,0.7442577123084214,1.0,-0.7986249026528426,-0.7621397699256357,nan,nan,nan,nan,nan,nan,nan,nan,nan,nan
16.704704523086548,-0.18776170909404755,3.647242546081543,-10.869885444641113,0.24300665737342447,0.001722097396850586,0.0,3.80336282639992,-11.229902928081238,-0.2371309421109602,0.7459553182075067,1.0,-0.7990374318569898,-0.7443130271684031,nan,nan,nan,nan,nan,nan,nan,nan,nan,nan
16.71496820449829,-0.19685719907283783,3.637578248977661,-10.845043182373047,0.24304631185211542,0.0018725395202636719,0.0,3.8007921802017353,-11.202245358416192,-0.2271309421109602,0.7467948839549446,1.0,-0.7993262022998929,-0.7317245541281305,-0.06358321925401687,-0.06378321925401688,3.9878471923828127,3.9876471923828123,-12.377567427062989,-12.377767427062988,0.00011701594910135914,-8.298405089864087e-05,-0.10337101092338562,-0.10357101092338562
16.724992513656616,-0.20595987141132355,3.627819061279297,-10.820266723632812,0.2429008010432287,0.0026559829711914062,0.0,3.7977209792113262,-11.174561582187662,-0.21713094211096018,0.7475504759260743,1.0,-0.799528341609925,-0.721074778393941,998.9804075366898,-1000.4216588169639,192321.34884241727,-192314.30418998245,192395.2513848213,-192416.2696725446,3676.3019416067236,-3676.2550667742976,3750.4089716536478,-3745.459647585231
16.734971523284912,-0.21506893634796143,3.617969036102295,-10.795571327209473,0.24257390434989187,0.0018219947814941406,0.0,3.7941572999488,-11.146863097773599,-0.20713094211096017,0.7482503975027688,1.0,-0.7996698391269476,-0.7110952404423515,nan,nan,nan,nan,nan,nan,nan,nan,nan,nan
16.74513053894043,-0.23330101370811462,3.598017454147339,-10.746419906616211,0.24139722440095518,0.0025565624237060547,0.0,3.7901094720930897,-11.11916110506991,-0.19713094211096016,0.7492484067266293,1.0,-0.7997688873888633,-0.6941200833582251,nan,nan,nan,nan,nan,nan,nan,nan,nan,nan
16.754884004592896,-0.24242104589939117,3.5879268646240234,-10.721968650817871,0.24055491451559707,0.001678466796875,0.0,3.7855860706833724,-11.091466499816173,-0.18713094211096015,0.7498474273887891,1.0,-0.7998382211722044,-0.6834111109672192,nan,nan,nan,nan,nan,nan,nan,nan,nan,nan
16.765018701553345,-0.25154152512550354,3.5777671337127686,-10.697602272033691,0.2395506135626277,0.001989603042602539,0.0,3.7805959081806724,-11.063789868172371,-0.17713094211096014,0.7504185342699121,1.0,-0.7998867548205431,-0.6743060390028599,nan,nan,nan,nan,nan,nan,nan,nan,nan,nan
16.77505612373352,-0.269768089056015,3.557260513305664,-10.649133682250977,0.23706628118857748,0.002131223678588867,0.0,3.775148026398156,-11.036141481548487,-0.16713094211096013,0.7512526086439834,0.994213723673449,-0.7999207283743801,-0.6585855013041916,nan,nan,nan,nan,nan,nan,nan,nan,nan,nan
16.784850358963013,-0.27887433767318726,3.5469272136688232,-10.625030517578125,0.23559309258583075,0.0017266273498535156,0.0,3.7692516883085885,-11.008531291688447,-0.15713094211096013,0.7517661433364964,0.9940702419979415,-0.7999445098620661,-0.6516395499557335,nan,nan,nan,nan,nan,nan,nan,nan,nan,nan
16.916710376739502,-0.27887433767318726,3.5469272136688232,-10.625030517578125,0.23559309258583075,0.0018205642700195312,0.0,3.53636921613876,-10.59640838260314,-0.05853012430685992,0.7664785073345947,1.0,-0.7999611569034463,-0.6503481763559911,nan,nan,nan,nan,nan,nan,nan,nan,nan,nan
16.92474603652954,-0.44328734278678894,3.360293388366699,-10.223742485046387,0.18954147148020842,0.0021209716796875,0.0,3.52545305945979,-10.567982122007836,-0.04853012430685992,0.7705154029961956,0.45612588342620675,-0.7999728098324124,-0.49613540936171785,nan,nan,nan,nan,nan,nan,nan,nan,nan,nan
16.934913635253906,-0.45269161462783813,3.349505662918091,-10.200811386108398,0.18575045315452865,0.002102375030517578,0.0,3.514191401043076,-10.539756216782923,-0.03853012430685992,0.7704973312019143,0.44601407178282004,-0.743939791634081,-0.5872947865532026,nan,nan,nan,nan,nan,nan,nan,nan,nan,nan
16.945063591003418,-0.47188231348991394,3.3277242183685303,-10.154913902282715,0.17784570102196653,0.0019991397857666016,0.0,3.502596958821045,-10.511734799629503,-0.028530124306859916,0.7707477315777431,0.3886698446373139,-0.7471463729896861,-0.6511063505872418,nan,nan,nan,nan,nan,nan,nan,nan,nan,nan
16.954775094985962,-0.4816579818725586,3.3167524337768555,-10.131954193115234,0.17359790153330645,0.0017025470733642578,0.0,3.490682503246323,-10.483921654269814,-0.018530124306859914,0.7706950897858916,0.3772504245662366,-0.7630024610927802,-0.6837614643075066,nan,nan,nan,nan,nan,nan,nan,nan,nan,nan
16.9655921459198,-0.49135622382164,3.3058815002441406,-10.109081268310547,0.1692730412867415,0.0018372535705566406,0.0,3.4784608492862166,-10.456320214955493,-0.008530124306859914,0.7705950148703898,0.3664253029731308,-0.7741017227649462,-0.6944812989462041,nan,nan,nan,nan,nan,nan,nan,nan,nan,nan
16.974879026412964,-0.5009740591049194,3.2951183319091797,-10.086299896240234,0.16486763791568465,0.0026535987854003906,0.0,3.4659448484178683,-10.428933566172391,0.001469875693140086,0.7704725879205209,0.35750926740878897,-0.7818712059354623,-0.6999625214031318,nan,nan,nan,nan,nan,nan,nan,nan,nan,nan
16.98494815826416,-0.5009740591049194,3.2951183319091797,-10.086299896240234,0.16486763791568465,0.0018792152404785156,0.0,3.453147380629153,-10.401764442540907,0.011469875693140086,0.7701954984288057,0.3980215134046913,-0.7873098441548236,-0.7076687839605786,nan,nan,nan,nan,nan,nan,nan,nan,nan,nan
16.99496817588806,-0.5292894244194031,3.263551950454712,-10.018526077270508,0.1511366590028675,0.003421306610107422,0.0,3.4400813464303095,-10.374815228910602,0.021469875693140086,0.7703513019758174,0.30498947201444515,-0.7816226801138414,-0.6827170320664704,nan,nan,nan,nan,nan,nan,nan,nan,nan,nan
17.004977464675903,-0.5292894244194031,3.263551950454712,-10.018526077270508,0.1511366590028675,0.0017671585083007812,0.0,3.426759658881229,-10.348087960647728,0.03146987569314009,0.7700744925138472,0.34777872792452014,-0.7650792334494555,-0.7112531599527855,nan,nan,nan,nan,nan,nan,nan,nan,nan,nan
17.014907121658325,-0.5477124452590942,3.2431371212005615,-9.973795890808105,0.1415563892784636,0.002160310745239258,0.0,3.4131952356392468,-10.321584324114175,0.04146987569314009,0.7700905113576614,0.3102500116696728,-0.7582213607865473,-0.6802021792188695,nan,nan,nan,nan,nan,nan,nan,nan,nan,nan
17.02485942840576,-0.5477124452590942,3.2431371212005615,-9.973795890808105,0.1415563892784636,0.0028839111328125,0.0,3.3994009910322007,-10.295305657336199,0.05146987569314009,0.7698142210104132,0.35536729219361207,-0.7403028263364667,-0.6894464612717975,nan,nan,nan,nan,nan,nan,nan,nan,nan,nan
17.03477430343628,-0.5746060609817505,3.2135300636291504,-9.907353401184082,0.12656593845424902,0.0017082691192626953,0.0,3.3853898281614314,-10.269252950861157,0.061469875693140094,0.770002107319194,0.2867107620368582,-0.7146512533101912,-0.6552138846770025,nan,nan,nan,nan,nan,nan,nan,nan,nan,nan
17.044972896575928,-0.5746060609817505,3.2135300636291504,-9.907353401184082,0.12656593845424902,0.0017764568328857422,0.0,3.3711746310393145,-10.243426848800372,0.07146987569314009,0.769726695939974,0.33420595198094705,-0.6861989616984788,-0.6634172525784842,nan,nan,nan,nan,nan,nan,nan,nan,nan,nan
17.177987575531006,-0.5746060609817505,3.2135300636291504,-9.907353401184082,0.12656593845424902,0.0021407604217529297,0.0,3.1983885618286667,-9.883342293538755,0.17678034694086492,0.7709857185613614,0.6972412222937603,-0.6814746290617274,-0.6287281564555195,nan,nan,nan,nan,nan,nan,nan,nan,nan,nan
17.18464231491089,-0.7144770622253418,3.0784263610839844,-9.542542457580566,0.029586424333090944,0.001871347427368164,0.0,3.18326146246496,-9.85951072850241,0.1823398934831526,0.7736689892777414,-0.06894038003836345,-0.5449499390244809,-0.4409632156811591,nan,nan,nan,nan,nan,nan,nan,nan,nan,nan
17.195298194885254,-0.7355820536613464,3.061068534851074,-9.478951454162598,0.011126988192972809,0.0023419857025146484,0.0,3.1681903731056678,-9.835833656794998,0.18659420663916307,0.7736689892777414,-0.29438846877520364,-0.3419549475638339,-0.5486742509768113,nan,nan,nan,nan,nan,nan,nan,nan,nan,nan
17.204917430877686,-0.7355820536613464,3.061068534851074,-9.478951454162598,0.011126988192972809,0.0018782615661621094,0.0,3.1532123208577314,-9.812288057966434,0.18964674481446814,0.7736689892777414,-0.38096482759085326,-0.2916840050811775,-0.5163110513992852,nan,nan,nan,nan,nan,nan,nan,nan,nan,nan
17.214999675750732,-0.742735743522644,3.0565268993377686,-9.45724105834961,0.004695357916557952,0.0021648406982421875,0.0,3.1383601258364338,-9.788853022798255,0.19159670108207555,0.7736689892777414,-0.5113981450763763,-0.24493874285194028,-0.48357105403903244,nan,nan,nan,nan,nan,nan,nan,nan,nan,nan
17.224964380264282,-0.7496949434280396,3.0521342754364014,-9.435600280761719,-0.001769103830518065,0.00272369384765625,0.0,3.123662741167701,-9.765509778859993,0.19253894378649705,0.7736689892777414,-0.6387324004062258,-0.19949692746762668,-0.45525491275032504,nan,nan,nan,nan,nan,nan,nan,nan,nan,nan
17.2349796295166,-0.7630148530006409,3.043808698654175,-9.392526626586914,-0.014638768543062508,0.0018122196197509766,0.0,3.109145561968675,-9.74224167038821,0.19256398607246134,0.7736689892777414,-0.8131103324859825,-0.14658177647924456,-0.42392518060938533,nan,nan,nan,nan,nan,nan,nan,nan,nan,nan
17.245271921157837,-0.7693672776222229,3.039882183074951,-9.37110710144043,-0.020941151128153423,0.002010822296142578,0.0,3.0948307061370626,-9.71903410212055,0.19175798123885537,0.7736689892777414,-0.9316809852109571,-0.09795649383794805,-0.3880547219519991,nan,nan,nan,nan,nan,nan,nan,nan,nan,nan
17.254902601242065,-0.7755101919174194,3.036116361618042,-9.34975814819336,-0.027097135821053595,0.0018684864044189453,0.0,3.080737269924707,-9.695874455340894,0.19020274092886616,0.7736689892777414,-1.0,-0.04908172978683756,-0.34295030338690097,nan,nan,nan,nan,nan,nan,nan,nan,nan,nan
17.265098333358765,-0.7814411520957947,3.0325124263763428,-9.328476905822754,-0.033086853591189444,0.002511262893676758,0.0,3.0668815612415017,-9.672751983169194,0.18797577333537377,0.7736689892777414,-1.0,0.004291243911755727,-0.28468502521677463,-0.06358321925401687,-0.06378321925401688,3.9878471923828127,3.9876471923828123,-12.377567427062989,-12.377767427062988,0.00011701594910135914,-8.298405089864087e-05,-0.10337101092338562,-0.10357101092338562
17.275012493133545,-0.7926343679428101,3.025848150253296,-9.28610897064209,-0.0445821046173573,0.002962827682495117,0.0,3.053277313485746,-9.649657691050466,0.1851503388036672,0.7736689892777414,-1.0,0.0710663270730753,-0.20587680133449313,998.9804075366898,-1000.4216588169639,192321.34884241727,-192314.30418998245,192395.2513848213,-192416.2696725446,3676.3019416067236,-3676.2550667742976,3750.4089716536478,-3745.459647585231
17.284944772720337,-0.7979080080986023,3.0227584838867188,-9.265016555786133,-0.0501058515913808,0.0018620491027832031,0.0,3.039935882468906,-9.626584207449222,0.18179552043406222,0.7736689892777414,-1.0,0.14805198723351018,-0.10415845982167912,nan,nan,nan,nan,nan,nan,nan,nan,nan,nan
17.295135498046875,-0.8029649257659912,3.0198299884796143,-9.243989944458008,-0.05548287176181814,0.002858400344848633,0.0,3.026866428729613,-9.603525648925366,0.1779763075119994,0.7736689892777414,-1.0,0.24106966697621118,0.023860135009515962,nan,nan,nan,nan,nan,nan,nan,nan,nan,nan
17.4270498752594,-0.8029649257659912,3.0198299884796143,-9.243989944458008,-0.05548287176181814,0.002531766891479492,0.0,3.008687318580439,-9.22119756375354,0.261847090938185,0.7736689892777414,-1.0,0.35096288962800404,0.18235127370877588,nan,nan,nan,nan,nan,nan,nan,nan,nan,nan
17.434706449508667,-0.8533473014831543,3.0016002655029297,-8.872450828552246,-0.12458818871640068,0.001814126968383789,0.0,2.9980556677426393,-9.198332017595536,0.25184709093818497,0.7736689892777414,-0.9127831480426027,0.4248342596404276,0.36764589159614314,nan,nan,nan,nan,nan,nan,nan,nan,nan,nan
17.445032358169556,-0.8541330099105835,3.001715898513794,-8.85243034362793,-0.12723737313697994,0.0019288063049316406,0.0,2.9879262705846177,-9.1754038893102,0.24184709093818496,0.7736689892777414,-0.9168330082757652,0.5271793878230269,0.4973521241173002,nan,nan,nan,nan,nan,nan,nan,nan,nan,nan
17.45499563217163,-0.8532053232192993,3.003105878829956,-8.832758903503418,-0.12980780051977353,0.0022575855255126953,0.0,2.9782901488418188,-9.152423483531509,0.23184709093818495,0.7736689892777414,-0.9228333172635607,0.6090255714761188,0.5881464868821101,nan,nan,nan,nan,nan,nan,nan,nan,nan,nan
17.465068101882935,-0.8521209359169006,3.0045323371887207,-8.813152313232422,-0.13230259050772902,0.0021812915802001953,0.0,2.969138117995705,-9.129400821974798,0.22184709093818494,0.7736689892777414,-0.9285571592386848,0.6663179000332832,0.6517025408174771,nan,nan,nan,nan,nan,nan,nan,nan,nan,nan
17.47478747367859,-0.8494812250137329,3.0074758529663086,-8.774147033691406,-0.13697257658077128,0.002526521682739258,0.0,2.9604607939861274,-9.106345639353902,0.21184709093818493,0.7736689892777414,-0.9067288919613313,0.7064225300232982,0.696191778572234,nan,nan,nan,nan,nan,nan,nan,nan,nan,nan
17.485164403915405,-0.8479270339012146,3.008985757827759,-8.75475788116455,-0.13907318308712968,0.00188446044921875,0.0,2.952248600004105,-9.083267379443477,0.20184709093818493,0.7736689892777414,-0.910319256963775,0.7344957710163088,0.7273342450005639,nan,nan,nan,nan,nan,nan,nan,nan,nan,nan
17.494927167892456,-0.8462188839912415,3.0105161666870117,-8.735458374023438,-0.14098703718792294,0.0022890567779541016,0.0,2.944491773361982,-9.06017519128809,0.19184709093818492,0.7736689892777414,-0.9136827879840201,0.7541470397114162,0.7491339715003947,nan,nan,nan,nan,nan,nan,nan,nan,nan,nan
17.505059480667114,-0.8443580865859985,3.0120627880096436,-8.71624755859375,-0.14269791136817989,0.0016758441925048828,0.0,2.9371803724379224,-9.03707792555959,0.1818470909381849,0.7736689892777414,-0.9169786425068124,0.7641708630613924,0.7643937800502764,nan,nan,nan,nan,nan,nan,nan,nan,nan,nan
17.51504397392273,-0.8401877284049988,3.0151867866516113,-8.678109169006348,-0.14549684623533135,0.0021779537200927734,0.0,2.930304283691653,-9.013984131064225,0.1718470909381849,0.7736689892777414,-0.8879921899369516,0.7431335048735321,0.7750756460351935,nan,nan,nan,nan,nan,nan,nan,nan,nan,nan
17.525293588638306,-0.8378846645355225,3.0167553424835205,-8.659183502197266,-0.14659244868367136,0.002855062484741211,0.0,2.9238530224793844,-8.990900862934549,0.1618470909381849,0.7736689892777414,-0.8908115323861705,0.7193753086446397,0.7825529522246355,nan,nan,nan,nan,nan,nan,nan,nan,nan,nan
17.535027503967285,-0.8354412913322449,3.018322229385376,-8.640353202819824,-0.14749957470125924,0.0019233226776123047,0.0,2.9178159721849917,-8.967834800828063,0.15184709093818488,0.7736689892777414,-0.8941217111679569,0.6944586760749658,0.7877870665572448,nan,nan,nan,nan,nan,nan,nan,nan,nan,nan
17.544910192489624,-0.8328620791435242,3.019883155822754,-8.62161922454834,-0.14822391416596903,0.001760721206665039,0.0,2.9121824071548867,-8.944792332236739,0.14184709093818487,0.7736689892777414,-0.8980062250577312,0.6675444550278011,0.7914509465900714,nan,nan,nan,nan,nan,nan,nan,nan,nan,nan
17.55494451522827,-0.8273147344589233,3.0229594707489014,-8.584434509277344,-0.1491517523372347,0.001813650131225586,0.0,2.906941499022507,-8.921779550083508,0.13184709093818486,0.7736689892777414,-0.8678968790530359,0.6180086862382339,0.79401566261305,nan,nan,nan,nan,nan,nan,nan,nan,nan,nan
17.686362981796265,-0.8273147344589233,3.0229594707489014,-8.584434509277344,-0.1491517523372347,0.001962423324584961,0.0,3.021672617851511,-8.561659120123176,0.03985202327103514,0.7736689892777414,-1.0,0.5984157678333405,0.795810963829135,nan,nan,nan,nan,nan,nan,nan,nan,nan,nan
17.694819450378418,-0.7360724210739136,3.0579686164855957,-8.263647079467773,-0.136045232175915,0.0021219253540039062,0.0,3.0206669077045483,-8.538982974274361,0.029852023271035137,0.7727936730626233,-0.395036396416672,0.25648925017631363,0.7561057320063895,nan,nan,nan,nan,nan,nan,nan,nan,nan,nan
17.704846382141113,-0.7293261885643005,3.0594048500061035,-8.245535850524902,-0.13432040273247814,0.0018687248229980469,0.0,3.019930431239323,-8.516409748975198,0.019852023271035135,0.7727847316331481,-0.39975268323089563,0.14464570878093386,0.7214814577131867,nan,nan,nan,nan,nan,nan,nan,nan,nan,nan
17.7150981426239,-0.7158576846122742,3.061993360519409,-8.209650993347168,-0.13066033205377325,0.0020656585693359375,0.0,3.019451227975856,-8.493942783985895,0.009852023271035135,0.7722619899148966,-0.3578092857173055,0.0700876568997032,0.654710115316372,nan,nan,nan,nan,nan,nan,nan,nan,nan,nan
17.724945306777954,-0.7091416716575623,3.0631392002105713,-8.191873550415039,-0.12870864472539656,0.002416372299194336,0.0,3.0192172809237836,-8.471583777232121,-0.00014797672896486522,0.7717500452675959,-0.36200670387843115,0.01650472183269846,0.577094990042881,nan,nan,nan,nan,nan,nan,nan,nan,nan,nan
17.735235929489136,-0.7024424076080322,3.0641815662384033,-8.174205780029297,-0.1266565059118801,0.0019598007202148438,0.0,3.0192165763042986,-8.449333995842231,-0.010147976728964865,0.7712279596528556,-0.3672241301712771,-0.03198939037581124,0.4969278360545227,nan,nan,nan,nan,nan,nan,nan,nan,nan,nan
17.745174169540405,-0.6957637667655945,3.0651164054870605,-8.156655311584473,-0.12448505756944471,0.0023164749145507812,0.0,3.019437113742905,-8.42719439890136,-0.020147976728964866,0.770708173176388,-0.37452538339708175,-0.07666839694298011,0.41664368482739483,nan,nan,nan,nan,nan,nan,nan,nan,nan,nan
17.7548189163208,-0.6824902892112732,3.0666425228118896,-8.121879577636719,-0.11972958955367974,0.0017549991607666016,0.0,3.019866912805059,-8.405165637755292,-0.030147976728964868,0.7701373264323295,-0.3409621491638576,-0.1224630071565879,0.33563001847182294,nan,nan,nan,nan,nan,nan,nan,nan,nan,nan
17.76521897315979,-0.6759004592895508,3.0672285556793213,-8.104650497436523,-0.11714173610879453,0.003689289093017578,0.0,3.020494019531954,-8.383248056463678,-0.04014797672896487,0.7696481823458158,-0.35601035509833734,-0.15558271387374997,0.258188694362035,nan,nan,nan,nan,nan,nan,nan,nan,nan,nan
17.77489447593689,-0.6693407297134399,3.0676958560943604,-8.087522506713867,-0.11443870304618683,0.0022509098052978516,0.0,3.0213065129727568,-8.361441692402769,-0.05014797672896487,0.7691720094009065,-0.37395824979522785,-0.1818943462937361,0.1881399150371188,nan,nan,nan,nan,nan,nan,nan,nan,nan,nan
17.78513264656067,-0.6628121137619019,3.068042516708374,-8.070496559143066,-0.1116457314552606,0.0019176006317138672,0.0,3.022292511709621,-8.339746277017749,-0.06014797672896487,0.7687060470781916,-0.39440023349748055,-0.2020776691597729,0.12655399082348667,nan,nan,nan,nan,nan,nan,nan,nan,nan,nan
17.794814825057983,-0.6498494148254395,3.068366050720215,-8.036742210388184,-0.1058557788391564,0.003216266632080078,0.0,3.0234401803717823,-8.318161236724544,-0.07014797672896488,0.7682122468919335,-0.37977734877829183,-0.21115635571341673,0.07537470993675675,nan,nan,nan,nan,nan,nan,nan,nan,nan,nan
17.80481266975403,-0.6434155702590942,3.0683395862579346,-8.020008087158203,-0.10288555246518874,0.0017223358154296875,0.0,3.0247377361350583,-8.296685693960884,-0.08014797672896487,0.7677782102431564,-0.40464403961973106,-0.2167922394230034,0.03296514553013507,nan,nan,nan,nan,nan,nan,nan,nan,nan,nan
17.81533432006836,-0.6370130181312561,3.068185567855835,-8.003365516662598,-0.09989359885551344,0.0022573471069335938,0.0,3.02617345520309,-8.27531846838622,-0.09014797672896487,0.7673486152432333,-0.4307512159878144,-0.21856548742670742,0.0002666710933213988,-0.06358321925401687,-0.06378321925401688,3.9878471923828127,3.9876471923828123,-12.377567427062989,-12.377767427062988,0.00011701594910135914,-8.298405089864087e-05,-0.10337101092338562,-0.10357101092338562
17.94797658920288,-0.6370130181312561,3.068185567855835,-8.003365516662598,-0.09989359885551344,0.002189159393310547,0.0,3.069378380875986,-7.98354856385799,-0.15796097990624489,0.7600739192570634,-0.5985460474252469,-0.22567182996775195,-0.026494623166852804,998.9804075366898,-1000.4216588169639,192321.34884241727,-192314.30418998245,192395.2513848213,-192416.2696725446,3676.3019416067236,-3676.2550667742976,3750.4089716536478,-3745.459647585231
17.95476746559143,-0.5215584635734558,3.0382132530212402,-7.6959404945373535,-0.051972805830835786,0.0017616748809814453,0.0,3.0705314350954787,-7.963789483344468,-0.1625825987956559,0.760904019445607,0.2683742638819544,0.010151933209670127,0.07686884053059063,nan,nan,nan,nan,nan,nan,nan,nan,nan,nan
17.96497893333435,-0.5157809853553772,3.0345585346221924,-7.678950309753418,-0.04978107098260599,0.0020830631256103516,0.0,3.071611589820068,-7.944084051060234,-0.16594766404094696,0.7607559776472382,0.3988985039270324,0.069606268200564,0.08510731954843698,nan,nan,nan,nan,nan,nan,nan,nan,nan,nan
17.974709033966064,-0.5100035071372986,3.0307536125183105,-7.662060737609863,-0.04764500603942522,0.0017364025115966797,0.0,3.0725893648957947,-7.924428610182289,-0.168159172043269,0.7606122398741733,0.5258176702815894,0.0946997322184888,0.10141633182602969,nan,nan,nan,nan,nan,nan,nan,nan,nan,nan
17.985065460205078,-0.5042248964309692,3.0267961025238037,-7.645268440246582,-0.04555264553965374,0.0020024776458740234,0.0,3.0734387034347423,-7.904820161892785,-0.16931574438049443,0.7604789151131683,0.6492200266558685,0.11325467235367453,0.11791930817712633,nan,nan,nan,nan,nan,nan,nan,nan,nan,nan
17.994971752166748,-0.4926600158214569,3.0184130668640137,-7.61199426651001,-0.04152931689085844,0.0027594566345214844,0.0,3.074136747023979,-7.885256412431293,-0.169511576779302,0.7604463696750798,0.819928077653445,0.1412435053541115,0.13158964451045124,nan,nan,nan,nan,nan,nan,nan,nan,nan,nan
18.004898071289062,-0.48687148094177246,3.0139811038970947,-7.595498085021973,-0.03965731317703554,0.0018410682678222656,0.0,3.0746636231408795,-7.865735785009308,-0.16883641697707627,0.7603038972922845,0.9308887952383189,0.15733974420843938,0.14661320576788525,nan,nan,nan,nan,nan,nan,nan,nan,nan,nan
18.01497983932495,-0.4810776114463806,3.0093860626220703,-7.579092979431152,-0.03790414563312827,0.0022172927856445312,0.0,3.07500224411188,-7.846257404055024,-0.16737556820958369,0.7601727196976638,1.0,0.1703150723036954,0.1588928123610026,nan,nan,nan,nan,nan,nan,nan,nan,nan,nan
18.02479863166809,-0.47527799010276794,3.004626989364624,-7.5627760887146,-0.03626537890541205,0.001608133316040039,0.0,3.075138116747282,-7.826821058240988,-0.16520991523173095,0.7600532283354248,1.0,0.1808893021257717,0.1686303241450576,nan,nan,nan,nan,nan,nan,nan,nan,nan,nan
18.03482961654663,-0.46366086602211,2.994616746902466,-7.530393123626709,-0.03328731636966997,0.001875162124633789,0.0,3.0750591617120158,-7.807427147825974,-0.16241596999308744,0.7600744067340921,1.0,0.19333660750844012,0.17579095297950645,nan,nan,nan,nan,nan,nan,nan,nan,nan,nan
18.045069217681885,-0.45784810185432434,2.9893717765808105,-7.514336109161377,-0.03191654559792935,0.0018048286437988281,0.0,3.0747555417108456,-7.788076621012504,-0.15906593432690838,0.7599724962921833,1.0,0.19892463496169246,0.18413005960147574,nan,nan,nan,nan,nan,nan,nan,nan,nan,nan
18.05471658706665,-0.45202991366386414,2.9839653968811035,-7.498356819152832,-0.030605658383838524,0.0017063617706298828,0.0,3.0742194976443917,-7.768770903278106,-0.15522777725587092,0.7598733693569761,1.0,0.2032790909447031,0.19022224402551902,nan,nan,nan,nan,nan,nan,nan,nan,nan,nan
18.065037488937378,-0.4462067186832428,2.9783999919891357,-7.482453346252441,-0.029341608128317584,0.0024483203887939453,0.0,3.073445192004795,-7.7495118229756255,-0.15096532475859847,0.7597740365271207,1.0,0.20643109553116135,0.19459605133724814,nan,nan,nan,nan,nan,nan,nan,nan,nan,nan
18.193414211273193,-0.4462067186832428,2.9783999919891357,-7.482453346252441,-0.029341608128317584,0.002796649932861328,0.0,2.9757258997014864,-7.463259983428572,-0.22387179256870143,0.7574202683094674,1.0,0.2075042097896901,0.19854006443805405,nan,nan,nan,nan,nan,nan,nan,nan,nan,nan
18.199965715408325,-0.3523935079574585,2.8507702350616455,-7.20559024810791,-0.010042592944974359,0.0018491744995117188,0.0,2.972623689364573,-7.444108618511584,-0.21387179256870142,0.759287039869685,0.8259622000130116,0.18068137310771984,0.1942453254782636,nan,nan,nan,nan,nan,nan,nan,nan,nan,nan
18.204713106155396,-0.3523935079574585,2.8507702350616455,-7.20559024810791,-0.010042592944974359,0.001917123794555664,0.0,2.9691033313811186,-7.4250077285526865,-0.20387179256870142,0.7590724219383262,0.8457363344547033,0.17609138969257948,0.1828982677060913,nan,nan,nan,nan,nan,nan,nan,nan,nan,nan
18.214922189712524,-0.3468067944049835,2.8411331176757812,-7.189701557159424,-0.008761994603178024,0.0020122528076171875,0.0,2.965174962259876,-7.405965500104853,-0.1938717925687014,0.7589504192741048,0.8431344199548259,0.1705438556911326,0.17358730511068268,nan,nan,nan,nan,nan,nan,nan,nan,nan,nan
18.22476577758789,-0.3356657326221466,2.8217592239379883,-7.158223628997803,-0.00660640402935702,0.0016832351684570312,0.0,2.9608488779732616,-7.386989825551731,-0.1838717925687014,0.7589058462815745,0.8148295795806437,0.16145856939279013,0.16579626393942473,nan,nan,nan,nan,nan,nan,nan,nan,nan,nan
18.235114574432373,-0.3356657326221466,2.8217592239379883,-7.158223628997803,-0.00660640402935702,0.002088785171508789,0.0,2.956135527224861,-7.368088299605728,-0.1738717925687014,0.7586933752741872,0.8375273532523315,0.15840400195008286,0.15770918235782488,nan,nan,nan,nan,nan,nan,nan,nan,nan,nan
18.483718395233154,-0.3356657326221466,2.8217592239379883,-7.158223628997803,-0.00660640402935702,0.002290964126586914,0.0,2.8134083585925453,-7.140325346315034,-0.07278390061227898,0.7575218842294931,1.0,0.15667275446697243,0.15111074865225066,nan,nan,nan,nan,nan,nan,nan,nan,nan,nan
18.48987579345703,-0.17006652057170868,2.4839091300964355,-6.690067768096924,0.03197481578975607,0.0016062259674072266,0.0,2.804793093137112,-7.1225736957425525,-0.06278390061227898,0.7592077158931901,-0.11340298319035758,0.06977065404617115,0.14115186372050245,nan,nan,nan,nan,nan,nan,nan,nan,nan,nan
18.494823694229126,-0.17006652057170868,2.4839091300964355,-6.690067768096924,0.03197481578975607,0.0020911693572998047,0.0,2.7959253195427025,-7.104972324022538,-0.05278390061227898,0.7589681061964043,-0.07804323894397536,0.044665011234435274,0.11480738949071255,nan,nan,nan,nan,nan,nan,nan,nan,nan,nan
18.504985094070435,-0.16615019738674164,2.4740817546844482,-6.676609992980957,0.0330955971950343,0.0020117759704589844,0.0,2.7868169837171783,-7.08752455138084,-0.04278390061227898,0.7588191114431171,-0.08815820563774279,0.026480198415639998,0.08382151903944238,nan,nan,nan,nan,nan,nan,nan,nan,nan,nan
18.51489758491516,-0.16227033734321594,2.464407205581665,-6.663218975067139,0.034236265051541495,0.0019888877868652344,0.0,2.7774800780970987,-7.070233370658764,-0.032783900612278975,0.7586750223016624,-0.09807588908103693,0.007731775282081752,0.055306458396328445,nan,nan,nan,nan,nan,nan,nan,nan,nan,nan
18.52491521835327,-0.15462292730808258,2.44553279876709,-6.636629581451416,0.036572475801512974,0.0018374919891357422,0.0,2.7679266342238504,-7.053101446626851,-0.022783900612278973,0.7586252278903381,-0.15712495301686769,-0.01423401627753235,0.02775063430668754,nan,nan,nan,nan,nan,nan,nan,nan,nan,nan
18.535264492034912,-0.15085728466510773,2.436342477798462,-6.6234331130981445,0.037747549095180466,0.003008127212524414,0.0,2.758168715308797,-7.036131115480431,-0.012783900612278973,0.7584486984380049,-0.16579113150520608,-0.033737094094137776,-0.0011754858806839776,nan,nan,nan,nan,nan,nan,nan,nan,nan,nan
18.5449640750885,-0.14713217318058014,2.427323818206787,-6.610306262969971,0.03889594394423537,0.0029458999633789062,0.0,2.7482184087921597,-7.0193243845165885,-0.002783900612278973,0.758262157899116,-0.17052576629834726,-0.05260323422498605,-0.03006852691646757,nan,nan,nan,nan,nan,nan,nan,nan,nan,nan
18.554990530014038,-0.1434551328420639,2.4184629917144775,-6.597261905670166,0.04000030789122053,0.0018262863159179688,0.0,2.7380878189003113,-7.00268293199201,0.007216099387721027,0.7580865789315062,-0.17003691434309975,-0.07078007849773421,-0.05872012164374292,nan,nan,nan,nan,nan,nan,nan,nan,nan,nan
18.56482195854187,-0.1362265944480896,2.401278257369995,-6.5713653564453125,0.04209372022082754,0.002341032028198242,0.0,2.7277890592061165,-6.986208107161037,0.017216099387721027,0.7580006401960494,-0.19771514552050862,-0.08906624477528083,-0.08723976033181616,nan,nan,nan,nan,nan,nan,nan,nan,nan,nan
18.57477641105652,-0.13267534971237183,2.3929569721221924,-6.558507919311523,0.043076380081223234,0.001758575439453125,0.0,2.71733424519691,-6.969900930493106,0.02721609938772103,0.7578512627425437,-0.18288704166866054,-0.1056064767602077,-0.1160769002615869,nan,nan,nan,nan,nan,nan,nan,nan,nan,nan
18.58534073829651,-0.12916629016399384,2.3848178386688232,-6.545708656311035,0.04401835706248948,0.0023241043090820312,0.0,2.7067354868546496,-6.953762094068601,0.03721609938772103,0.7577072821533813,-0.16366311041492,-0.12119286896678648,-0.14327722235583143,-0.06358321925401687,-0.06378321925401688,3.9878471923828127,3.9876471923828123,-12.377567427062989,-12.377767427062988,0.00011701594910135914,-8.298405089864087e-05,-0.10337101092338562,-0.10357101092338562
18.594937801361084,-0.1259482204914093,2.3764946460723877,-6.532772541046143,0.04492015993608539,0.003463268280029297,0.0,2.696004881252723,-6.937791962152032,0.04721609938772103,0.75757181913106,-0.1396152729278568,-0.13580636673009203,-0.168572602701373,998.9804075366898,-1000.4216588169639,192321.34884241727,-192314.30418998245,192395.2513848213,-192416.2696725446,3676.3019416067236,-3676.2550667742976,3750.4089716536478,-3745.459647585231
18.604847192764282,-0.1196284368634224,2.360414981842041,-6.507106304168701,0.04644802038329622,0.0020837783813476562,0.0,2.685154505173833,-6.921990571941275,0.057216099387721035,0.7575319865799706,-0.13074376706994784,-0.14847044182979283,-0.19226198740689804,nan,nan,nan,nan,nan,nan,nan,nan,nan,nan
18.736162900924683,-0.1196284368634224,2.360414981842041,-6.507106304168701,0.04644802038329622,0.001779794692993164,0.0,2.3504914410361017,-6.49410880744881,0.2181343925750071,0.7533715186881939,-1.0,-0.16090826093982866,-0.21309696630846728,nan,nan,nan,nan,nan,nan,nan,nan,nan,nan
18.74487614631653,-0.07175242155790329,2.2559049129486084,-6.298256874084473,0.05034256921735557,0.0023577213287353516,0.0,2.3409269503271743,-6.481019155780822,0.2081343925750071,0.7545647125153921,-1.0,-0.10742813121128177,-0.24948964462177817,nan,nan,nan,nan,nan,nan,nan,nan,nan,nan
18.755095958709717,-0.06920050084590912,2.251674175262451,-6.286480903625488,0.05020309087351499,0.002262592315673828,0.0,2.3317128990108436,-6.467844816953821,0.1981343925750071,0.7544216828942261,-1.0,-0.10288534310596724,-0.26398885012071593,nan,nan,nan,nan,nan,nan,nan,nan,nan,nan
18.765328645706177,-0.06415300071239471,2.243684768676758,-6.26306676864624,0.04982321454856152,0.0034821033477783203,0.0,2.322840529720632,-6.454592996824911,0.18813439257500708,0.7543412500999701,-1.0,-0.09557406045662022,-0.2734569219474403,nan,nan,nan,nan,nan,nan,nan,nan,nan,nan
18.774885654449463,-0.06166223809123039,2.2399187088012695,-6.251429080963135,0.049583268769364794,0.0021522045135498047,0.0,2.3143009442945814,-6.441270635814804,0.17813439257500707,0.7541939467871612,-1.0,-0.09154726055979723,-0.2786483023944542,nan,nan,nan,nan,nan,nan,nan,nan,nan,nan
18.785096645355225,-0.059192221611738205,2.236304759979248,-6.239840030670166,0.049305243603863444,0.0018949508666992188,0.0,2.3060851097341946,-6.427884405546531,0.16813439257500706,0.7540246313549825,-1.0,-0.0863833269872459,-0.2810024989922837,nan,nan,nan,nan,nan,nan,nan,nan,nan,nan
18.795334815979004,-0.05674198642373085,2.232842445373535,-6.228302001953125,0.048985165437092595,0.0028188228607177734,0.0,2.2981838642520978,-6.4144407056304305,0.15813439257500705,0.7538483710238947,-1.0,-0.07947371862100522,-0.28041762783204177,nan,nan,nan,nan,nan,nan,nan,nan,nan,nan
18.804863214492798,-0.05189655348658562,2.2263660430908203,-6.205395221710205,0.04823924583578888,0.0018100738525390625,0.0,2.290587923404648,-6.400945660598364,0.14813439257500705,0.7537125947060944,-1.0,-0.06354045417621065,-0.27501224254147827,nan,nan,nan,nan,nan,nan,nan,nan,nan,nan
18.814828157424927,-0.04949907213449478,2.22334623336792,-6.194014072418213,0.047821106652690445,0.002264738082885742,0.0,2.2832878863056045,-6.387405116989964,0.13813439257500704,0.753555412977606,-1.0,-0.0505789673014651,-0.2643488446758868,nan,nan,nan,nan,nan,nan,nan,nan,nan,nan
18.824854373931885,-0.04711699113249779,2.2204675674438477,-6.182680606842041,0.04738151129615949,0.0017130374908447266,0.0,2.276274241916871,-6.373824640593504,0.12813439257500703,0.7533978695262176,-1.0,-0.03650630914771231,-0.24992252887888441,nan,nan,nan,nan,nan,nan,nan,nan,nan,nan
18.834985733032227,-0.04474307596683502,2.2177188396453857,-6.171393871307373,0.046926443906508165,0.0022323131561279297,0.0,2.2695373754122157,-6.360209513843816,0.11813439257500703,0.7532401672802074,-1.0,-0.0212047618430632,-0.2320373476858525,nan,nan,nan,nan,nan,nan,nan,nan,nan,nan
18.845200061798096,-0.041154440492391586,2.214303970336914,-6.147910118103027,0.04599712654734974,0.0033376216888427734,0.0,2.263067574609798,-6.346564733379477,0.10842726203202639,0.7531383684050628,-1.0,0.00011529069946297028,-0.20941975027238754,nan,nan,nan,nan,nan,nan,nan,nan,nan,nan
18.854776859283447,-0.03936037793755531,2.2127578258514404,-6.136270523071289,0.04552289712756428,0.0018432140350341797,0.0,2.25685103329061,-6.332896827810219,0.09916580568399602,0.7529951589313774,-1.0,0.018099445600298407,-0.1834979116522392,nan,nan,nan,nan,nan,nan,nan,nan,nan,nan
18.865000247955322,-0.037565745413303375,2.211313009262085,-6.124690055847168,0.04502766241347871,0.0021104812622070312,0.0,2.2508720372806406,-6.319212705332362,0.09035156406535452,0.7528534157750392,-1.0,0.035964321489682344,-0.1557525013957681,nan,nan,nan,nan,nan,nan,nan,nan,nan,nan
18.99882173538208,-0.037565745413303375,2.211313009262085,-6.124690055847168,0.04502766241347871,0.00208282470703125,0.0,2.2078001468795403,-6.111419715627717,0.1313657410506778,0.7514662698812502,-1.0,0.049686369145085084,-0.12803389672904453,nan,nan,nan,nan,nan,nan,nan,nan,nan,nan
19.005225896835327,-0.004450693726539612,2.2022011280059814,-5.921375274658203,0.03496189292631261,0.0017650127410888672,0.0,2.204563883120914,-6.098147902247984,0.12136574105067781,0.7517584846213899,-0.3403029064504931,0.07970387684829688,-0.08818022607947788,nan,nan,nan,nan,nan,nan,nan,nan,nan,nan
19.01484990119934,-0.0025373955722898245,2.202554225921631,-5.910139560699463,0.034344376217531565,0.0019698143005371094,0.0,2.2015941993579817,-6.084879673915,0.11136574105067781,0.7516056040274914,-0.3313966501165142,0.08468897373498964,-0.0550464509546834,nan,nan,nan,nan,nan,nan,nan,nan,nan,nan
19.024853706359863,-0.0006276897038333118,2.2028820514678955,-5.898971080780029,0.03371134830593984,0.0020263195037841797,0.0,2.1988809839183885,-6.07161979537046,0.10136574105067782,0.7514535435587699,-0.3225803354740294,0.09091791836101916,-0.02904600956858751,nan,nan,nan,nan,nan,nan,nan,nan,nan,nan
19.0351345539093,0.001278216135688126,2.2031800746917725,-5.887868404388428,0.03306263613451822,0.002013683319091797,0.0,2.1964140387768682,-6.058372735781155,0.09136574105067782,0.7513037688542589,-0.3137657629130386,0.09523271499401915,-0.008688388290980353,nan,nan,nan,nan,nan,nan,nan,nan,nan,nan
19.045026302337646,0.005055595654994249,2.203655958175659,-5.865861415863037,0.0317417952570898,0.0021359920501708984,0.0,2.194183086300433,-6.045142666797789,0.08136574105067783,0.7511499417218491,-0.2542226335848681,0.09565713766637532,0.005602339007328567,nan,nan,nan,nan,nan,nan,nan,nan,nan,nan
19.054956912994385,0.0069375536404550076,2.203826427459717,-5.854972839355469,0.031083197553968243,0.0018930435180664062,0.0,2.192177776042998,-6.031933460783514,0.07136574105067783,0.7509659156406252,-0.24881482723459458,0.09604737512631867,0.01677879698276724,nan,nan,nan,nan,nan,nan,nan,nan,nan,nan
19.06497859954834,0.008814774453639984,2.2039449214935303,-5.844151973724365,0.030426687474133348,0.0022716522216796875,0.0,2.1903876915848817,-6.018748689213351,0.06136574105067783,0.7507880344578042,-0.2470884896822011,0.095724982413432,0.02441573873086048,nan,nan,nan,nan,nan,nan,nan,nan,nan,nan
19.074809551239014,0.01068719383329153,2.204007148742676,-5.833396911621094,0.029776219741656403,0.001707315444946289,0.0,2.188802357412574,-6.005591621245458,0.05136574105067783,0.7506193971559343,-0.24919494051758406,0.09440063216697464,0.029175392700000507,nan,nan,nan,nan,nan,nan,nan,nan,nan,nan
19.085017442703247,0.014358196407556534,2.204010248184204,-5.811005592346191,0.028493430734821593,0.002283334732055664,0.0,2.187411245834169,-5.992465222465051,0.04136574105067783,0.7505030511181651,-0.21632397537485026,0.08883262058838125,0.03040563388552818,nan,nan,nan,nan,nan,nan,nan,nan,nan,nan
19.09478783607483,0.016160044819116592,2.2039434909820557,-5.7993927001953125,0.027832188195364385,0.002391338348388672,0.0,2.1862037839258317,-5.979372153801602,0.031365741050677826,0.7503831501924424,-0.22829459512104378,0.08493636555342268,0.030597412057857574,nan,nan,nan,nan,nan,nan,nan,nan,nan,nan
19.10489296913147,0.017959531396627426,2.203806161880493,-5.787879467010498,0.027180551333441848,0.0021233558654785156,0.0,2.1851693605046716,-5.966314770619746,0.021365741050677824,0.7502672373113687,-0.24339804501548512,0.08071294471486508,0.029201912110438637,nan,nan,nan,nan,nan,nan,nan,nan,nan,nan
19.114861011505127,0.01975766010582447,2.2036077976226807,-5.776447296142578,0.026541243484419587,0.002073526382446289,0.0,2.1842973331233955,-5.953295121984189,0.011365741050677823,0.7501547913288095,-0.26132664940569783,0.07603769849984907,0.02658590255117514,nan,nan,nan,nan,nan,nan,nan,nan,nan,nan
19.12483263015747,0.02334216795861721,2.2029833793640137,-5.753819465637207,0.02530169305661631,0.0018830299377441406,0.0,2.1835770350821253,-5.940314950098717,0.0013657410506778232,0.7501040770916109,-0.25129991712792377,0.06687473344121389,0.021951652909255343,nan,nan,nan,nan,nan,nan,nan,nan,nan,nan
19.263306140899658,0.02334216795861721,2.2029833793640137,-5.753819465637207,0.02530169305661631,0.0021386146545410156,0.0,2.2029643227783686,-5.741584563674556,-0.11326136530854627,0.7469514852068321,-0.40440053372247076,0.06578338408792746,0.01869356509182607,-0.06358321925401687,-0.06378321925401688,3.9878471923828127,3.9876471923828123,-12.377567427062989,-12.377767427062988,0.00011701594910135914,-8.298405089864087e-05,-0.10337101092338562,-0.10357101092338562
19.270111322402954,0.058086052536964417,2.182997703552246,-5.572254657745361,0.017058072748942596,0.0018992424011230469,0.0,2.2028840670898404,-5.729376956566773,-0.11634149604912682,0.7479692761900614,0.13378737644531474,0.009929283762796486,-0.005539723017059595,998.9804075366898,-1000.4216588169639,192321.34884241727,-192314.30418998245,192395.2513848213,-192416.2696725446,3676.3019416067236,-3676.2550667742976,3750.4089716536478,-3745.459647585231
19.274824619293213,0.06273413449525833,2.1787521839141846,-5.551961421966553,0.016253733837508805,0.001477956771850586,0.0,2.202726756893701,-5.717195469675098,-0.11853406178531146,0.7479874627052303,0.2488550244661326,0.0018849165083475112,-0.009139434870414593,nan,nan,nan,nan,nan,nan,nan,nan,nan,nan
19.285028219223022,0.06501483172178268,2.1764774322509766,-5.541891574859619,0.015866007009287322,0.002359151840209961,0.0,2.2024784818333907,-5.705039212748833,-0.1199123867188148,0.7479364983856907,0.33173897187668866,-0.001371233565984082,-0.012257523051863634,nan,nan,nan,nan,nan,nan,nan,nan,nan,nan
19.294772148132324,0.06726668030023575,2.174099922180176,-5.531871318817139,0.015488738443320146,0.0021054744720458984,0.0,2.202127151610726,-5.692907601633787,-0.12054673996098766,0.7478858062386259,0.41188649636513625,-0.004291268311398988,-0.014794967507291297,nan,nan,nan,nan,nan,nan,nan,nan,nan,nan
19.304814338684082,0.06948952376842499,2.1716184616088867,-5.521912574768066,0.015120218787852746,0.002066373825073242,0.0,2.201662376082951,-5.6808003635918745,-0.12050428838615038,0.7478357839275083,0.48947151656567456,-0.0071559567551787,-0.01690787423503811,nan,nan,nan,nan,nan,nan,nan,nan,nan,nan
19.31478977203369,0.07168333977460861,2.1690316200256348,-5.512002468109131,0.01475897874785076,0.001787424087524414,0.0,2.201075350401685,-5.6687175296910315,-0.11984906991494221,0.7477744363360234,0.5644136077847084,-0.009953055848611048,-0.018736887674794735,nan,nan,nan,nan,nan,nan,nan,nan,nan,nan
19.324719429016113,0.07596233487129211,2.1635582447052,-5.492336273193359,0.014066837685279956,0.0016980171203613281,0.0,2.2003587450388986,-5.656659417278528,-0.11864198518245307,0.7477391882144283,0.6631664606047614,-0.014578673843036771,-0.02015837013944969,nan,nan,nan,nan,nan,nan,nan,nan,nan,nan
19.335008144378662,0.0780581533908844,2.1606574058532715,-5.482579708099365,0.013741273430599443,0.002355337142944336,0.0,2.1995066004881245,-5.6446266051376,-0.11694080564884139,0.7476669122777829,0.7262768908584674,-0.016440853329549233,-0.0220937836575771,nan,nan,nan,nan,nan,nan,nan,nan,nan,nan
