time,x,y,z,yaw,ctrl_comp_time,x_ref,y_ref,z_ref,yaw_ref,throttle,roll_rate,pitch_rate,yaw_rate,save_tube_hH,save_tube_hL,save_tube_pyH,save_tube_pyL,save_tube_pzH,save_tube_pzL,save_tube_thetaH,save_tube_thetaL,save_tube_vH,save_tube_vL
15.037363290786743,-0.15300168097019196,3.543973684310913,-12.499341011047363,0.0006400082357710742,0.09544658660888672,0.0,3.544249892850021,-12.498950269662947,-0.0024569511358264184,0.25135008907477946,-1.0,-0.06966380340409574,0.014364930857916678,0.028014803475141525,0.027814803475141526,3.5440736843109133,3.543873684310913,-12.499241011047364,-12.499441011047363,0.007643048864173582,0.0074430488641735815,0.03896468335986138,0.03876468335986137
15.657645463943481,-0.1283973902463913,3.6055192947387695,-12.528894424438477,0.0003877103557900492,0.21354460716247559,0.0,3.544249892850021,-12.498950269662947,-0.0024569511358264184,0.25127526558687246,-1.0,-0.288764662382867,-0.5188713758719643,1072.5504950596521,-1073.801694291861,223426.25940525296,-223419.87814482284,223506.32139600482,-223527.46081555643,4099.741607845154,-4099.700772693658,4107.936386660336,-4102.924666957093
15.84428358078003,-0.1283973902463913,3.6055192947387695,-12.528894424438477,0.0003877103557900492,0.0029211044311523438,0.0,3.605787034488185,-12.528373881727326,-0.0049813879277911775,0.2527750811587933,-1.0,-0.44213526366800704,-0.6032099631103749,nan,nan,nan,nan,nan,nan,nan,nan,nan,nan
15.85263466835022,-0.10726188868284225,3.6278698444366455,-12.492246627807617,-0.008613871093307069,0.002886056900024414,0.0,3.606069159445692,-12.526998464560085,-0.014981387927791178,0.36543362931146794,-0.6485490556364384,-0.5494946845676052,-0.6622469741772625,nan,nan,nan,nan,nan,nan,nan,nan,nan,nan
15.862842321395874,-0.10815393179655075,3.6296916007995605,-12.476195335388184,-0.010175312061915381,0.0027217864990234375,0.0,3.606372614186565,-12.524793284823458,-0.024981387927791178,0.38677428424967664,-0.6200180065891596,-0.6246462791973236,-0.7035728819240838,nan,nan,nan,nan,nan,nan,nan,nan,nan,nan
15.872604846954346,-0.10859113931655884,3.630552053451538,-12.467416763305664,-0.010991034881647016,0.0019676685333251953,0.0,3.6067036100558267,-12.521782829846618,-0.03498138792779118,0.40181037931315755,-0.6330295478380947,-0.6772523954381265,-0.7325010173468588,nan,nan,nan,nan,nan,nan,nan,nan,nan,nan
15.882933855056763,-0.10902219265699387,3.631378173828125,-12.458137512207031,-0.011835331811102585,0.002267599105834961,0.0,3.607067651610959,-12.517990955682695,-0.04498138792779118,0.41601263229188457,-0.646297465072079,-0.7140766768066885,-0.7527507121428013,nan,nan,nan,nan,nan,nan,nan,nan,nan,nan
15.892513751983643,-0.10944606363773346,3.632167100906372,-12.448442459106445,-0.012705277217225933,0.002054929733276367,0.0,3.6074695629082947,-12.5134408812625,-0.054981387927791184,0.4292360197387051,-0.6596798268371453,-0.7398536737646819,-0.7669254984999608,nan,nan,nan,nan,nan,nan,nan,nan,nan,nan
15.902880907058716,-0.11027000099420547,3.6336095333099365,-12.427726745605469,-0.014508281262669391,0.0023577213287353516,0.0,3.6079135136083176,-12.508155183393376,-0.06498138792779118,0.44547339686107046,-0.626473664578594,-0.7578975716352774,-0.7768478489499725,nan,nan,nan,nan,nan,nan,nan,nan,nan,nan
15.912702322006226,-0.11066712439060211,3.6342556476593018,-12.416747093200684,-0.01542967860884848,0.0026760101318359375,0.0,3.608403044876611,-12.502155792576106,-0.07498138792779117,0.45690625730490375,-0.6406701314502629,-0.7705283001446942,-0.7837934942649807,nan,nan,nan,nan,nan,nan,nan,nan,nan,nan
15.922626256942749,-0.11105124652385712,3.6348493099212646,-12.405376434326172,-0.01636007504340866,0.0024001598358154297,0.0,3.6089410950586305,-12.495463989612931,-0.08498138792779117,0.46775285904088254,-0.6559036789008779,-0.779369810101286,-0.7886554459854865,nan,nan,nan,nan,nan,nan,nan,nan,nan,nan
16.089925527572632,-0.11105124652385712,3.6348493099212646,-12.405376434326172,-0.01636007504340866,0.002040863037109375,0.0,3.636865606008269,-12.390379526063214,-0.14985770869261686,0.5494272914953008,-1.0,-0.7855588670709003,-0.7920588121898406,nan,nan,nan,nan,nan,nan,nan,nan,nan,nan
16.09654426574707,-0.11905553936958313,3.639012575149536,-12.082736015319824,-0.03845671549368311,0.0030379295349121094,0.0,3.638959172975227,-12.374968716763975,-0.15985770869261687,0.6071084509627332,-0.03344263054839269,-0.12446806836577393,-0.7944411685328885,nan,nan,nan,nan,nan,nan,nan,nan,nan,nan
16.104443073272705,-0.11905553936958313,3.639012575149536,-12.082736015319824,-0.03845671549368311,0.003088712692260742,0.0,3.6411267111373244,-12.359156238784864,-0.16985770869261688,0.6105509184081516,-0.1068336045405669,-0.0076942513862898465,-0.7034071429404142,nan,nan,nan,nan,nan,nan,nan,nan,nan,nan
16.11267328262329,-0.11987409740686417,3.636601209640503,-12.024856567382812,-0.04222391644376486,0.003112316131591797,0.0,3.6433646396026447,-12.342953742102589,-0.17985770869261689,0.6214057322428478,-0.028693021821813103,0.16998011190903833,-0.5489583012580173,nan,nan,nan,nan,nan,nan,nan,nan,nan,nan
16.122660160064697,-0.12017074972391129,3.635568141937256,-12.004910469055176,-0.043525784567853415,0.0021390914916992188,0.0,3.645669115565751,-12.32637229755074,-0.1898577086926169,0.6268431921469185,-0.05080694272702302,0.3083275353001692,-0.3001235863108698,nan,nan,nan,nan,nan,nan,nan,nan,nan,nan
16.132935523986816,-0.12038394808769226,3.634401321411133,-11.984697341918945,-0.04498321843913061,0.0025794506072998047,0.0,3.648036053277058,-12.30942240048887,-0.1998577086926169,0.6318733807870559,-0.0722793512863995,0.45582927471011847,0.006511981757253284,nan,nan,nan,nan,nan,nan,nan,nan,nan,nan
16.142460107803345,-0.120521679520607,3.631610870361328,-11.943742752075195,-0.0488302033693519,0.0021839141845703125,0.0,3.650461142681598,-12.292113974885291,-0.20931556952045824,0.6382869863930655,0.011411489815479792,0.5590804922970829,0.2445583872300773,nan,nan,nan,nan,nan,nan,nan,nan,nan,nan
16.15269684791565,-0.12043438106775284,3.6299688816070557,-11.922966003417969,-0.05130416548707703,0.002223968505859375,0.0,3.652930294482643,-12.274455036576326,-0.2168314669821529,0.6427114764171258,0.17867736280026691,0.6313563446079581,0.4111908710610541,nan,nan,nan,nan,nan,nan,nan,nan,nan,nan
16.162800550460815,-0.1202380433678627,3.6281538009643555,-11.902005195617676,-0.0541113638292027,0.004195451736450195,0.0,3.655403989329349,-12.256449570913077,-0.22255478813409674,0.6469584262992873,0.33764048870478414,0.6819494412255707,0.5278336097427379,nan,nan,nan,nan,nan,nan,nan,nan,nan,nan
16.17242932319641,-0.11992966383695602,3.626159906387329,-11.88087272644043,-0.057212602130691625,0.002122640609741211,0.0,3.6578451601938955,-12.238101677109102,-0.22662920693061583,0.6510313148364751,0.4886901514040267,0.7173646088578994,0.6094835268199165,nan,nan,nan,nan,nan,nan,nan,nan,nan,nan
16.182859182357788,-0.1195070818066597,3.6239826679229736,-11.859578132629395,-0.0605566272788379,0.002318859100341797,0.0,3.66021921034466,-12.21941580776209,-0.22919249713163461,0.6549480691046168,0.6321073364357835,0.7421552262005296,0.6666384687739415,nan,nan,nan,nan,nan,nan,nan,nan,nan,nan
16.349684238433838,-0.1195070818066597,3.6239826679229736,-11.859578132629395,-0.0605566272788379,0.002568960189819336,0.0,3.6293964725455656,-11.833131838215913,-0.3273730368741258,0.7163529205957085,1.0,0.7595086583403707,0.7066469281417591,nan,nan,nan,nan,nan,nan,nan,nan,nan,nan
16.357012510299683,-0.06769052147865295,3.5184133052825928,-11.367843627929688,-0.12685532549034068,0.002054929733276367,0.0,3.6342506361785643,-11.806491731484023,-0.31737303687412577,0.7403464025466445,1.0,0.7716560608382595,0.7346528496992314,nan,nan,nan,nan,nan,nan,nan,nan,nan,nan
16.363358974456787,-0.06769052147865295,3.5184133052825928,-11.367843627929688,-0.12685532549034068,0.0023317337036132812,0.0,3.6385497249732066,-11.779672113406235,-0.30737303687412576,0.7408831248397104,1.0,0.7801592425867817,0.754256994789462,nan,nan,nan,nan,nan,nan,nan,nan,nan,nan
16.372578620910645,-0.05846593901515007,3.5029067993164062,-11.321417808532715,-0.12969771991855494,0.002140045166015625,0.0,3.6422986344164197,-11.752687063332964,-0.29737303687412575,0.7434178941939098,1.0,0.7861114698107472,0.7679798963526234,nan,nan,nan,nan,nan,nan,nan,nan,nan,nan
16.382750511169434,-0.049141768366098404,3.4869279861450195,-11.274534225463867,-0.13190250178564147,0.0024776458740234375,0.0,3.6455025834772328,-11.725550430696895,-0.28737303687412574,0.7455296834663555,1.0,0.7902780288675231,0.7775859274468364,nan,nan,nan,nan,nan,nan,nan,nan,nan,nan
16.3923978805542,-0.044439647346735,3.478755235671997,-11.251069068908691,-0.13274574744538892,0.0018744468688964844,0.0,3.648167108519877,-11.698275826935404,-0.27737303687412573,0.7465717973410883,1.0,0.7931946202072662,0.7792188439705235,nan,nan,nan,nan,nan,nan,nan,nan,nan,nan
16.402825832366943,-0.03971140459179878,3.4704573154449463,-11.227569580078125,-0.13341212254264465,0.0025556087493896484,0.0,3.6502980569918297,-11.670876617636553,-0.2673730368741257,0.7475067501065956,1.0,0.7949243494464591,0.7772480201000052,nan,nan,nan,nan,nan,nan,nan,nan,nan,nan
16.412650108337402,-0.03495841845870018,3.462035894393921,-11.204048156738281,-0.1339015963858971,0.002141714096069336,0.0,3.651901580895201,-11.643365914913792,-0.2573730368741257,0.748372893500286,1.0,0.7875185378208416,0.7734565931830168,nan,nan,nan,nan,nan,nan,nan,nan,nan,nan
16.422647953033447,-0.025385860353708267,3.444838047027588,-11.156975746154785,-0.1343633675544259,0.0023102760314941406,0.0,3.652984130049967,-11.615756570014137,-0.2473730368741257,0.7495384096270594,1.0,0.7689000379722827,0.7612128236877781,nan,nan,nan,nan,nan,nan,nan,nan,nan,nan
16.43310046195984,-0.020570838823914528,3.4360709190368652,-11.13343620300293,-0.13433685388931385,0.0025904178619384766,0.0,3.6535524451576573,-11.588061166164188,-0.2373730368741257,0.7502883616500313,1.0,0.7510477797187094,0.7440956497955508,0.028014803475141525,0.027814803475141526,3.5440736843109133,3.543873684310913,-12.499241011047364,-12.499441011047363,0.007643048864173582,0.0074430488641735815,0.03896468335986138,0.03876468335986137
16.597782373428345,-0.020570838823914528,3.4360709190368652,-11.13343620300293,-0.13433685388931385,0.0027701854705810547,0.0,3.4313804047434657,-11.101892570540697,-0.16422717076615048,0.7736689892777414,1.0,0.7401093147790337,0.7292432822715226,1072.5504950596521,-1073.801694291861,223426.25940525296,-223419.87814482284,223506.32139600482,-223527.46081555643,4099.741607845154,-4099.700772693658,4107.936386660336,-4102.924666957093
16.60628843307495,0.10044302046298981,3.2214691638946533,-10.650885581970215,-0.09534703307013793,0.003224611282348633,0.0,3.4261887780862836,-11.070479566526561,-0.15422717076615047,0.7736689892777414,0.4168751553532366,0.5935240705889135,0.6153343269137278,nan,nan,nan,nan,nan,nan,nan,nan,nan,nan
16.612996816635132,0.10044302046298981,3.2214691638946533,-10.650885581970215,-0.09534703307013793,0.0027799606323242188,0.0,3.420507723014817,-11.039205723633417,-0.14422717076615046,0.7736689892777414,0.44289693435756206,0.4642044411048785,0.6509645380469741,nan,nan,nan,nan,nan,nan,nan,nan,nan,nan
16.622634172439575,0.10618997365236282,3.2106051445007324,-10.62841510772705,-0.09188089681214123,0.002213716506958008,0.0,3.4143490767077993,-11.008079249525547,-0.13422717076615046,0.7736689892777414,0.4284162698921665,0.4134929131672573,0.589212705996344,nan,nan,nan,nan,nan,nan,nan,nan,nan,nan
16.632723331451416,0.12299732118844986,3.178311347961426,-10.561049461364746,-0.08071962322614858,0.0024001598358154297,0.0,3.407724822147197,-10.97710802401448,-0.12422717076615046,0.7736689892777414,0.32496895881721977,0.3457666970688918,0.5340044627403043,nan,nan,nan,nan,nan,nan,nan,nan,nan,nan
16.642669677734375,0.12299732118844986,3.178311347961426,-10.561049461364746,-0.08071962322614858,0.002238035202026367,0.0,3.4006470806384117,-10.946299596372883,-0.11422717076615047,0.7736689892777414,0.3537888454368716,0.29514796017965816,0.4903676617696197,nan,nan,nan,nan,nan,nan,nan,nan,nan,nan
16.652584075927734,0.13380734622478485,3.1570916175842285,-10.516409873962402,-0.07279606056741263,0.0020885467529296875,0.0,3.3931281042799446,-10.915661182807499,-0.10422717076615047,0.7736689892777414,0.2940751252061269,0.2427590095897756,0.43639235853331637,nan,nan,nan,nan,nan,nan,nan,nan,nan,nan
16.6626079082489,0.13380734622478485,3.1570916175842285,-10.516409873962402,-0.07279606056741263,0.002067089080810547,0.0,3.385180268385805,-10.885199664092106,-0.09422717076615048,0.7736689892777414,0.32483024565296303,0.20019316412092997,0.3908603792429964,nan,nan,nan,nan,nan,nan,nan,nan,nan,nan
16.67256212234497,0.14936932921409607,3.1258435249328613,-10.449723243713379,-0.06067072296150202,0.0018482208251953125,0.0,3.3768160638639624,-10.854921583361392,-0.08422717076615048,0.7736689892777414,0.23745930297287265,0.14756369938112987,0.33854679359402845,nan,nan,nan,nan,nan,nan,nan,nan,nan,nan
16.683082580566406,0.14936932921409607,3.1258435249328613,-10.449723243713379,-0.06067072296150202,0.002351999282836914,0.0,3.3680480895541556,-10.82483314406656,-0.07422717076615049,0.7736689892777414,0.27020542734740927,0.10455414076323485,0.2928873638804568,nan,nan,nan,nan,nan,nan,nan,nan,nan,nan
16.692538261413574,0.15928572416305542,3.1054508686065674,-10.405535697937012,-0.052631295445825635,0.001980304718017578,0.0,3.358889044528394,-10.794940208093438,-0.06422717076615049,0.7736689892777414,0.23551888609063432,0.06113820144397006,0.24122178647957754,nan,nan,nan,nan,nan,nan,nan,nan,nan,nan
16.86348819732666,0.15928572416305542,3.1054508686065674,-10.405535697937012,-0.052631295445825635,0.0032117366790771484,0.0,3.091497007143591,-10.378257327202999,0.11523302704425806,0.7736689892777414,1.0,0.02411812202029084,0.19374663873871076,nan,nan,nan,nan,nan,nan,nan,nan,nan,nan
16.872732400894165,0.24690641462802887,2.912220001220703,-9.935151100158691,0.022246673115555893,0.002157926559448242,0.0,3.0773863200715774,-10.351219791589955,0.12523302704425807,0.7736689892777414,0.5228012658084581,0.02702155760713943,0.030649352987418783,nan,nan,nan,nan,nan,nan,nan,nan,nan,nan
16.882917404174805,0.24957630038261414,2.9051358699798584,-9.914206504821777,0.025185747670844458,0.0024971961975097656,0.0,3.0631318716782725,-10.324422148860696,0.13523302704425808,0.7736689892777414,0.5559058973488373,-0.06962984338005425,0.0524094626859023,nan,nan,nan,nan,nan,nan,nan,nan,nan,nan
16.89255952835083,0.25215384364128113,2.898176908493042,-9.893292427062988,0.02809540947791349,0.0019600391387939453,0.0,3.048746664081264,-10.297863113735604,0.14523302704425808,0.7736689892777414,0.5898651261368556,-0.09588881984054308,-0.01656768847880194,nan,nan,nan,nan,nan,nan,nan,nan,nan,nan
16.90304946899414,0.25463205575942993,2.8913354873657227,-9.872492790222168,0.03095663246760348,0.002204418182373047,0.0,3.0342436295624475,-10.271541059615783,0.1552330270442581,0.7736689892777414,0.6232215990786555,-0.1369034814147567,-0.05220726721837934,nan,nan,nan,nan,nan,nan,nan,nan,nan,nan
16.912893056869507,0.2592882513999939,2.8780100345611572,-9.83100414276123,0.03647787519240751,0.0022869110107421875,0.0,3.0196356229426393,-10.245454020467333,0.16437883355461866,0.7736689892777414,0.539412151530769,-0.16823311719592063,-0.09209912368891086,nan,nan,nan,nan,nan,nan,nan,nan,nan,nan
16.92255735397339,0.2614661753177643,2.8715291023254395,-9.81031608581543,0.039113521923504896,0.0021157264709472656,0.0,3.0049575039582415,-10.219587145476856,0.1719542446091225,0.7736689892777414,0.40725382422697093,-0.19829508317599695,-0.12885945676851548,nan,nan,nan,nan,nan,nan,nan,nan,nan,nan
16.932881593704224,0.2635439932346344,2.8651719093322754,-9.789666175842285,0.04163959996655761,0.002225160598754883,0.0,2.99026105416759,-10.193914726106012,0.17807255126242413,0.7736689892777414,0.27758516319976984,-0.22589450608985123,-0.16933858785744274,nan,nan,nan,nan,nan,nan,nan,nan,nan,nan
16.942644119262695,0.2655218541622162,2.858940839767456,-9.769052505493164,0.044043121005020905,0.0022737979888916016,0.0,2.9755926910508177,-10.168412701611,0.18284304514021685,0.7736689892777414,0.15061680229931573,-0.2537277512719336,-0.2120177932464576,nan,nan,nan,nan,nan,nan,nan,nan,nan,nan
17.115907669067383,0.2655218541622162,2.858940839767456,-9.769052505493164,0.044043121005020905,0.002472400665283203,0.0,2.8467585495969048,-9.744394979789927,0.18196929035853002,0.7736689892777414,-0.9011644024717846,-0.2829920881490021,-0.2571541586886993,nan,nan,nan,nan,nan,nan,nan,nan,nan,nan
17.12255573272705,0.2739875912666321,2.7540829181671143,-9.319390296936035,0.06604724776605193,0.0022683143615722656,0.0,2.8350021262396528,-9.71970424779733,0.17301785345515708,0.7736689892777414,-1.0,-0.2527351346541169,-0.3744658378379338,nan,nan,nan,nan,nan,nan,nan,nan,nan,nan
17.132960319519043,0.2730526626110077,2.752310276031494,-9.30151653289795,0.06598196705507846,0.0027184486389160156,0.0,2.8236611527665856,-9.694988339777906,0.1641614847459326,0.7736689892777414,-1.0,-0.28468048528889967,-0.4645505545644913,nan,nan,nan,nan,nan,nan,nan,nan,nan,nan
17.14254355430603,0.272072970867157,2.750673294067383,-9.283638000488281,0.06585398069030272,0.0021529197692871094,0.0,2.8127242763522555,-9.670255335857906,0.15543140077111525,0.7736689892777414,-1.0,-0.3364249238801761,-0.5565690261866145,nan,nan,nan,nan,nan,nan,nan,nan,nan,nan
17.15286135673523,0.26998370885849,2.747814416885376,-9.248030662536621,0.06534759406254405,0.0026443004608154297,0.0,2.8021793388099883,-9.645513270439833,0.1468553704728883,0.7736689892777414,-1.0,-0.3963857997645922,-0.6295983183306302,nan,nan,nan,nan,nan,nan,nan,nan,nan,nan
17.162752389907837,0.26887571811676025,2.7465980052948,-9.230241775512695,0.06492302612872276,0.0023756027221679688,0.0,2.7920135016534715,-9.620770051944715,0.13845790845168737,0.7736689892777414,-1.0,-0.4550547371674814,-0.6807188228314411,nan,nan,nan,nan,nan,nan,nan,nan,nan,nan
17.17259192466736,0.2677369713783264,2.7455151081085205,-9.212464332580566,0.06436718217674084,0.0022008419036865234,0.0,2.7822133652579812,-9.596033396693562,0.13026046426114088,0.7736689892777414,-1.0,-0.5026545990555004,-0.7165031759820089,nan,nan,nan,nan,nan,nan,nan,nan,nan,nan
17.182923555374146,0.2665594518184662,2.744574546813965,-9.1947021484375,0.06367744764316076,0.002443075180053711,0.0,2.7727650817499025,-9.571310775692409,0.12228160747357274,0.7736689892777414,-1.0,-0.5366267996651509,-0.7415522231874062,nan,nan,nan,nan,nan,nan,nan,nan,nan,nan
17.192755699157715,0.26534509658813477,2.7437744140625,-9.176958084106445,0.06285391250078175,0.002213001251220703,0.0,2.763654461320901,-9.546609373068561,0.1145372082619707,0.7736689892777414,-1.0,-0.557670461701316,-0.7590865562311844,nan,nan,nan,nan,nan,nan,nan,nan,nan,nan
17.20307207107544,0.26281407475471497,2.7425856590270996,-9.141616821289062,0.06079746511276819,0.0022521018981933594,0.0,2.754867071737708,-9.521936054913349,0.10704061325836287,0.7736689892777414,-1.0,-0.5583285353133259,-0.771360589361829,nan,nan,nan,nan,nan,nan,nan,nan,nan,nan
17.38406252861023,0.26281407475471497,2.7425856590270996,-9.141616821289062,0.06079746511276819,0.002630949020385742,0.0,2.736217391761872,-9.118232457831137,0.2020756154305045,0.7722718210431603,-1.0,-0.5639666860356504,-0.7799524125532804,0.027134876868128776,0.026934876868128777,3.6056192947387697,3.6054192947387693,-12.528794424438477,-12.528994424438476,0.005118612072208823,0.004918612072208822,0.05201924795508385,0.051819247955083844
17.392492294311523,0.23135341703891754,2.775498151779175,-8.746465682983398,0.0003496949304996489,0.0022127628326416016,0.0,2.730306924943182,-9.094848788150683,0.1920756154305045,0.7700361521644054,-0.26693716850095095,-0.1517796921030667,-0.7750058237499848,1075.4585412586691,-1076.7316494124718,224722.82257266022,-224716.33252459476,224803.0123812396,-224824.1921863954,4116.542832315855,-4116.501345334246,4122.337447407951,-4117.312320345575
17.403156518936157,0.23015984892845154,2.7781479358673096,-8.731074333190918,-0.0030270713453321297,0.0024063587188720703,0.0,2.7248439883216995,-9.071473544129434,0.1820756154305045,0.7695345348511372,-0.2532152244912188,0.009874022789317783,-0.6336950768831001,nan,nan,nan,nan,nan,nan,nan,nan,nan,nan
17.41306757926941,0.22901169955730438,2.780759572982788,-8.71569538116455,-0.006448879125421679,0.0025289058685302734,0.0,2.7198181777388495,-9.04811417043987,0.17207561543050448,0.7690424254499937,-0.23939240140413465,0.12884869695186027,-0.4580576932335627,nan,nan,nan,nan,nan,nan,nan,nan,nan,nan
17.422576665878296,0.2279120236635208,2.783327102661133,-8.70033073425293,-0.009918762859451577,0.0022001266479492188,0.0,2.7152189613910296,-9.024777821607369,0.16207561543050447,0.7685570090155656,-0.22566085755770326,0.23984687239350647,-0.27309958829148917,nan,nan,nan,nan,nan,nan,nan,nan,nan,nan
17.432755708694458,0.22587276995182037,2.788306474685669,-8.669655799865723,-0.01701273881795925,0.002477407455444336,0.0,2.7110356861677776,-9.00147135921598,0.15207561543050446,0.767956334372904,-0.16932303305434038,0.3580578104910227,-0.08191333599635907,nan,nan,nan,nan,nan,nan,nan,nan,nan,nan
17.442650318145752,0.22493980824947357,2.7907071113586426,-8.654351234436035,-0.02062984463642755,0.0023145675659179688,0.0,2.707257584060504,-8.978201349260528,0.14207561543050445,0.7674555546768815,-0.16332610709513895,0.4594572641530889,0.11381972128864588,nan,nan,nan,nan,nan,nan,nan,nan,nan,nan
17.45268154144287,0.22405627369880676,2.793044090270996,-8.63914680480957,-0.024281328502487667,0.002335786819458008,0.0,2.7038737786382847,-8.954974059647629,0.13207561543050444,0.7669585562902116,-0.1615089816095876,0.5526625611502821,0.3016768802991463,nan,nan,nan,nan,nan,nan,nan,nan,nan,nan
17.46281671524048,0.22323539853096008,2.7953109741210938,-8.623967170715332,-0.027941995123098563,0.0025260448455810547,0.0,2.7008732915870977,-8.931795457847986,0.12207561543050445,0.766449776842497,-0.16384687496725447,0.6268637928051974,0.45117381620940245,nan,nan,nan,nan,nan,nan,nan,nan,nan,nan
17.62797451019287,0.22323539853096008,2.7953109741210938,-8.623967170715332,-0.027941995123098563,0.0038251876831054688,0.0,2.797443162327766,-8.60283561439656,-0.07020204665895345,0.7563380080508345,-1.0,0.6788046549636382,0.5558216713465818,nan,nan,nan,nan,nan,nan,nan,nan,nan,nan
17.63910722732544,0.22260050475597382,2.840786933898926,-8.3200101852417,-0.08400949659943996,0.0019838809967041016,0.0,2.799723130125734,-8.58178732685239,-0.08020204665895345,0.75345781599044,-0.7016486447162409,0.3684158777985561,0.515773471887458,nan,nan,nan,nan,nan,nan,nan,nan,nan,nan
17.644179105758667,0.22260050475597382,2.840786933898926,-8.3200101852417,-0.08400949659943996,0.003916501998901367,0.0,2.802139693668788,-8.560822166230228,-0.09020204665895344,0.7532719215288196,-0.7634892913254279,0.2905529451980346,0.531669273307867,nan,nan,nan,nan,nan,nan,nan,nan,nan,nan
17.65282964706421,0.22314926981925964,2.8424580097198486,-8.295369148254395,-0.08620626976268322,0.002111196517944336,0.0,2.804681705541494,-8.539939671454057,-0.10020204665895344,0.7528732441036291,-0.7999250656114273,0.22806378898519655,0.5207620165236355,nan,nan,nan,nan,nan,nan,nan,nan,nan,nan
17.663050651550293,0.2234129160642624,2.843156099319458,-8.28305721282959,-0.08713532654872432,0.0023221969604492188,0.0,2.8073380620725925,-8.519139063596812,-0.11020204665895343,0.7525734464827846,-0.8490642860369744,0.18523944754500843,0.49790930583534065,nan,nan,nan,nan,nan,nan,nan,nan,nan,nan
17.672497272491455,0.2239096313714981,2.8442468643188477,-8.258390426635742,-0.08866302025185523,0.001992940902709961,0.0,2.8100977106064833,-8.498419247425103,-0.12020204665895343,0.752198986291631,-0.8742696352548762,0.1205124770733213,0.4553169674806111,nan,nan,nan,nan,nan,nan,nan,nan,nan,nan
17.682773113250732,0.22413048148155212,2.844655990600586,-8.2460355758667,-0.08922939517304705,0.002163410186767578,0.0,2.8129496567286902,-8.477778813114234,-0.13020204665895344,0.7519427478213407,-0.9161210674673347,0.07104331384872212,0.40700917179841806,nan,nan,nan,nan,nan,nan,nan,nan,nan,nan
17.69307780265808,0.2243279218673706,2.844973564147949,-8.233663558959961,-0.08964686900199001,0.0019960403442382812,0.0,2.8158829714412947,-8.457216038131342,-0.14020204665895344,0.751708527870455,-0.9561465269849814,0.0261511218559196,0.35428335049125237,nan,nan,nan,nan,nan,nan,nan,nan,nan,nan
17.702827215194702,0.2244989573955536,2.845198392868042,-8.22134017944336,-0.08991262319578343,0.002118349075317383,0.0,2.8188867982844252,-8.436728889284348,-0.15020204665895345,0.7514952515570951,-0.9945463848162416,-0.01575390796573281,0.2996750891819038,nan,nan,nan,nan,nan,nan,nan,nan,nan,nan
17.71295976638794,0.22464090585708618,2.8453290462493896,-8.208993911743164,-0.09004098029537924,0.0033540725708007812,0.0,2.821950360399989,-8.416315024934384,-0.16020204665895346,0.7512969065859401,-1.0,-0.054300999132095774,0.24574890104646796,nan,nan,nan,nan,nan,nan,nan,nan,nan,nan
17.88287043571472,0.22464090585708618,2.8453290462493896,-8.208993911743164,-0.09004098029537924,0.0027952194213867188,0.0,2.846062943838064,-8.190426585580113,-0.12254686459528846,0.7400745731466388,-0.9054157949467376,-0.07374384617036685,0.20417334762470307,nan,nan,nan,nan,nan,nan,nan,nan,nan,nan
17.89252519607544,0.2296137660741806,2.825979471206665,-7.941089153289795,-0.07450173432402382,0.002201557159423828,0.0,2.846852103791376,-8.17187417915004,-0.13011786992460625,0.7420710395772432,0.46676915279668396,-0.1854095346728562,0.07707969442001075,nan,nan,nan,nan,nan,nan,nan,nan,nan,nan
17.903072834014893,0.22881120443344116,2.8218748569488525,-7.9176764488220215,-0.07212633104044532,0.0027112960815429688,0.0,2.84765997287127,-8.153334671129224,-0.1363102140044429,0.7424728024619619,0.6988530998356068,-0.1855930858114687,0.037042823486460846,nan,nan,nan,nan,nan,nan,nan,nan,nan,nan
17.91286849975586,0.22881120443344116,2.8218748569488525,-7.9176764488220215,-0.07212633104044532,0.0027332305908203125,0.0,2.848453450981552,-8.134806008550525,-0.14122502416456756,0.7425314476552805,0.7754332144948446,-0.18613153322420065,0.0003282399912567283,nan,nan,nan,nan,nan,nan,nan,nan,nan,nan
17.923173189163208,0.22727303206920624,2.81412672996521,-7.882213592529297,-0.06841354744442009,0.0029463768005371094,0.0,2.849202704955197,-8.116286300573988,-0.14495989026967793,0.7431284245901092,1.0,-0.1877383401479398,-0.02179384636027487,nan,nan,nan,nan,nan,nan,nan,nan,nan,nan
17.93280005455017,0.22727303206920624,2.81412672996521,-7.882213592529297,-0.06841354744442009,0.0033071041107177734,0.0,2.849880985742388,-8.097773959330414,-0.14760872756253476,0.7431760799216711,1.0,-0.18778804545268662,-0.042804516858343904,nan,nan,nan,nan,nan,nan,nan,nan,nan,nan
17.94310212135315,0.22667069733142853,2.8110976219177246,-7.870286464691162,-0.0671452226163536,0.0035970211029052734,0.0,2.8504644507983725,-8.079267796169153,-0.14926167309700236,0.743383146009135,1.0,-0.1887303262415923,-0.054924615187576915,nan,nan,nan,nan,nan,nan,nan,nan,nan,nan
17.953184127807617,0.22602370381355286,2.807838201522827,-7.858308792114258,-0.06586591045673255,0.002741098403930664,0.0,2.850931992656837,-8.060767080821105,-0.15000501291140914,0.7436055491057362,1.0,-0.18830616770321978,-0.062021307371923066,nan,nan,nan,nan,nan,nan,nan,nan,nan,nan
17.962838888168335,0.22459854185581207,2.8006198406219482,-7.834321022033691,-0.06327351813870521,0.002450227737426758,0.0,2.8512650740991594,-8.042271570180992,-0.14992113704601448,0.7440626278175289,1.0,-0.18420355013880163,-0.06540553781019082,nan,nan,nan,nan,nan,nan,nan,nan,nan,nan
17.97267723083496,0.2238214910030365,2.796663522720337,-7.822242736816406,-0.06196071019425067,0.0024063587188720703,0.0,2.851447569943319,-8.0237815126389,-0.14908851955408067,0.7443184589563439,1.0,-0.18092137389550747,-0.06622062885099984,nan,nan,nan,nan,nan,nan,nan,nan,nan,nan
18.143385887145996,0.2238214910030365,2.796663522720337,-7.822242736816406,-0.06196071019425067,0.002416849136352539,0.0,2.795758967924122,-7.803365611543782,-0.3070145463488786,0.7425097357371009,1.0,-0.18060026085663533,-0.06582676572896294,nan,nan,nan,nan,nan,nan,nan,nan,nan,nan
18.15291976928711,0.19692343473434448,2.6408936977386475,-7.556858062744141,-0.04041943664943039,0.002336263656616211,0.0,2.7943662879740456,-7.784431366031446,-0.2970145463488786,0.7468778935543255,0.9840862860960374,-0.07298510690116405,-0.0986638239116373,nan,nan,nan,nan,nan,nan,nan,nan,nan,nan
18.16263508796692,0.19546249508857727,2.6306538581848145,-7.544763088226318,-0.039872581609192895,0.0021898746490478516,0.0,2.792492957971645,-7.765451416259534,-0.2870145463488786,0.7470619377310229,0.9770429906250439,-0.06596810173669133,-0.06477172785222587,0.027134876868128776,0.026934876868128777,3.6056192947387697,3.6054192947387693,-12.528794424438477,-12.528994424438476,0.005118612072208823,0.004918612072208822,0.05201924795508385,0.051819247955083844
18.172664403915405,0.19249071180820465,2.6099424362182617,-7.5204668045043945,-0.038885742510958866,0.002170085906982422,0.0,2.7901466997952515,-7.746436927715579,-0.27701454634887857,0.7473823572740713,0.9506392390668212,-0.04848433955568803,-0.04568849951022868,1075.4585412586691,-1076.7316494124718,224722.82257266022,-224716.33252459476,224803.0123812396,-224824.1921863954,4116.542832315855,-4116.501345334246,4122.337447407951,-4117.312320345575
18.182934045791626,0.1909862458705902,2.5994796752929688,-7.5082688331604,-0.03844917902976557,0.002402782440185547,0.0,2.7873354761266906,-7.727398809543027,-0.26701454634887856,0.7475501311541569,0.9422261064614376,-0.03775437466885553,-0.028332133817383018,nan,nan,nan,nan,nan,nan,nan,nan,nan,nan
18.192760467529297,0.18947124481201172,2.588951349258423,-7.4960408210754395,-0.03805592925652119,0.0022745132446289062,0.0,2.7840674843250386,-7.708347708862303,-0.25701454634887855,0.7476978957383174,0.9337133335066804,-0.02801055597561189,-0.015150823315988647,nan,nan,nan,nan,nan,nan,nan,nan,nan,nan
18.2032413482666,0.1879471242427826,2.578362226486206,-7.4837870597839355,-0.03771436919660972,0.0023260116577148438,0.0,2.780351150152725,-7.689294005268556,-0.24701454634887854,0.747830167243703,0.9251047861366049,-0.019551147644945307,-0.004573167390848926,nan,nan,nan,nan,nan,nan,nan,nan,nan,nan
18.21272373199463,0.18487617373466492,2.5570220947265625,-7.459280490875244,-0.03717228133700195,0.004344463348388672,0.0,2.776195121359386,-7.670247805509977,-0.23701454634887853,0.7480550150328669,0.8927340023714252,-0.008627228861282282,0.0030794563188132926,nan,nan,nan,nan,nan,nan,nan,nan,nan,nan
18.222429037094116,0.1833314150571823,2.5462806224823,-7.447030067443848,-0.03695811832183819,0.0020825862884521484,0.0,2.771608261129012,-7.651218938350339,-0.22701454634887852,0.7481587554345605,0.8835718374389179,-0.0029261338556518207,0.01201782954948454,nan,nan,nan,nan,nan,nan,nan,nan,nan,nan
18.23302149772644,0.18178167939186096,2.5354979038238525,-7.4347615242004395,-0.03676892161663055,0.0025212764739990234,0.0,2.766599641396021,-7.632216949619168,-0.2170145463488785,0.7482538383683407,0.87455899987022,0.002193860749617963,0.018818031437543847,nan,nan,nan,nan,nan,nan,nan,nan,nan,nan
18.400272846221924,0.18178167939186096,2.5354979038238525,-7.4347615242004395,-0.03676892161663055,0.0025594234466552734,0.0,2.5247373246461953,-7.416662478114782,-0.06991975988947985,0.7493515640623789,1.0,0.0041139148461627455,0.025050480871995434,nan,nan,nan,nan,nan,nan,nan,nan,nan,nan
18.40722417831421,0.15159668028354645,2.2932372093200684,-7.188268184661865,-0.034601802395371,0.0021486282348632812,0.0,2.5137149753836585,-7.398712535535224,-0.05991975988947985,0.7508832147398468,0.37594185190541674,0.019810409000159124,0.016923508526772137,nan,nan,nan,nan,nan,nan,nan,nan,nan,nan
18.41349458694458,0.14856095612049103,2.270397424697876,-7.164411544799805,-0.034421723948028934,0.003179788589477539,0.0,2.5024425196270474,-7.380915893683917,-0.049919759889479845,0.7509823138158571,0.33034020442977763,0.01758196614762908,0.031220116546053747,nan,nan,nan,nan,nan,nan,nan,nan,nan,nan
18.422523498535156,0.14704389870166779,2.2591090202331543,-7.152499198913574,-0.03433215036376923,0.002058267593383789,0.0,2.4909316929420537,-7.363276411830161,-0.03991975988947984,0.7509825699050172,0.32409454412771055,0.02123346170864788,0.03715541451556687,nan,nan,nan,nan,nan,nan,nan,nan,nan,nan
18.432782888412476,0.14552755653858185,2.2479138374328613,-7.140574932098389,-0.034243569942850785,0.0023086071014404297,0.0,2.4791942948726837,-7.345797610245097,-0.02991975988947984,0.750982813550316,0.31806522165752127,0.023621325440629372,0.042201580728976375,nan,nan,nan,nan,nan,nan,nan,nan,nan,nan
18.442747831344604,0.14250104129314423,2.2258200645446777,-7.116700649261475,-0.03406060990490964,0.002220630645751953,0.0,2.4672421809323697,-7.328482669361659,-0.01991975988947984,0.7510327561626299,0.27032989076411107,0.025491581123056845,0.04590931921526187,nan,nan,nan,nan,nan,nan,nan,nan,nan,nan
18.45308518409729,0.14099182188510895,2.2149314880371094,-7.1047587394714355,-0.03395742587253637,0.002794981002807617,0.0,2.4550872545882916,-7.3113344291387685,-0.009919759889479839,0.7509902912215495,0.2679966530191483,0.026748192874030324,0.04928492797338906,nan,nan,nan,nan,nan,nan,nan,nan,nan,nan
18.462923526763916,0.13948486745357513,2.204155206680298,-7.092884063720703,-0.033846362868431665,0.002110719680786133,0.0,2.442741459244364,-7.294355388628628,8.024011052016125e-05,0.750952144097062,0.268870966359128,0.02767355828682707,0.051671446694585205,nan,nan,nan,nan,nan,nan,nan,nan,nan,nan
18.47254467010498,0.13798020780086517,2.1934947967529297,-7.0810041427612305,-0.03372749746892973,0.001959562301635742,0.0,2.4302167702282564,-7.277547705745767,0.010080240110520161,0.7509197340758249,0.27303510611143056,0.02816145728695811,0.05334274607114238,nan,nan,nan,nan,nan,nan,nan,nan,nan,nan
18.482985019683838,0.13497847318649292,2.172532796859741,-7.05722713470459,-0.03346613796128603,0.0026636123657226562,0.0,2.4175251867877248,-7.260913197236385,0.02008024011052016,0.7509859049739815,0.24752951860953254,0.02767070479315385,0.05437546138162032,nan,nan,nan,nan,nan,nan,nan,nan,nan,nan
18.492563247680664,0.1334817111492157,2.1622366905212402,-7.04533052444458,-0.03332487519732648,0.001894235610961914,0.0,2.404678724101456,-7.2444533388463705,0.030080240110520164,0.7509626936360162,0.25938216637542055,0.027242412329539615,0.054922036617360614,nan,nan,nan,nan,nan,nan,nan,nan,nan,nan
18.66680097579956,0.1334817111492157,2.1622366905212402,-7.04533052444458,-0.03332487519732648,0.002515077590942383,0.0,2.1486562486267706,-7.031334675550017,0.1751606378733246,0.7489832942438238,1.0,0.02729777280396207,0.054726717241442686,nan,nan,nan,nan,nan,nan,nan,nan,nan,nan
18.673736572265625,0.10041756927967072,1.9657390117645264,-6.808971405029297,-0.02855512756479474,0.002131223678588867,0.0,2.1351030756622467,-7.017491260872923,0.1851606378733246,0.7509109329924608,0.46587669728295844,0.0124566144594118,0.04005654112337254,nan,nan,nan,nan,nan,nan,nan,nan,nan,nan
18.682647228240967,0.09847329556941986,1.9531570672988892,-6.787956237792969,-0.027989151043445903,0.0027587413787841797,0.0,2.12158830476817,-7.00379634135614,0.1951606378733246,0.7510010995238606,0.470168264295288,-0.0002923750683570226,0.03826326359423613,nan,nan,nan,nan,nan,nan,nan,nan,nan,nan
18.693492650985718,0.09749320149421692,1.9470821619033813,-6.777393341064453,-0.02769923880719359,0.002687215805053711,0.0,2.1081229529132752,-6.990245669618677,0.20516063787332461,0.7509788070426283,0.5059899059237329,-0.003392992217433145,0.026419808269327334,nan,nan,nan,nan,nan,nan,nan,nan,nan,nan
18.702553749084473,0.09650807827711105,1.9411535263061523,-6.766798973083496,-0.027405748384140532,0.0020401477813720703,0.0,2.0947179139682657,-6.976834693365178,0.21516063787332462,0.7509358037861674,0.5413809091858613,-0.009661646654829674,0.0211450421264558,nan,nan,nan,nan,nan,nan,nan,nan,nan,nan
18.7125506401062,0.09551821649074554,1.935373306274414,-6.75623893737793,-0.027116048759254413,0.0022284984588623047,0.0,2.0813839518733834,-6.963558558942165,0.22516063787332463,0.7508970296008932,0.5759267210724782,-0.013339572937566479,0.014215038850498055,nan,nan,nan,nan,nan,nan,nan,nan,nan,nan
18.722684621810913,0.09352558106184006,1.924263834953308,-6.735026836395264,-0.026564990406169914,0.0024564266204833984,0.0,2.068131693902659,-6.950412115037694,0.23419321579516197,0.75096856536336,0.47393809613213667,-0.017668387222098576,0.009628430343399701,nan,nan,nan,nan,nan,nan,nan,nan,nan,nan
18.733785152435303,0.09252330660820007,1.9189386367797852,-6.7243757247924805,-0.026309298164106487,0.002652883529663086,0.0,2.054984228146243,-6.937377191274655,0.24130438010477467,0.7509477301931792,0.30884420908778537,-0.02062176973824765,0.005307749907710216,nan,nan,nan,nan,nan,nan,nan,nan,nan,nan
18.742536783218384,0.09151730686426163,1.9137691259384155,-6.713695049285889,-0.026069985792461198,0.0020596981048583984,0.0,2.0419756438611683,-6.924423476075954,0.24664231563765054,0.7509347852904874,0.1481777454861149,-0.023085504945263322,0.0020282321114221337,nan,nan,nan,nan,nan,nan,nan,nan,nan,nan
18.910602807998657,0.09151730686426163,1.9137691259384155,-6.713695049285889,-0.026069985792461198,0.0028009414672851562,0.0,1.904122852433125,-6.700402759761038,0.23626806373828022,0.7505482281515108,-1.0,-0.025151270074079628,-0.0006552205328557729,nan,nan,nan,nan,nan,nan,nan,nan,nan,nan
18.91804552078247,0.07355466485023499,1.8587583303451538,-6.496279239654541,-0.023425805143615086,0.002235889434814453,0.0,1.8948536490301366,-6.687005449173034,0.2262680637382802,0.7533069799726253,-1.0,-0.008254437184399476,-0.002424419474774435,nan,nan,nan,nan,nan,nan,nan,nan,nan,nan
18.923391819000244,0.07355466485023499,1.8587583303451538,-6.496279239654541,-0.023425805143615086,0.002119779586791992,0.0,1.8859533086407012,-6.673511296125953,0.2162680637382802,0.753146043202095,-1.0,-0.0036701018570937695,0.003487055482317757,nan,nan,nan,nan,nan,nan,nan,nan,nan,nan
18.932831525802612,0.07168608903884888,1.8584473133087158,-6.465986728668213,-0.02328260186296388,0.002658843994140625,0.0,1.877413459173143,-6.659928222816234,0.2062680637382802,0.7534474020216402,-1.0,0.004113314668562725,0.010408035255859205,0.027134876868128776,0.026934876868128777,3.6056192947387697,3.6054192947387693,-12.528794424438477,-12.528994424438476,0.005118612072208823,0.004918612072208822,0.05201924795508385,0.051819247955083844
18.943172216415405,0.07168608903884888,1.8584473133087158,-6.465986728668213,-0.02328260186296388,0.0026445388793945312,0.0,1.8692255693381319,-6.646263891090537,0.19626806373828018,0.7532907144656634,-1.0,0.0098023448893516,0.019584818928510554,1075.4585412586691,-1076.7316494124718,224722.82257266022,-224716.33252459476,224803.0123812396,-224824.1921863954,4116.542832315855,-4116.501345334246,4122.337447407951,-4117.312320345575
18.953235626220703,0.07039447873830795,1.8590821027755737,-6.445582389831543,-0.02319992797048795,0.002254486083984375,0.0,1.8613809545572857,-6.632525698648772,0.18626806373828017,0.7533310277033524,-1.0,0.018324341361054087,0.029889893706962826,nan,nan,nan,nan,nan,nan,nan,nan,nan,nan
18.9627046585083,0.07039447873830795,1.8590821027755737,-6.445582389831543,-0.02319992797048795,0.0028541088104248047,0.0,1.8538707829713093,-6.618720775395686,0.17626806373828016,0.7531780441151045,-1.0,0.025865950951148138,0.042262487783097664,nan,nan,nan,nan,nan,nan,nan,nan,nan,nan
18.972583055496216,0.06842989474534988,1.8613355159759521,-6.414927959442139,-0.023041327578327137,0.0022776126861572266,0.0,1.8466860815437494,-6.604855979944205,0.16626806373828015,0.7533201905082771,-1.0,0.036864009166796406,0.056286132117822796,nan,nan,nan,nan,nan,nan,nan,nan,nan,nan
18.98316764831543,0.06842989474534988,1.8613355159759521,-6.414927959442139,-0.023041327578327137,0.0026187896728515625,0.0,1.8398177422563182,-6.590937896273539,0.15626806373828014,0.7531704962585383,-1.0,0.046909044199814974,0.07290290397292297,nan,nan,nan,nan,nan,nan,nan,nan,nan,nan
18.992847442626953,0.06710640341043472,1.8636869192123413,-6.394339561462402,-0.02287867860638601,0.002593994140625,0.0,1.8332565283916302,-6.5769728305448805,0.14626806373828014,0.7532227154296438,-1.0,0.05854704390862532,0.09137140549805636,nan,nan,nan,nan,nan,nan,nan,nan,nan,nan
19.17579984664917,0.06710640341043472,1.8636869192123413,-6.394339561462402,-0.02287867860638601,0.0021371841430664062,0.0,1.8604389596902653,-6.379913813024385,0.2673104805611711,0.7550678510258618,-1.0,0.07066655251110517,0.11194185649979178,nan,nan,nan,nan,nan,nan,nan,nan,nan,nan
19.184032678604126,0.04838373884558678,1.9529544115066528,-6.1527276039123535,-0.016209181165685767,0.0025453567504882812,0.0,1.8576100532489572,-6.365442765137531,0.2573104805611711,0.7564674430392336,-0.6159003616277171,0.03283457758580957,0.10972405262181782,nan,nan,nan,nan,nan,nan,nan,nan,nan,nan
19.19297957420349,0.0475943498313427,1.9586583375930786,-6.1425042152404785,-0.015792156844909873,0.0025742053985595703,0.0,1.8551915289388274,-6.350935415268387,0.2473104805611711,0.7562734989912949,-0.6039443349250447,0.02359471426318149,0.10335444826365868,nan,nan,nan,nan,nan,nan,nan,nan,nan,nan
19.202845811843872,0.04680049791932106,1.9643700122833252,-6.132280349731445,-0.015370116237410521,0.0020570755004882812,0.0,1.8531745346409803,-6.336400501166247,0.2373104805611711,0.7560800795975628,-0.5918833942527927,0.01694265131622668,0.09468950721971578,nan,nan,nan,nan,nan,nan,nan,nan,nan,nan
19.212687730789185,0.046001795679330826,1.9700846672058105,-6.12205696105957,-0.01493982934417024,0.0023508071899414062,0.0,1.851550042887768,-6.321846496670992,0.2273104805611711,0.7558839398203985,-0.5797650754782409,0.01017422576172518,0.08496737981374916,nan,nan,nan,nan,nan,nan,nan,nan,nan,nan
19.222626209259033,0.04519778862595558,1.9757976531982422,-6.111837387084961,-0.01450311556363695,0.0021092891693115234,0.0,1.850308856789532,-6.307281607662341,0.21731048056117108,0.7556714879370581,-0.5679662769850038,0.0032529965101038144,0.0744618483144113,nan,nan,nan,nan,nan,nan,nan,nan,nan,nan
19.233158349990845,0.04353867098689079,1.9871844053268433,-6.0915632247924805,-0.013602969098882445,0.0029816627502441406,0.0,1.8494416160640137,-6.292713768154055,0.20731048056117107,0.7554179503544645,-0.5241623978425998,-0.00584864880265277,0.06280709075437348,nan,nan,nan,nan,nan,nan,nan,nan,nan,nan
19.24266290664673,0.042700354009866714,1.9928562641143799,-6.0814409255981445,-0.01314458160633345,0.0024118423461914062,0.0,1.8489388031647767,-6.278150636536451,0.19731048056117106,0.7551894589834799,-0.5163448592764814,-0.012673687930976023,0.05046734613048654,nan,nan,nan,nan,nan,nan,nan,nan,nan,nan
19.25325322151184,0.04100526124238968,2.0041348934173584,-6.0612263679504395,-0.012219738661081529,0.0031147003173828125,0.0,1.8487907495048503,-6.263599591970396,0.18731048056117106,0.754952486822448,-0.48082513480423406,-0.020203822080806448,0.038058293970635655,nan,nan,nan,nan,nan,nan,nan,nan,nan,nan
19.427956581115723,0.04100526124238968,2.0041348934173584,-6.0612263679504395,-0.012219738661081529,0.002715587615966797,0.0,2.0086997886822067,-6.0475062130588855,0.006782482407092718,0.7531221036657807,-1.0,-0.024819364966997732,0.02612491328693414,nan,nan,nan,nan,nan,nan,nan,nan,nan,nan
19.435440063476562,0.016065295785665512,2.1447315216064453,-5.865653991699219,-0.0022754038852159097,0.0020494461059570312,0.0,2.0134184941977358,-6.033888819663246,-0.003217517592907282,0.7523900501488342,-0.4990659115463626,-0.02689098306950772,0.014818881798967698,nan,nan,nan,nan,nan,nan,nan,nan,nan,nan
19.44379472732544,0.015236194245517254,2.1501858234405518,-5.85692024230957,-0.0018520069841686734,0.00318145751953125,0.0,2.0182796059758363,-6.020375347042925,-0.013217517592907282,0.7521712261639226,-0.5192724335610661,-0.027146986378970374,0.0058084842750944195,nan,nan,nan,nan,nan,nan,nan,nan,nan,nan
19.452576875686646,0.013557378202676773,2.1607625484466553,-5.839426517486572,-0.0010114873590163706,0.0021483898162841797,0.0,2.023271718468705,-6.006966639424208,-0.023217517592907282,0.7519543352809878,-0.5109073385501564,-0.027315919644024522,-0.0009230181672323517,nan,nan,nan,nan,nan,nan,nan,nan,nan,nan
19.742113828659058,0.013557378202676773,2.1607625484466553,-5.839426517486572,-0.0010114873590163706,0.002342700958251953,0.0,2.165976199411733,-5.827398287888623,-0.11573013771001063,0.7477292530058512,-1.0,-0.02856867529355163,-0.006367932698898773,nan,nan,nan,nan,nan,nan,nan,nan,nan,nan
19.74935817718506,-0.015612046234309673,2.2658965587615967,-5.542829513549805,0.009420036284571442,0.002763509750366211,0.0,2.1712022603217886,-5.815452273699685,-0.12573013771001063,0.7494045180783605,0.445210474787908,0.010430572076414592,0.023617481511429977,nan,nan,nan,nan,nan,nan,nan,nan,nan,nan
19.756062269210815,-0.015612046234309673,2.2658965587615967,-5.542829513549805,0.009420036284571442,0.0026390552520751953,0.0,2.1764299833871226,-5.803586031427903,-0.13573013771001063,0.7492688775171039,0.37976981784908825,0.005467582784741894,0.014103129603110245,nan,nan,nan,nan,nan,nan,nan,nan,nan,nan
19.76383113861084,-0.016895588487386703,2.2657358646392822,-5.527561664581299,0.009776926533906244,0.004513263702392578,0.0,2.1816486988202257,-5.791796813869565,-0.14573013771001064,0.7493249842388118,0.4199367212624634,0.006557631039846703,0.007034943527170227,nan,nan,nan,nan,nan,nan,nan,nan,nan,nan
19.772743225097656,-0.016895588487386703,2.2657358646392822,-5.527561664581299,0.009776926533906244,0.002962827682495117,0.0,2.1868478217232608,-5.78008157231401,-0.15573013771001065,0.749191101133695,0.3516552742889747,0.0067077356286076835,0.002097625095793223,nan,nan,nan,nan,nan,nan,nan,nan,nan,nan
19.78269910812378,-0.018599120900034904,2.264082670211792,-5.5054755210876465,0.010281890404478189,0.0024805068969726562,0.0,2.1920168589160003,-5.768436958905541,-0.16573013771001066,0.7492776253113554,0.44317269745508536,0.009318569349667348,-0.0014527945261058927,nan,nan,nan,nan,nan,nan,nan,nan,nan,nan
19.792500734329224,-0.01917082816362381,2.2631115913391113,-5.498034954071045,0.010429748901408353,0.0020704269409179688,0.0,2.1971454157006893,-5.756859329159929,-0.17573013771001067,0.7492102171750351,0.42054900839387965,0.010270611360110935,-0.003947062617904549,nan,nan,nan,nan,nan,nan,nan,nan,nan,nan
19.80292797088623,-0.019744910299777985,2.2619266510009766,-5.490555763244629,0.010561582177105816,0.0022165775299072266,0.0,2.2022232025603987,-5.745344744633005,-0.18573013771001068,0.7491607320693279,0.3920800665592814,0.010813939952891092,-0.005822778467143442,nan,nan,nan,nan,nan,nan,nan,nan,nan,nan
19.813114643096924,-0.020899439230561256,2.2589149475097656,-5.475480079650879,0.01078118259536312,0.003583669662475586,0.0,2.207240041787534,-5.733888975738774,-0.1957301377100107,0.7492217153856382,0.39386633469183074,0.01118006194306358,-0.007364048717751637,nan,nan,nan,nan,nan,nan,nan,nan,nan,nan
19.822640419006348,-0.02147933840751648,2.2570900917053223,-5.467947483062744,0.010874767375057132,0.002062082290649414,0.0,2.2121858740392724,-5.722487504714416,-0.2057301377100107,0.749194400411378,0.35093227694697826,0.011199615539942098,-0.008537191333324994,nan,nan,nan,nan,nan,nan,nan,nan,nan,nan
19.833038091659546,-0.022060774266719818,2.255053758621216,-5.46037483215332,0.010958444578146875,0.0025014877319335938,0.0,2.2170507648167996,-5.711135528729491,-0.2157301377100107,0.7491700684048561,0.303598593125324,0.011095571684384634,-0.009540675388198843,nan,nan,nan,nan,nan,nan,nan,nan,nan,nan
20.005252361297607,-0.022060774266719818,2.255053758621216,-5.46037483215332,0.010958444578146875,0.002279043197631836,0.0,2.2545733055641253,-5.448319395211767,-0.2753121362255111,0.7477313678229931,1.0,0.011040832344008971,-0.010342426614882556,0.027134876868128776,0.026934876868128777,3.6056192947387697,3.6054192947387693,-12.528794424438477,-12.528994424438476,0.005118612072208823,0.004918612072208822,0.05201924795508385,0.051819247955083844
20.012972593307495,-0.03353990986943245,2.1598899364471436,-5.299346446990967,0.011201169914236572,0.0023756027221679688,0.0,2.2536957791894228,-5.436233071906336,-0.2653121362255111,0.749749169642837,1.0,-0.0012508671365256665,-0.007334930275451695,1075.4585412586691,-1076.7316494124718,224722.82257266022,-224716.33252459476,224803.0123812396,-224824.1921863954,4116.542832315855,-4116.501345334246,4122.337447407951,-4117.312320345575
20.022510290145874,-0.03452925756573677,2.137263059616089,-5.275636672973633,0.011065968758892625,0.0020542144775390625,0.0,2.2524296473511143,-5.424125026716876,-0.2553121362255111,0.7498963242610299,1.0,-0.002485955880728009,-0.009026454867498607,nan,nan,nan,nan,nan,nan,nan,nan,nan,nan
20.03289771080017,-0.03452925756573677,2.137263059616089,-5.275636672973633,0.011065968758892625,0.002258777618408203,0.0,2.2507835704903165,-5.412004165582139,-0.24531213622551107,0.7497715072071585,1.0,-0.002476125912465129,-0.010494787078637574,nan,nan,nan,nan,nan,nan,nan,nan,nan,nan
20.04246163368225,-0.035209059715270996,2.12150239944458,-5.259820461273193,0.010959337974612099,0.0037975311279296875,0.0,2.248766395734669,-5.39987913138248,-0.23531213622551106,0.7480060170963877,1.0,-0.0037450798739652492,-0.011190597601409287,nan,nan,nan,nan,nan,nan,nan,nan,nan,nan
20.052525758743286,-0.035209059715270996,2.12150239944458,-5.259820461273193,0.010959337974612099,0.0023412704467773438,0.0,2.2463871508822724,-5.387758299573672,-0.22531213622551105,0.7479589008704824,1.0,-0.0037137748184621336,-0.012047747839886474,nan,nan,nan,nan,nan,nan,nan,nan,nan,nan
20.062650680541992,-0.03624911233782768,2.0968620777130127,-5.23600959777832,0.010802679211075583,0.002643585205078125,0.0,2.2436550382741967,-5.375649773975354,-0.21531213622551104,0.7477798903401376,1.0,-0.00542208508966793,-0.012215048410511879,nan,nan,nan,nan,nan,nan,nan,nan,nan,nan
20.072668075561523,-0.03624911233782768,2.0968620777130127,-5.23600959777832,0.010802679211075583,0.0024170875549316406,0.0,2.240579428559724,-5.363561382717478,-0.20531213622551103,0.7477320227419746,1.0,-0.0053439206976233795,-0.01292011884095673,nan,nan,nan,nan,nan,nan,nan,nan,nan,nan
20.082846641540527,-0.03694986552000046,2.079793930053711,-5.2202229499816895,0.010713019617139746,0.002584695816040039,0.0,2.2371698543586245,-5.351500674347906,-0.19531213622551102,0.7476124825852022,1.0,-0.006019005450270743,-0.013150832507870342,nan,nan,nan,nan,nan,nan,nan,nan,nan,nan
20.280045986175537,-0.03694986552000046,2.079793930053711,-5.2202229499816895,0.010713019617139746,0.004254579544067383,0.0,2.0720325660516563,-5.207550809443969,-0.17931920587293512,0.7600899372038772,1.0,-0.00610314979409858,-0.013526054260857763,nan,nan,nan,nan,nan,nan,nan,nan,nan,nan
20.28951930999756,-0.04872957244515419,1.8230433464050293,-5.045675754547119,0.00902951482332704,0.002172708511352539,0.0,2.0639500518412786,-5.19499703438344,-0.1693192058729351,0.7581013082059235,0.49452036006681277,-0.010254400158502729,-0.010103569019977983,nan,nan,nan,nan,nan,nan,nan,nan,nan,nan
20.294607639312744,-0.04872957244515419,1.8230433464050293,-5.045675754547119,0.00902951482332704,0.0023851394653320312,0.0,2.055557709446393,-5.182567176053461,-0.1593192058729351,0.7577549375324872,0.509907755466281,-0.008969146021278322,-0.012735545111386382,nan,nan,nan,nan,nan,nan,nan,nan,nan,nan
20.30273723602295,-0.04924895986914635,1.800566554069519,-5.0340895652771,0.008842264906630846,0.002132892608642578,0.0,2.04686695678749,-5.170266493803525,-0.1493192058729351,0.7572385216964475,0.45274101449164017,-0.009392535482656538,-0.013540780572064906,nan,nan,nan,nan,nan,nan,nan,nan,nan,nan
20.31283664703369,-0.04951402544975281,1.7893935441970825,-5.028234481811523,0.008746247469500961,0.002866983413696289,0.0,2.0378893014806923,-5.158099953032691,-0.1393192058729351,0.756818010890332,0.4320407358942502,-0.009537557756039327,-0.014269446552812818,nan,nan,nan,nan,nan,nan,nan,nan,nan,nan
20.32262945175171,-0.04978248104453087,1.778271198272705,-5.022345066070557,0.00864745604522664,0.0021092891693115234,0.0,2.0286363345868703,-5.146072223278217,-0.12931920587293508,0.7563707756382178,0.41147242125882244,-0.00962591822206365,-0.014761355330882615,nan,nan,nan,nan,nan,nan,nan,nan,nan,nan
20.332826614379883,-0.050054073333740234,1.7672057151794434,-5.016489028930664,0.008549088966040057,0.002319812774658203,0.0,2.0191197243139434,-5.134187676441291,-0.11931920587293508,0.7558989276277035,0.3919125574349518,-0.009668917022272811,-0.01509331106384557,nan,nan,nan,nan,nan,nan,nan,nan,nan,nan
20.342661142349243,-0.050606079399585724,1.7452679872512817,-5.004713535308838,0.008347394670643174,0.0023546218872070312,0.0,2.0093512096754615,-5.122450385151644,-0.10931920587293509,0.7552642342914809,0.33701033809812375,-0.009683440200266622,-0.01526385432662322,nan,nan,nan,nan,nan,nan,nan,nan,nan,nan
20.517354488372803,-0.050606079399585724,1.7452679872512817,-5.004713535308838,0.008347394670643174,0.0023949146270751953,0.0,1.7327727733187783,-4.995743311904551,0.08810768534811542,0.7528320433857648,1.0,-0.009808744105296358,-0.015470269493778522,nan,nan,nan,nan,nan,nan,nan,nan,nan,nan
20.523838758468628,-0.050900254398584366,1.518129825592041,-4.882506370544434,0.005531956333843971,0.0021321773529052734,0.0,1.7202695927077758,-4.986947128523705,0.09810768534811541,0.7503212012701682,0.4711081624219685,3.792334335184352e-05,-0.015598144572983773,nan,nan,nan,nan,nan,nan,nan,nan,nan,nan
20.53278112411499,-0.050812963396310806,1.508876919746399,-4.876803398132324,0.005384765400751432,0.002412557601928711,0.0,1.7077702904449483,-4.9783222367342095,0.1081076853481154,0.7500092473877917,0.498357064956207,0.0005499766954536868,-0.009506248520291184,nan,nan,nan,nan,nan,nan,nan,nan,nan,nan
20.54257321357727,-0.050659798085689545,1.4907844066619873,-4.8653459548950195,0.005090234275065511,0.002079486846923828,0.0,1.6952866278751297,-4.969865594077097,0.1181076853481154,0.7496466176257174,0.49944890945130094,0.0036051717172586885,-0.007103162397557709,nan,nan,nan,nan,nan,nan,nan,nan,nan,nan
20.552812099456787,-0.05059310421347618,1.481947660446167,-4.859597682952881,0.004941859808899343,0.0021774768829345703,0.0,1.6828302764676553,-4.961573865931174,0.1281076853481154,0.749327910698122,0.525990472143126,0.004919504340171067,-0.003890720022994516,nan,nan,nan,nan,nan,nan,nan,nan,nan,nan
20.562763452529907,-0.050546929240226746,1.4732502698898315,-4.8538384437561035,0.004792364875760166,0.0022525787353515625,0.0,1.670412811661502,-4.953443427512449,0.1381076853481154,0.749029873478859,0.5516165242614107,0.006531916630367653,-0.0018524299336179504,nan,nan,nan,nan,nan,nan,nan,nan,nan,nan
20.572850942611694,-0.05050673708319664,1.4646961688995361,-4.848066329956055,0.004647571580155302,0.0022172927856445312,0.0,1.6580457067522623,-4.945470366007153,0.14810768534811541,0.7487510132735009,0.5768453687212378,0.0077031844352131885,5.509153123418306e-05,nan,nan,nan,nan,nan,nan,nan,nan,nan,nan
20.582876920700073,-0.050443440675735474,1.448026418685913,-4.836604595184326,0.0043727906401081346,0.002363443374633789,0.0,1.6457403268239363,-4.937650482837074,0.15810768534811542,0.7484713403631413,0.5652083921662898,0.009057339997956325,0.0014843116932062221,nan,nan,nan,nan,nan,nan,nan,nan,nan,nan
20.592491626739502,-0.05042002722620964,1.4399147033691406,-4.830847263336182,0.004242186074846374,0.0020198822021484375,0.0,1.6335079227284839,-4.929979296055806,0.16810768534811543,0.74824053059716,0.5902351698466011,0.009777305785669863,0.0030472333686651794,nan,nan,nan,nan,nan,nan,nan,nan,nan,nan
20.603004217147827,-0.0504019595682621,1.4319546222686768,-4.825071334838867,0.004117771482044855,0.002434968948364258,0.0,1.6213596251160147,-4.92245204287448,0.17810768534811544,0.748026946154428,0.616052540539007,0.0105274717598349,0.004025365601846742,nan,nan,nan,nan,nan,nan,nan,nan,nan,nan
20.77831721305847,-0.0504019595682621,1.4319546222686768,-4.825071334838867,0.004117771482044855,0.0030298233032226562,0.0,1.422196253642146,-4.818260585756864,0.20440608469612698,0.7441417137941803,-0.116335026948444,0.010820039832061203,0.0049065802753169,nan,nan,nan,nan,nan,nan,nan,nan,nan,nan
20.785951614379883,-0.05273577570915222,1.3095837831497192,-4.711700439453125,0.002539779350842042,0.002293109893798828,0.0,1.4126482271682381,-4.811428802324914,0.2024126387074618,0.7457608845113541,-1.0,0.006196227289762423,0.009151200373663994,nan,nan,nan,nan,nan,nan,nan,nan,nan,nan
20.79248595237732,-0.052936337888240814,1.306727409362793,-4.707012176513672,0.002518778460469634,0.002130270004272461,0.0,1.4033151114651747,-4.804568628350878,0.19967608629337788,0.7457868282162037,-1.0,0.007024408993142198,0.008610485588974308,nan,nan,nan,nan,nan,nan,nan,nan,nan,nan
20.80278754234314,-0.05334291234612465,1.3016011714935303,-4.69744873046875,0.00248285411034585,0.0022656917572021484,0.0,1.394200165981,-4.797674205914307,0.196278942179515,0.7459801922072932,-1.0,0.006206848801985546,0.008640571189295017,nan,nan,nan,nan,nan,nan,nan,nan,nan,nan
20.812639236450195,-0.05354898422956467,1.299338936805725,-4.692575931549072,0.0024661129238655877,0.002856016159057617,0.0,1.3853054510879526,-4.790741038567961,0.19229926174009665,0.7460169929709682,-1.0,0.005716182080452172,0.008398458607660158,0.027134876868128776,0.026934876868128777,3.6056192947387697,3.6054192947387693,-12.528794424438477,-12.528994424438476,0.005118612072208823,0.004918612072208822,0.05201924795508385,0.051819247955083844
20.822580099105835,-0.05396635830402374,1.2954415082931519,-4.682674407958984,0.0024463468769624352,0.002749204635620117,0.0,1.3766319278527024,-4.78376585457688,0.18781067777160892,0.7461403085337125,-1.0,0.004728711458544939,0.008104449852243498,1075.4585412586691,-1076.7316494124718,224722.82257266022,-224716.33252459476,224803.0123812396,-224824.1921863954,4116.542832315855,-4116.501345334246,4122.337447407951,-4117.312320345575
20.8332040309906,-0.0541776679456234,1.293815016746521,-4.677713871002197,0.0024397934216887074,0.0037708282470703125,0.0,1.368179549492332,-4.776746472573675,0.18288245607821008,0.746156329173604,-1.0,0.003979011276016559,0.007470208796446181,nan,nan,nan,nan,nan,nan,nan,nan,nan,nan
20.84241485595703,-0.05441448092460632,1.2924062013626099,-4.672704219818115,0.0024346379489680603,0.0018515586853027344,0.0,1.359947346172642,-4.769681671524462,0.17757956739477956,0.7461952863018905,-1.0,0.0030974486842745607,0.006658694684004167,nan,nan,nan,nan,nan,nan,nan,nan,nan,nan
20.852691650390625,-0.05465297773480415,1.2912124395370483,-4.667644023895264,0.002429435135327007,0.0019690990447998047,0.0,1.3519335044765,-4.762571066481595,0.17196277342773122,0.7462457149084126,-1.0,0.0021120586545547355,0.005637000260599723,nan,nan,nan,nan,nan,nan,nan,nan,nan,nan
20.862954139709473,-0.055134695023298264,1.2894643545150757,-4.657374858856201,0.002414578409768886,0.0026090145111083984,0.0,1.3441354425731384,-4.755414991237976,0.16608872502687266,0.746452425906828,-1.0,0.0006639426758542651,0.004392395020997047,nan,nan,nan,nan,nan,nan,nan,nan,nan,nan
21.034276008605957,-0.055134695023298264,1.2894643545150757,-4.657374858856201,0.002414578409768886,0.002544403076171875,0.0,1.2859032500056813,-4.649680789287672,0.32043063014604056,0.7480698415012923,-1.0,-0.0002741884717814819,0.0027705265363023785,nan,nan,nan,nan,nan,nan,nan,nan,nan,nan
21.042652368545532,-0.0634288638830185,1.3383580446243286,-4.549630165100098,0.0024671610784534337,0.002741098403930664,0.0,1.2827339945860503,-4.6418897611481125,0.31043063014604055,0.7503033387081048,-0.8420165851541218,-0.007431299809055998,-0.00018957944676732812,nan,nan,nan,nan,nan,nan,nan,nan,nan,nan
