time,x,y,z,yaw,ctrl_comp_time,x_ref,y_ref,z_ref,yaw_ref,throttle,roll_rate,pitch_rate,yaw_rate,save_tube_hH,save_tube_hL,save_tube_pyH,save_tube_pyL,save_tube_pzH,save_tube_pzL,save_tube_thetaH,save_tube_thetaL,save_tube_vH,save_tube_vL
15.070682525634766,-0.035082001239061356,3.827070713043213,-12.289105415344238,0.0019309452308383071,0.09383988380432129,0.0,3.8277065320634507,-12.291099670012112,-0.014563546232279219,0.1910783479629669,-1.0,-0.0046826175515187335,0.013670245746188022,0.06459132412672043,0.06439132412672043,3.827170713043213,3.8269707130432127,-12.289005415344239,-12.289205415344238,-0.004463546232279218,-0.004663546232279219,-0.19903323223590852,-0.1992332322359085
15.713213205337524,0.0025967000983655453,3.8859517574310303,-12.086606979370117,-0.0020755731075324663,0.23250818252563477,0.0,3.8277065320634507,-12.291099670012112,-0.014563546232279219,0.3849702500665758,-0.27666045504454184,0.4015891665477513,0.24956917202233164,963.656285415599,-965.0833161244382,178274.6678000338,-178267.79636632997,178345.79118531733,-178366.73280448493,3485.9760721382513,-3485.926207533354,3584.661482997305,-3579.7570783999167
15.901565074920654,0.0025967000983655453,3.8859517574310303,-12.086606979370117,-0.0020755731075324663,0.002789735794067383,0.0,3.8888387715004793,-12.071821702187526,-0.15874482071953416,0.5623639844976283,-1.0,0.3825951281965859,0.41469842041563226,nan,nan,nan,nan,nan,nan,nan,nan,nan,nan
15.912696838378906,0.04325615614652634,3.898162841796875,-10.597017288208008,-0.015470387855198442,0.003347635269165039,0.0,3.8917920859628983,-12.056655227134673,-0.16874482071953417,0.7523396860344781,1.0,-0.839935204082311,-1.6087980365256707,nan,nan,nan,nan,nan,nan,nan,nan,nan,nan
15.91876769065857,0.04325615614652634,3.898162841796875,-10.597017288208008,-0.015470387855198442,0.0030760765075683594,0.0,3.8948078722610915,-12.04111870865506,-0.17874482071953418,0.754962799448335,1.0,-0.21834599991340858,-1.3661586255679694,nan,nan,nan,nan,nan,nan,nan,nan,nan,nan
15.927279233932495,0.04528769105672836,3.8921661376953125,-10.47319221496582,-0.019089923976893186,0.0024917125701904297,0.0,3.8978820506311376,-12.025222730870054,-0.1887448207195342,0.7663031749868418,1.0,-0.17801364381032236,-0.9795604651395741,nan,nan,nan,nan,nan,nan,nan,nan,nan,nan
15.934393882751465,0.046392541378736496,3.889780044555664,-10.43036937713623,-0.020311732686070283,0.002263784408569336,0.0,3.9010103086953287,-12.008977311180004,-0.1987448207195342,0.7714842014278815,1.0,-0.17723347862187155,-0.7183035430015873,nan,nan,nan,nan,nan,nan,nan,nan,nan,nan
15.944561004638672,0.04745785519480705,3.8872499465942383,-10.387332916259766,-0.021624387086033925,0.0023758411407470703,0.0,3.904188119733695,-11.992391904272028,-0.2087448207195342,0.7736689892777414,1.0,-0.1857938800260135,-0.5385476166488868,nan,nan,nan,nan,nan,nan,nan,nan,nan,nan
15.956249475479126,0.04847848042845726,3.8845248222351074,-10.344139099121094,-0.022997754165800965,0.003975629806518555,0.0,3.9074107606284607,-11.975475406516557,-0.21874482071953422,0.7736689892777414,1.0,-0.198020800526756,-0.4135663270295903,nan,nan,nan,nan,nan,nan,nan,nan,nan,nan
15.964531898498535,0.04847848042845726,3.8845248222351074,-10.344139099121094,-0.022997754165800965,0.002280712127685547,0.0,3.910673329476464,-11.958236160735211,-0.22874482071953423,0.7736689892777414,1.0,-0.2019367545506869,-0.3273550117892645,nan,nan,nan,nan,nan,nan,nan,nan,nan,nan
15.975367307662964,0.051211994141340256,3.8746650218963623,-10.214437484741211,-0.026208078178893535,0.0024793148040771484,0.0,3.9139707628652176,-11.940681961322898,-0.23874482071953423,0.7736689892777414,1.0,-0.22688567055930733,-0.26392154401663104,nan,nan,nan,nan,nan,nan,nan,nan,nan,nan
15.984440088272095,0.05199713632464409,3.87073016166687,-10.17128849029541,-0.026837555748141617,0.002782583236694336,0.0,3.9172978528089057,-11.922820059707451,-0.24874482071953424,0.7736689892777414,1.0,-0.23706082153375202,-0.21925130129768222,nan,nan,nan,nan,nan,nan,nan,nan,nan,nan
16.174206972122192,0.05199713632464409,3.87073016166687,-10.17128849029541,-0.026837555748141617,0.0028994083404541016,0.0,3.8925904991494065,-10.12600396910864,-0.5399520945193611,0.7736689892777414,1.0,-0.24060432934954595,-0.18878865693516417,nan,nan,nan,nan,nan,nan,nan,nan,nan,nan
16.181724548339844,0.05065777525305748,3.6675100326538086,-9.142704963684082,-0.029709071667102793,0.0022516250610351562,0.0,3.913507718923035,-10.080322377223776,-0.5299520945193611,0.7736689892777414,1.0,-0.12715643363624954,-0.16152032390696533,nan,nan,nan,nan,nan,nan,nan,nan,nan,nan
16.18826723098755,0.05065777525305748,3.6675100326538086,-9.142704963684082,-0.029709071667102793,0.00412750244140625,0.0,3.9334830534947023,-10.034262811272878,-0.5199520945193611,0.7736689892777414,1.0,-0.12032644642525944,-0.12202811122293053,nan,nan,nan,nan,nan,nan,nan,nan,nan,nan
16.196696996688843,0.04943329840898514,3.639254093170166,-9.057226181030273,-0.03052968045756632,0.002155303955078125,0.0,3.9525181181440194,-9.987844249566256,-0.5099520945193611,0.7736689892777414,1.0,-0.10394035152436097,-0.09409233703948677,nan,nan,nan,nan,nan,nan,nan,nan,nan,nan
16.205353021621704,0.04943329840898514,3.639254093170166,-9.057226181030273,-0.03052968045756632,0.002930879592895508,0.0,3.970614907581851,-9.94108554445457,-0.49995209451936107,0.7736689892777414,1.0,-0.10298225427193544,-0.0721129973862258,nan,nan,nan,nan,nan,nan,nan,nan,nan,nan
16.214399337768555,0.04810045659542084,3.6103577613830566,-8.972216606140137,-0.031478941322179654,0.0020608901977539062,0.0,3.987775792456804,-9.894005414768255,-0.48995209451936106,0.7736689892777414,1.0,-0.08586455274613819,-0.057490851942708,nan,nan,nan,nan,nan,nan,nan,nan,nan,nan
16.224685192108154,0.04739876836538315,3.5956780910491943,-8.929878234863281,-0.032028074342520446,0.0023300647735595703,0.0,4.004003515711282,-9.846622438337326,-0.47995209451936105,0.7736689892777414,1.0,-0.07683556892746814,-0.044111344176298695,nan,nan,nan,nan,nan,nan,nan,nan,nan,nan
16.234419584274292,0.04667580500245094,3.5808494091033936,-8.887652397155762,-0.032641906559411044,0.0020618438720703125,0.0,4.019301188788832,-9.798955044594512,-0.46995209451936104,0.7736689892777414,1.0,-0.0687314456091539,-0.03333391586149631,nan,nan,nan,nan,nan,nan,nan,nan,nan,nan
16.245229482650757,0.045933209359645844,3.5658764839172363,-8.845537185668945,-0.03331763943048344,0.0024590492248535156,0.0,4.033672287694575,-9.751021507264731,-0.45995209451936103,0.7736689892777414,1.0,-0.06137098200662125,-0.02444594476795998,nan,nan,nan,nan,nan,nan,nan,nan,nan,nan
16.25454831123352,0.044394612312316895,3.535515308380127,-8.761696815490723,-0.03480825563792769,0.0024971961975097656,0.0,4.047120648910553,-9.702839937143766,-0.449952094519361,0.7736689892777414,1.0,-0.04897690524742463,-0.017228684307274474,nan,nan,nan,nan,nan,nan,nan,nan,nan,nan
16.424332857131958,0.044394612312316895,3.535515308380127,-8.761696815490723,-0.03480825563792769,0.002674102783203125,0.0,3.5341255068263995,-8.709538971107833,-0.28019063291321766,0.7736689892777414,1.0,-0.048676901988742,-0.008993040476989192,nan,nan,nan,nan,nan,nan,nan,nan,nan,nan
16.431962490081787,0.02547411248087883,3.1534152030944824,-7.854300022125244,-0.052110274821574785,0.0020132064819335938,0.0,3.53191458103801,-8.65742423111189,-0.27019063291321765,0.7736689892777414,0.7869996713976299,0.023810320627639256,-0.02068335497381023,nan,nan,nan,nan,nan,nan,nan,nan,nan,nan
16.437129497528076,0.02547411248087883,3.1534152030944824,-7.854300022125244,-0.052110274821574785,0.003365755081176758,0.0,3.5288922675901104,-8.605366617738047,-0.26019063291321765,0.7736689892777414,0.8001180106589498,0.014740872338112464,0.017507056384234884,nan,nan,nan,nan,nan,nan,nan,nan,nan,nan
16.44451594352722,0.02547411248087883,3.1534152030944824,-7.854300022125244,-0.052110274821574785,0.002382040023803711,0.0,3.5250685571961533,-8.55337986871631,-0.25019063291321764,0.7736689892777414,0.8137760469878192,0.021446836074712348,0.03383749016596775,nan,nan,nan,nan,nan,nan,nan,nan,nan,nan
16.455389976501465,0.0222226083278656,3.0978004932403564,-7.731626510620117,-0.05380889584738363,0.002899646759033203,0.0,3.5204536880987525,-8.501477432493745,-0.24019063291321763,0.7736689892777414,0.7649326319852647,0.03232057237874887,0.0447450571335426,nan,nan,nan,nan,nan,nan,nan,nan,nan,nan
16.464426279067993,0.021161453798413277,3.0793020725250244,-7.691020488739014,-0.054316779575246964,0.0022051334381103516,0.0,3.515058139368834,-8.44967246359852,-0.23019063291321762,0.7736689892777414,0.7568747464123999,0.0364897368630911,0.05654807415124646,nan,nan,nan,nan,nan,nan,nan,nan,nan,nan
16.475383520126343,0.02011278085410595,3.060831308364868,-7.65054988861084,-0.054810414701073513,0.0022499561309814453,0.0,3.508892624116024,-8.397977818147497,-0.2201906329132176,0.7736689892777414,0.7490929954231669,0.04113896368769922,0.06464207902060388,nan,nan,nan,nan,nan,nan,nan,nan,nan,nan
16.4843966960907,0.019080929458141327,3.0423920154571533,-7.610214710235596,-0.0552869237567114,0.0020902156829833984,0.0,3.5019680826132453,-8.346406049499157,-0.2101906329132176,0.7736689892777414,0.7419127130514301,0.04463120439128086,0.07115911885371011,nan,nan,nan,nan,nan,nan,nan,nan,nan,nan
16.4948251247406,0.01705903746187687,3.005629777908325,-7.529967308044434,-0.05616094021709047,0.002490997314453125,0.0,3.494295675338533,-8.294969404053457,-0.2001906329132176,0.7736689892777414,0.7123409418885721,0.04881781667965352,0.0759000990275128,nan,nan,nan,nan,nan,nan,nan,nan,nan,nan
16.504813194274902,0.016069751232862473,2.9873156547546387,-7.490051746368408,-0.05656187873440341,0.002543210983276367,0.0,3.4858867759371086,-8.243679817200276,-0.19019063291321758,0.7736689892777414,0.7064868755082897,0.05037788539241955,0.08109291804349501,0.06459132412672043,0.06439132412672043,3.827170713043213,3.8269707130432127,-12.289005415344239,-12.289205415344238,-0.004463546232279218,-0.004663546232279219,-0.19903323223590852,-0.1992332322359085
16.68628430366516,0.016069751232862473,2.9873156547546387,-7.490051746368408,-0.05656187873440341,0.0034775733947753906,0.0,2.968091914156627,-7.4424370988288056,-0.00406364137700376,0.7736689892777414,1.0,0.05127210647585501,0.08473877698770468,963.656285415599,-965.0833161244382,178274.6678000338,-178267.79636632997,178345.79118531733,-178366.73280448493,3485.9760721382513,-3485.926207533354,3584.661482997305,-3579.7570783999167
16.694895029067993,0.00737304612994194,2.5796420574188232,-6.591545104980469,-0.056316853677044525,0.002000570297241211,0.0,2.9483787462054156,-7.39513014804119,0.005936358622996241,0.7736689892777414,0.4332995150981297,0.05459091436536954,0.06580546996428822,nan,nan,nan,nan,nan,nan,nan,nan,nan,nan
16.705440044403076,0.007016044110059738,2.5463414192199707,-6.5134124755859375,-0.05547132090973543,0.003283262252807617,0.0,2.9281901892448965,-7.348135861702508,0.015936358622996243,0.7736689892777414,0.4015741891078455,0.041853367873679416,0.08440428931156238,nan,nan,nan,nan,nan,nan,nan,nan,nan,nan
16.714499473571777,0.006855743937194347,2.529909372329712,-6.474549293518066,-0.055024723955983006,0.00217437744140625,0.0,2.9075403301835494,-7.3014588481379,0.025936358622996245,0.7736689892777414,0.4024186563937199,0.04957348763028275,0.08099855187482344,nan,nan,nan,nan,nan,nan,nan,nan,nan,nan
16.724740266799927,0.00670745549723506,2.51362681388855,-6.435817241668701,-0.05456110967971035,0.0024416446685791016,0.0,2.8864432965238818,-7.255103355884969,0.035936358622996246,0.7736689892777414,0.40350660162473906,0.04742569989765033,0.08585552408303193,nan,nan,nan,nan,nan,nan,nan,nan,nan,nan
16.734349489212036,0.006446449086070061,2.4815235137939453,-6.358743667602539,-0.05360091570177049,0.0020246505737304688,0.0,2.8649132483900246,-7.209073273445249,0.04593635862299625,0.7736689892777414,0.37090415746776173,0.0492698128845723,0.0849019269619539,nan,nan,nan,nan,nan,nan,nan,nan,nan,nan
16.745314598083496,0.006333364173769951,2.4657094478607178,-6.320398330688477,-0.053101809697182596,0.0024340152740478516,0.0,2.842964370556904,-7.163372129202828,0.05593635862299625,0.7736689892777414,0.37491168650242046,0.0484904803976918,0.08679257776065324,nan,nan,nan,nan,nan,nan,nan,nan,nan,nan
16.754887342453003,0.006231474224478006,2.4500572681427,-6.282214641571045,-0.05259276040560408,0.0038383007049560547,0.0,2.820610864484407,-7.118003091510003,0.06593635862299625,0.7736689892777414,0.3807980488862678,0.0491854442044755,0.08626205905568314,nan,nan,nan,nan,nan,nan,nan,nan,nan,nan
16.933345079421997,0.006231474224478006,2.4500572681427,-6.282214641571045,-0.05259276040560408,0.002689361572265625,0.0,2.424894554110551,-6.24103134223364,0.18979779005477365,0.7736689892777414,1.0,0.04886941118985183,0.08653353226411072,nan,nan,nan,nan,nan,nan,nan,nan,nan,nan
16.941173791885376,0.01506992056965828,2.140436887741089,-5.427532196044922,-0.03745258311840924,0.0024309158325195312,0.0,2.3995144871194087,-6.2001779681295455,0.19979779005477366,0.7736689892777414,0.33474138299761647,0.06251330128322448,0.027569869672985865,nan,nan,nan,nan,nan,nan,nan,nan,nan,nan
16.94675302505493,0.01506992056965828,2.140436887741089,-5.427532196044922,-0.03745258311840924,0.002281665802001953,0.0,2.3739305359741922,-6.159652623489047,0.20979779005477367,0.7736689892777414,0.39002404868143226,0.016631697401017186,0.08478917989335176,nan,nan,nan,nan,nan,nan,nan,nan,nan,nan
16.955300331115723,0.01738346926867962,2.1183037757873535,-5.353631019592285,-0.03587975818226416,0.002659320831298828,0.0,2.348156066767388,-6.119453075600687,0.21979779005477368,0.7736689892777414,0.37606253247496413,0.055134790863331874,0.03539223501162992,nan,nan,nan,nan,nan,nan,nan,nan,nan,nan
16.964505195617676,0.01851433701813221,2.107536554336548,-5.316859722137451,-0.035089199369771396,0.0025620460510253906,0.0,2.322204335484696,-6.079576757557202,0.2297977900547737,0.7736689892777414,0.3976652980729489,0.02190886522064336,0.07752986241701526,nan,nan,nan,nan,nan,nan,nan,nan,nan,nan
16.974674463272095,0.0207279771566391,2.086616277694702,-5.2436370849609375,-0.03353359890305865,0.0024268627166748047,0.0,2.296088480673348,-6.040020771155539,0.2397977900547737,0.7736689892777414,0.37796988076663673,0.05209888284544604,0.037491211495375744,nan,nan,nan,nan,nan,nan,nan,nan,nan,nan
16.98437190055847,0.021809343248605728,2.076463460922241,-5.207186222076416,-0.032786239964533115,0.0020809173583984375,0.0,2.2698215161762314,-6.0007818899495655,0.2497977900547737,0.7736689892777414,0.395563030130447,0.02449474542571185,0.07342954442757198,nan,nan,nan,nan,nan,nan,nan,nan,nan,nan
16.994953155517578,0.022873949259519577,2.0665180683135986,-5.170839786529541,-0.03205353822866906,0.0027005672454833984,0.0,2.2434163239349307,-5.961856562454104,0.2597977900547737,0.7736689892777414,0.413368898154993,0.051038745381688386,0.03826223659291071,nan,nan,nan,nan,nan,nan,nan,nan,nan,nan
17.005042791366577,0.02392197959125042,2.0567822456359863,-5.13463020324707,-0.03133203578124537,0.004197359085083008,0.0,2.216885646864761,-5.9232409154987815,0.2697977900547737,0.7736689892777414,0.4321156407407196,0.026253156875330464,0.07127906928258534,nan,nan,nan,nan,nan,nan,nan,nan,nan,nan
17.182912349700928,0.02392197959125042,2.0567822456359863,-5.13463020324707,-0.03133203578124537,0.002437591552734375,0.0,2.0341133740696478,-5.096184850659148,0.288528295522633,0.7736689892777414,0.8999102575304763,0.051027542331671324,0.03698918642624315,nan,nan,nan,nan,nan,nan,nan,nan,nan,nan
17.190985441207886,0.04156121239066124,1.9031134843826294,-4.324277877807617,-0.016541591537448164,0.0026946067810058594,0.0,2.0113897646782326,-5.057972331080135,0.2954449799982418,0.7736689892777414,-0.3532405151914719,0.05046888917078404,0.03772611759640934,nan,nan,nan,nan,nan,nan,nan,nan,nan,nan
17.197422981262207,0.04156121239066124,1.9031134843826294,-4.324277877807617,-0.016541591537448164,0.0021486282348632812,0.0,1.9887009128479098,-5.01994042781985,0.30044627452881273,0.7736689892777414,-0.49011286622085704,0.05263118349974581,0.06630489478949131,nan,nan,nan,nan,nan,nan,nan,nan,nan,nan
17.205796003341675,0.041912518441677094,1.9002443552017212,-4.289425849914551,-0.015965417350289862,0.004767656326293945,0.0,1.966126899387165,-4.982041374121231,0.3036916768219543,0.7736689892777414,-0.6765572472955184,0.07148130855564877,0.08309583785206033,nan,nan,nan,nan,nan,nan,nan,nan,nan,nan
17.21565294265747,0.04294481500983238,1.8929657936096191,-4.18534517288208,-0.014266564937309906,0.0019240379333496094,0.0,1.9437392536291627,-4.94423213272209,0.3053331367661481,0.7736689892777414,-0.97132547308922,0.08706503722606641,0.11260898853812269,nan,nan,nan,nan,nan,nan,nan,nan,nan,nan
17.224812984466553,0.04294481500983238,1.8929657936096191,-4.18534517288208,-0.014266564937309906,0.0023021697998046875,0.0,1.9216017133832877,-4.906474516560632,0.30551508874904115,0.7736689892777414,-1.0,0.10900109951588283,0.14869801849497877,nan,nan,nan,nan,nan,nan,nan,nan,nan,nan
17.234333276748657,0.04361507669091225,1.8892531394958496,-4.116283893585205,-0.013125033776918898,0.0018396377563476562,0.0,1.899770891505994,-4.86873518311129,0.3043745266053206,0.7736689892777414,-1.0,0.1357248002060738,0.19242850625937033,nan,nan,nan,nan,nan,nan,nan,nan,nan,nan
17.24528169631958,0.04361507669091225,1.8892531394958496,-4.116283893585205,-0.013125033776918898,0.002572298049926758,0.0,1.8782968599752656,-4.830985529676757,0.30204111441409004,0.7736689892777414,-1.0,0.16415710606555498,0.24389333632618462,nan,nan,nan,nan,nan,nan,nan,nan,nan,nan
17.254738569259644,0.04458589479327202,1.8854466676712036,-4.013244152069092,-0.011168896305891685,0.002655506134033203,0.0,1.8572236625975977,-4.793201512531947,0.2986373268539009,0.7736689892777414,-1.0,0.1982152588231393,0.30403944313309617,nan,nan,nan,nan,nan,nan,nan,nan,nan,nan
17.264485597610474,0.04458589479327202,1.8854466676712036,-4.013244152069092,-0.011168896305891685,0.0020294189453125,0.0,1.8365897671182094,-4.755363409044766,0.29427861343171086,0.7736689892777414,-1.0,0.23757786099529765,0.3728582512491021,nan,nan,nan,nan,nan,nan,nan,nan,nan,nan
17.444032430648804,0.04458589479327202,1.8854466676712036,-4.013244152069092,-0.011168896305891685,0.0026531219482421875,0.0,1.8684136777501161,-3.9748883078207404,0.3543650757506033,0.7736689892777414,-1.0,0.28251457284163733,0.4510455490784203,nan,nan,nan,nan,nan,nan,nan,nan,nan,nan
17.450939178466797,0.053413476794958115,1.9386451244354248,-3.2333195209503174,0.02298220608341424,0.003365039825439453,0.0,1.8521295073106185,-3.936341952309438,0.34436507575060327,0.7736689892777414,-0.9727547984171294,0.051389603729829966,0.4461317951546246,nan,nan,nan,nan,nan,nan,nan,nan,nan,nan
17.45981240272522,0.053413476794958115,1.9386451244354248,-3.2333195209503174,0.02298220608341424,0.002546548843383789,0.0,1.836587720501693,-3.8976197019052954,0.33436507575060326,0.7736689892777414,-0.9947213642608629,0.10611261616719936,0.3813092201939017,nan,nan,nan,nan,nan,nan,nan,nan,nan,nan
17.466968774795532,0.05377861484885216,1.9503005743026733,-3.1652965545654297,0.027049192012340698,0.002396821975708008,0.0,1.821781594927488,-3.858735940407712,0.32436507575060325,0.7736689892777414,-0.982020131913631,0.027253723867426992,0.3262311572624534,0.06650025973320008,0.06630025973320007,3.8860517574310305,3.88585175743103,-12.086506979370117,-12.086706979370117,-0.14864482071953417,-0.14884482071953414,1.50508628616333,1.50488628616333
17.474963903427124,0.05391402170062065,1.9562325477600098,-3.131444215774536,0.029120532230547808,0.0027399063110351562,0.0,1.807704127364881,-3.819704813411181,0.31436507575060324,0.7736689892777414,-0.9859337052419352,0.007043083298674145,0.2584150840114108,1059.9352353118772,-1061.349435752866,220319.6531915481,-220312.76092244996,220401.55008440636,-220421.1863631337,4041.2902137177075,-4041.247287816773,4092.879687368642,-4088.1307687278872
17.48436951637268,0.054018888622522354,1.96222984790802,-3.0976979732513428,0.03122499486907325,0.0019142627716064453,0.0,1.7943480395920237,-3.78054022279665,0.30436507575060323,0.7736689892777414,-0.9893992013376988,-0.03435588905474848,0.19051429818076557,nan,nan,nan,nan,nan,nan,nan,nan,nan,nan
17.495081186294556,0.05409220978617668,1.9682880640029907,-3.0640597343444824,0.03334373561961624,0.0025572776794433594,0.0,1.7817057843252382,-3.7412558213506335,0.2943650757506032,0.7736689892777414,-0.9925984517965986,-0.06678131146526722,0.12140736785580684,nan,nan,nan,nan,nan,nan,nan,nan,nan,nan
17.505180835723877,0.0541398711502552,1.9805678129196167,-2.9971354007720947,0.03756573673950527,0.0028455257415771484,0.0,1.7697695512615872,-3.701865007514205,0.2843650757506032,0.7736689892777414,-0.972603313711595,-0.10767128356893675,0.05188756029981318,nan,nan,nan,nan,nan,nan,nan,nan,nan,nan
17.514423608779907,0.054112546145915985,1.9867799282073975,-2.963848114013672,0.0396417612117092,0.001959085464477539,0.0,1.7585312732243967,-3.6623809202639506,0.2743650757506032,0.7736689892777414,-0.9741703734310784,-0.13001221295492746,-0.011937776417184881,nan,nan,nan,nan,nan,nan,nan,nan,nan,nan
17.52473020553589,0.0540505014359951,1.9930338859558105,-2.930668354034424,0.04168634807313127,0.0023682117462158203,0.0,1.7479826324089727,-3.6228164341269085,0.2643650757506032,0.7736689892777414,-0.9752233334494285,-0.15246178794211113,-0.06779512445742966,nan,nan,nan,nan,nan,nan,nan,nan,nan,nan
17.710705757141113,0.0540505014359951,1.9930338859558105,-2.930668354034424,0.04168634807313127,0.0024874210357666016,0.0,1.9933075335109538,-2.890407491822957,0.103979779087444,0.7736689892777414,-1.0,-0.16788866503215286,-0.11615492008241358,nan,nan,nan,nan,nan,nan,nan,nan,nan,nan
17.71738600730896,0.03605533018708229,2.159308671951294,-2.1467344760894775,0.07590657132338254,0.001977682113647461,0.0,1.9941063615795982,-2.850251612075434,0.09397977908744401,0.7736689892777414,-0.13895331457939952,0.09231007570862612,0.055844824904150894,nan,nan,nan,nan,nan,nan,nan,nan,nan,nan
17.724753379821777,0.03605533018708229,2.159308671951294,-2.1467344760894775,0.07590657132338254,0.002716064453125,0.0,1.9954185924310306,-2.810208219421126,0.08397977908744401,0.7736689892777414,-0.17797954938809046,-0.04423378204311826,0.00830019270458359,nan,nan,nan,nan,nan,nan,nan,nan,nan,nan
17.734395265579224,0.034586209803819656,2.1737942695617676,-2.0821194648742676,0.07775628788006465,0.0022242069244384766,0.0,1.997232330858435,-2.7702844858680886,0.07397977908744402,0.7736689892777414,-0.11951630501106603,0.027199593185752702,-0.01645555096109224,nan,nan,nan,nan,nan,nan,nan,nan,nan,nan
17.744904041290283,0.03310265392065048,2.187793731689453,-2.0179967880249023,0.07949576667082994,0.002863645553588867,0.0,1.9995355718086536,-2.730487248827602,0.06397977908744402,0.7736689892777414,-0.057745480494635903,0.012993749827827356,-0.041504359431076915,nan,nan,nan,nan,nan,nan,nan,nan,nan,nan
17.7550790309906,0.03235797584056854,2.1945993900299072,-1.986116886138916,0.0803286336789078,0.0029382705688476562,0.0,2.0023162080468104,-2.6908230093011185,0.05397977908744402,0.7736689892777414,-0.047101867416097676,0.027847096425468076,-0.05615343906158658,nan,nan,nan,nan,nan,nan,nan,nan,nan,nan
17.764518976211548,0.03161587193608284,2.2012686729431152,-1.9543976783752441,0.08113804763849572,0.0023517608642578125,0.0,2.005562037852444,-2.6512979302303514,0.04397977908744402,0.7736689892777414,-0.03872941840178057,0.03010850157915424,-0.06748574116008947,nan,nan,nan,nan,nan,nan,nan,nan,nan,nan
17.77475595474243,0.030877886340022087,2.207796573638916,-1.9228012561798096,0.08190022632507667,0.002481698989868164,0.0,2.0092607727437883,-2.6119178350110697,0.03397977908744402,0.7736689892777414,-0.034237890255980785,0.03698596321946788,-0.07504622966841007,nan,nan,nan,nan,nan,nan,nan,nan,nan,nan
17.951807022094727,0.030877886340022087,2.207796573638916,-1.9228012561798096,0.08190022632507667,0.004194736480712891,0.0,2.218308805754747,-1.886639057097111,-0.16468759077876494,0.7736689892777414,-1.0,0.033749771211650494,-0.0814491837564146,nan,nan,nan,nan,nan,nan,nan,nan,nan,nan
17.96140694618225,0.04098609462380409,2.409381151199341,-1.773441195487976,0.09061208046318067,0.0024628639221191406,0.0,2.229014761202061,-1.8506693038690576,-0.17468759077876495,0.5659647350274355,-1.0,0.2636248398481554,-0.002116537442772265,nan,nan,nan,nan,nan,nan,nan,nan,nan,nan
17.967041730880737,0.04098609462380409,2.409381151199341,-1.773441195487976,0.09061208046318067,0.002147674560546875,0.0,2.2399021564901855,-1.8148903863787027,-0.18468759077876495,0.565671145085581,-1.0,0.42453738789370876,0.1647603669737884,nan,nan,nan,nan,nan,nan,nan,nan,nan,nan
17.97515869140625,0.042359210550785065,2.417733907699585,-1.7777538299560547,0.09088516253323087,0.002471446990966797,0.0,2.2509587976625225,-1.7793003654904977,-0.19468759077876496,0.5647793430859671,-1.0,0.4089971111778752,0.35533225688165193,nan,nan,nan,nan,nan,nan,nan,nan,nan,nan
17.98444437980652,0.04513964429497719,2.4344165325164795,-1.7865172624588013,0.09139161616124213,0.0020563602447509766,0.0,2.2621725876926906,-1.7438969754596036,-0.20468759077876497,0.5632554480620802,-1.0,0.5262979778245126,0.48873257981715634,nan,nan,nan,nan,nan,nan,nan,nan,nan,nan
17.994604349136353,0.046546317636966705,2.442770004272461,-1.791068196296692,0.09164684619655013,0.002839326858520508,0.0,2.2735315338254334,-1.7086776264969463,-0.21468759077876498,0.562619863566606,-1.0,0.5669240546648211,0.5821128058720094,nan,nan,nan,nan,nan,nan,nan,nan,nan,nan
18.005082368850708,0.04796326905488968,2.451127052307129,-1.7956637144088745,0.09193742428174963,0.0024261474609375,0.0,2.2850237548591075,-1.6736394074888257,-0.224687590778765,0.5624752609028426,-1.0,0.5895206731769733,0.6474789641104066,nan,nan,nan,nan,nan,nan,nan,nan,nan,nan
18.01457667350769,0.0493873730301857,2.4594814777374268,-1.8002843856811523,0.09229428306142251,0.0021953582763671875,0.0,2.296637488366588,-1.6387790888698208,-0.234687590778765,0.5626732779879028,-1.0,0.5996594031188958,0.6932352748772846,nan,nan,nan,nan,nan,nan,nan,nan,nan,nan
18.024799585342407,0.05227077752351761,2.4761669635772705,-1.8093104362487793,0.09326564068735518,0.00263214111328125,0.0,2.308361097851461,-1.604093125647671,-0.244687590778765,0.5639858934794846,-1.0,0.5630163909831475,0.7252646924140993,nan,nan,nan,nan,nan,nan,nan,nan,nan,nan
18.20733141899109,0.05227077752351761,2.4761669635772705,-1.8093104362487793,0.09326564068735518,0.003330230712890625,0.0,2.4853465711229665,-1.8158532093482411,0.040151772210393774,0.6556211189609545,-1.0,0.6278522743060139,0.7476852846898695,nan,nan,nan,nan,nan,nan,nan,nan,nan,nan
18.215534925460815,0.08065260946750641,2.6591286659240723,-1.8623912334442139,0.12526439907558423,0.002439737319946289,0.0,2.4945017324832017,-1.8222943259908873,0.030151772210393772,0.6816490353836265,-0.1027681702860207,-0.7628517236298082,-0.11238936984261598,nan,nan,nan,nan,nan,nan,nan,nan,nan,nan
18.22476363182068,0.08307433873414993,2.674759864807129,-1.8622190952301025,0.12907820052439378,0.0028312206268310547,0.0,2.5036257514890803,-1.828639187745206,0.02015177221039377,0.6852844099816878,-0.034344193553309976,-0.02729911768665355,-0.21754990498800758,nan,nan,nan,nan,nan,nan,nan,nan,nan,nan
18.23449993133545,0.08307433873414993,2.674759864807129,-1.8622190952301025,0.12907820052439378,0.0026166439056396484,0.0,2.5127117644047985,-1.834892843640126,0.01015177221039377,0.6864941045862232,-0.07527574124263758,-0.2591093823806575,-0.29364067510906705,nan,nan,nan,nan,nan,nan,nan,nan,nan,nan
18.244656801223755,0.0852801725268364,2.689981698989868,-1.861437201499939,0.13293435393744393,0.0030431747436523438,0.0,2.5217527505061,-1.8410599879349065,0.00015177221039376979,0.6895361185037346,-0.0030868008022266746,-0.38135280134443733,-0.3639188013904886,nan,nan,nan,nan,nan,nan,nan,nan,nan,nan
18.254829168319702,0.0852801725268364,2.689981698989868,-1.861437201499939,0.13293435393744393,0.004691600799560547,0.0,2.5307415426573168,-1.8471449582122283,-0.00984822778960623,0.6906753346870608,-0.04690781036210734,-0.33319539717286306,-0.42408192435418796,nan,nan,nan,nan,nan,nan,nan,nan,nan,nan
18.264760732650757,0.08817077428102493,2.7118380069732666,-1.8597630262374878,0.13892013170188627,0.002086162567138672,0.0,2.539670837877432,-1.8531517337890828,-0.01984822778960623,0.6931300793926766,0.08618296587083707,-0.424944581574572,-0.45251982280810044,nan,nan,nan,nan,nan,nan,nan,nan,nan,nan
18.27479887008667,0.08817077428102493,2.7118380069732666,-1.8597630262374878,0.13892013170188627,0.002415895462036133,0.0,2.548533207885964,-1.8590839344398968,-0.029848227789606233,0.694203462605984,0.039443276031029484,-0.38443457634593753,-0.4882740660815498,0.06650025973320008,0.06630025973320007,3.8860517574310305,3.88585175743103,-12.086506979370117,-12.086706979370117,-0.14864482071953417,-0.14884482071953414,1.50508628616333,1.50488628616333
18.284419059753418,0.0897805392742157,2.725651502609253,-1.858522653579712,0.14320842130274486,0.002389669418334961,0.0,2.557321109619793,-1.8649448194261882,-0.039848227789606235,0.6958574858972447,0.1001343961614014,-0.41694404821651415,-0.49452461008239273,1059.9352353118772,-1061.349435752866,220319.6531915481,-220312.76092244996,220401.55008440636,-220421.1863631337,4041.2902137177075,-4041.247287816773,4092.879687368642,-4088.1307687278872
18.466185092926025,0.0897805392742157,2.725651502609253,-1.858522653579712,0.14320842130274486,0.0026602745056152344,0.0,2.73262251612506,-1.860291533068229,-0.2283473112984754,0.7325277269458252,-1.0,-0.4021975393400796,-0.5073383815265554,nan,nan,nan,nan,nan,nan,nan,nan,nan,nan
18.47518563270569,0.09220746904611588,2.82715106010437,-1.8273662328720093,0.17800988293557735,0.0033555030822753906,0.0,2.7393682996563267,-1.8620832088010468,-0.23834731129847542,0.7397451985456243,-0.2553582665055003,0.15337402904899694,0.27651484203939647,nan,nan,nan,nan,nan,nan,nan,nan,nan,nan
18.484468936920166,0.09157006442546844,2.828477621078491,-1.8251245021820068,0.17853067779611045,0.002313852310180664,0.0,2.745879862739216,-1.863890936776943,-0.24834731129847543,0.740077265303605,-0.30329044999096466,-0.23487101234207608,-0.03333462090299562,nan,nan,nan,nan,nan,nan,nan,nan,nan,nan
18.49478244781494,0.0909193903207779,2.829655408859253,-1.822863221168518,0.1789706180005267,0.003047943115234375,0.0,2.752148373332367,-1.8657077129116877,-0.25834731129847543,0.7404108390934477,-0.3530315535143256,-0.07287880030931965,-0.012095483325675848,nan,nan,nan,nan,nan,nan,nan,nan,nan,nan
18.504936933517456,0.0902574211359024,2.830683946609497,-1.8205821514129639,0.17933182600279485,0.0025985240936279297,0.0,2.758165163651691,-1.8675262768843566,-0.26834731129847544,0.7407246768418613,-0.40417632924669866,-0.10982402185948169,-0.08927712610779535,nan,nan,nan,nan,nan,nan,nan,nan,nan,nan
18.514608144760132,0.08958560973405838,2.831559181213379,-1.8182942867279053,0.17963611808955854,0.0021469593048095703,0.0,2.7639217359120574,-1.869339116105549,-0.27834731129847545,0.7409189628064089,-0.4535621688454623,-0.07064754799496405,-0.0962825267589063,nan,nan,nan,nan,nan,nan,nan,nan,nan,nan
18.52473497390747,0.08821305632591248,2.8328189849853516,-1.8138389587402344,0.18012483261269382,0.002227783203125,0.0,2.7694097679735923,-1.8711384698045346,-0.28834731129847546,0.741028876426305,-0.45512467947519253,-0.0454589674704598,-0.10644701128635049,nan,nan,nan,nan,nan,nan,nan,nan,nan,nan
18.534532070159912,0.08751706033945084,2.8331947326660156,-1.8116624355316162,0.1802328089833119,0.002393484115600586,0.0,2.774621118890424,-1.8729163332323222,-0.29834731129847547,0.7410388163670496,-0.49555682418685976,-0.0376049338453634,-0.12256082866737118,nan,nan,nan,nan,nan,nan,nan,nan,nan,nan
18.544626235961914,0.08681967854499817,2.8334009647369385,-1.8095202445983887,0.18026049154536458,0.002147197723388672,0.0,2.7795478343598075,-1.8746644619776296,-0.3083473112984755,0.7410550234533851,-0.5359792400656681,-0.02425082172053239,-0.12659591552861343,nan,nan,nan,nan,nan,nan,nan,nan,nan,nan
18.7126362323761,0.08681967854499817,2.8334009647369385,-1.8095202445983887,0.18026049154536458,0.002269268035888672,0.0,2.8347539092565732,-1.8082859560279831,-0.28685057969838984,0.7534288223609206,-0.4780395187451725,-0.028429180747504168,-0.13766519429223195,nan,nan,nan,nan,nan,nan,nan,nan,nan,nan
18.718996047973633,0.0726797878742218,2.7838566303253174,-1.7771649360656738,0.16349015022156255,0.0022432804107666016,0.0,2.8358353528774884,-1.807033786504656,-0.2897471978429105,0.7390279638739814,0.936878165766583,0.13350529028382338,-0.0026177422590505997,nan,nan,nan,nan,nan,nan,nan,nan,nan,nan
18.726152896881104,0.07270074635744095,2.7789885997772217,-1.7772694826126099,0.16213204949327098,0.0025000572204589844,0.0,2.8366392214874527,-1.805756866775739,-0.29092432610658153,0.7388200496246101,1.0,0.06236644366025775,-0.06600294397968064,nan,nan,nan,nan,nan,nan,nan,nan,nan,nan
18.73443031311035,0.07275111228227615,2.7739083766937256,-1.7773947715759277,0.1607912586225963,0.0023956298828125,0.0,2.837161227692246,-1.8044505303923304,-0.29053879576390973,0.7386328139749302,1.0,0.09554803236649925,-0.10467171785137708,nan,nan,nan,nan,nan,nan,nan,nan,nan,nan
18.744807243347168,0.0728350356221199,2.768615484237671,-1.77753746509552,0.15946691676450658,0.0027663707733154297,0.0,2.83739868177301,-1.8031121244603237,-0.2887399302802311,0.7384606886047,1.0,0.09683973564059208,-0.1335727739436116,nan,nan,nan,nan,nan,nan,nan,nan,nan,nan
18.754867553710938,0.07309362292289734,2.7573635578155518,-1.7778799533843994,0.15686636423413988,0.0028235912322998047,0.0,2.8373503369783317,-1.8017408029442143,-0.28566954759797064,0.7383683274149471,1.0,0.10755122869697396,-0.15546301184368605,nan,nan,nan,nan,nan,nan,nan,nan,nan,nan
18.765060424804688,0.0732695683836937,2.751391649246216,-1.7780876159667969,0.15558574223220592,0.00273895263671875,0.0,2.8370162616270234,-1.800337310872757,-0.28146200822015016,0.7381414735190707,1.0,0.11241787488496525,-0.17250173752483539,nan,nan,nan,nan,nan,nan,nan,nan,nan,nan
18.774696826934814,0.0734773650765419,2.745182514190674,-1.778349757194519,0.154297643094621,0.0024368762969970703,0.0,2.8363977313995585,-1.7989037660435074,-0.2762443014676264,0.7379323347159815,1.0,0.11710331812923017,-0.18546414300389616,nan,nan,nan,nan,nan,nan,nan,nan,nan,nan
18.784562349319458,0.07371699064970016,2.7387351989746094,-1.7786316871643066,0.15297754256415733,0.0025892257690429688,0.0,2.835497136190767,-1.7974434434140303,-0.2701361631545609,0.7377550312440371,1.0,0.11983133594184564,-0.19542810095404792,nan,nan,nan,nan,nan,nan,nan,nan,nan,nan
18.79475998878479,0.07429071515798569,2.725130319595337,-1.7792346477508545,0.15019952239154366,0.0025758743286132812,0.0,2.83431789690343,-1.7959605662314622,-0.2632502188095799,0.7377421527372893,1.0,0.11897549342749458,-0.20279155956987435,nan,nan,nan,nan,nan,nan,nan,nan,nan,nan
18.961441040039062,0.07429071515798569,2.725130319595337,-1.7792346477508545,0.15019952239154366,0.0026552677154541016,0.0,2.7181262014331744,-1.777913499233967,-0.40768861654373156,0.7196380778102944,1.0,0.12143771415655216,-0.20758176654991245,nan,nan,nan,nan,nan,nan,nan,nan,nan,nan
18.968435764312744,0.08439449965953827,2.500156879425049,-1.7801918983459473,0.11561776617441814,0.002881765365600586,0.0,2.710755812355511,-1.776477495537268,-0.39768861654373155,0.7221338990670165,1.0,-0.05803926877933632,-0.15926453906058968,nan,nan,nan,nan,nan,nan,nan,nan,nan,nan
18.975629329681396,0.08439449965953827,2.500156879425049,-1.7801918983459473,0.11561776617441814,0.0024068355560302734,0.0,2.7030241698090904,-1.7749380464190092,-0.38768861654373155,0.7223482783418677,1.0,0.003552291909987096,-0.16221494633097944,nan,nan,nan,nan,nan,nan,nan,nan,nan,nan
18.98444962501526,0.08456699550151825,2.4712212085723877,-1.7800192832946777,0.11220206515886252,0.002465963363647461,0.0,2.694936560498377,-1.7733063819299182,-0.37768861654373154,0.722628361174684,1.0,-0.04098506168039548,-0.1462570060235012,nan,nan,nan,nan,nan,nan,nan,nan,nan,nan
18.994579553604126,0.08478190749883652,2.4419643878936768,-1.779955267906189,0.10880885351058048,0.0033648014068603516,0.0,2.686498536348121,-1.7715935455504517,-0.36768861654373153,0.7228916847937068,1.0,-0.04688750528149408,-0.1427596404967169,nan,nan,nan,nan,nan,nan,nan,nan,nan,nan
19.004899740219116,0.08490098267793655,2.427227258682251,-1.7799586057662964,0.10712525797814398,0.002827167510986328,0.0,2.677715910278342,-1.7698103874430595,-0.3576886165437315,0.7231482669552346,1.0,-0.05547688821242396,-0.1400697480091977,nan,nan,nan,nan,nan,nan,nan,nan,nan,nan
19.01461625099182,0.08502528816461563,2.412423610687256,-1.7799803018569946,0.10547064047327029,0.0024085044860839844,0.0,2.668594751794984,-1.7679675578255385,-0.3476886165437315,0.7234096624942197,1.0,-0.06232271667335627,-0.13900771276607468,nan,nan,nan,nan,nan,nan,nan,nan,nan,nan
19.0255343914032,0.08515714854001999,2.397557497024536,-1.7800432443618774,0.1038625913623408,0.003709077835083008,0.0,2.6591413823997248,-1.766075500471369,-0.3376886165437315,0.7236702093544307,1.0,-0.06861561680120987,-0.13874144268017435,nan,nan,nan,nan,nan,nan,nan,nan,nan,nan
19.034489154815674,0.08529084175825119,2.3826334476470947,-1.7801203727722168,0.10231444545396762,0.002912759780883789,0.0,2.6493623708226663,-1.7641444463427272,-0.3276886165437315,0.7239287264276278,1.0,-0.07363933189834626,-0.13913917325557915,nan,nan,nan,nan,nan,nan,nan,nan,nan,nan
19.045538187026978,0.08529084175825119,2.3826334476470947,-1.7801203727722168,0.10231444545396762,0.002835512161254883,0.0,2.6392645280818434,-1.762184407361656,-0.3176886165437315,0.72411189577751,1.0,-0.07149729646147258,-0.14138060784891338,nan,nan,nan,nan,nan,nan,nan,nan,nan,nan
19.05461835861206,0.0856889858841896,2.337557077407837,-1.7804275751113892,0.09794364208203236,0.002449512481689453,0.0,2.628854902373694,-1.760205170324673,-0.3076886165437315,0.7244980445123291,1.0,-0.08780423898246348,-0.1371684935574921,0.06650025973320008,0.06630025973320007,3.8860517574310305,3.88585175743103,-12.086506979370117,-12.086706979370117,-0.14864482071953417,-0.14884482071953414,1.50508628616333,1.50488628616333
19.235650539398193,0.0856889858841896,2.337557077407837,-1.7804275751113892,0.09794364208203236,0.0032329559326171875,0.0,2.3227174746088264,-1.7788224325966995,-0.16446495299672975,0.726842784148541,1.0,-0.08058848086662172,-0.14228609464926595,1059.9352353118772,-1061.349435752866,220319.6531915481,-220312.76092244996,220401.55008440636,-220421.1863631337,4041.2902137177075,-4041.247287816773,4092.879687368642,-4088.1307687278872
19.24640941619873,0.08032074570655823,1.9317822456359863,-1.7767248153686523,0.06594494315634943,0.002880573272705078,0.0,2.3076968472026143,-1.7773246308623034,-0.15446495299672974,0.727969455460912,0.5101987576154186,-0.1097224727613489,-0.10359630611982203,nan,nan,nan,nan,nan,nan,nan,nan,nan,nan
19.254770755767822,0.08002595603466034,1.9144450426101685,-1.7763209342956543,0.06462486299021794,0.0031065940856933594,0.0,2.2925053482102116,-1.7759396141980415,-0.14446495299672973,0.7281181255335194,0.4941967812542184,-0.08352159805494792,-0.12929135422102944,nan,nan,nan,nan,nan,nan,nan,nan,nan,nan
19.26498794555664,0.07971988618373871,1.8972218036651611,-1.7759429216384888,0.06330644002170915,0.0020596981048583984,0.0,2.277153258709027,-1.7746725212982264,-0.13446495299672973,0.7282615745252677,0.47833766520775345,-0.0976737960938297,-0.12521002306422777,nan,nan,nan,nan,nan,nan,nan,nan,nan,nan
19.27466106414795,0.07901256531476974,1.863654613494873,-1.775420069694519,0.057098735691424804,0.002566099166870117,0.0,2.261650980471946,-1.773528182460323,-0.12446495299672973,0.7277795562727872,0.4127767229229832,-0.07811825653676459,-0.1338360650527123,nan,nan,nan,nan,nan,nan,nan,nan,nan,nan
19.28455352783203,0.07901256531476974,1.863654613494873,-1.775420069694519,0.057098735691424804,0.0031516551971435547,0.0,2.2460090285422707,-1.772511116986105,-0.11446495299672974,0.7278709947332007,0.4327403925688954,-0.0862233178326706,-0.12686371497511786,nan,nan,nan,nan,nan,nan,nan,nan,nan,nan
19.294661045074463,0.078190378844738,1.8311337232589722,-1.7751586437225342,0.04864254471486826,0.0029213428497314453,0.0,2.2302380237504673,-1.7716255307858753,-0.10446495299672974,0.7276870394484843,0.49411492238508625,-0.058085219913932035,-0.128969069484082,nan,nan,nan,nan,nan,nan,nan,nan,nan,nan
19.304923057556152,0.078190378844738,1.8311337232589722,-1.7751586437225342,0.04864254471486826,0.003997802734375,0.0,2.214348685178643,-1.7708753141861389,-0.09446495299672975,0.727769925412421,0.5165963490668746,-0.06821806577975947,-0.11113373100917302,nan,nan,nan,nan,nan,nan,nan,nan,nan,nan
19.487727403640747,0.078190378844738,1.8311337232589722,-1.7751586437225342,0.04864254471486826,0.002923727035522461,0.0,1.8157281215895387,-1.7768427298371237,0.05720001421910308,0.7274233608123924,1.0,-0.061226191833317595,-0.10807810945809687,nan,nan,nan,nan,nan,nan,nan,nan,nan,nan
19.495057582855225,0.05929691717028618,1.4885611534118652,-1.775370717048645,-0.03510638880526769,0.0033483505249023438,0.0,1.8003856296151097,-1.778666044270501,0.06720001421910309,0.723928223851251,1.0,0.06640778246433962,-0.10290018891292288,nan,nan,nan,nan,nan,nan,nan,nan,nan,nan
19.50490379333496,0.05929691717028618,1.4885611534118652,-1.775370717048645,-0.03510638880526769,0.0035316944122314453,0.0,1.7851172715874304,-1.7806270500746215,0.07720001421910308,0.7239865174925362,1.0,-5.1402029875841256e-05,0.025865647039423467,nan,nan,nan,nan,nan,nan,nan,nan,nan,nan
19.514498949050903,0.058838747441768646,1.4766111373901367,-1.7754878997802734,-0.03549001087972116,0.002559661865234375,0.0,1.7699340345147727,-1.7827238892795096,0.08720001421910308,0.7239674709684433,1.0,0.06373312347977854,0.000756821961824095,nan,nan,nan,nan,nan,nan,nan,nan,nan,nan
19.524853229522705,0.05795791745185852,1.4529858827590942,-1.7759031057357788,-0.03576766210794119,0.0024671554565429688,0.0,1.7548468606118597,-1.784954384385979,0.09720001421910307,0.7238602497059348,1.0,0.017381612309661336,0.05928409825523972,nan,nan,nan,nan,nan,nan,nan,nan,nan,nan
19.534510612487793,0.057540979236364365,1.4413151741027832,-1.7762033939361572,-0.03562051494021329,0.0028574466705322266,0.0,1.739866639802167,-1.7873160400370398,0.10720001421910307,0.7237962121420084,1.0,0.05259003973002672,0.03207825066030016,nan,nan,nan,nan,nan,nan,nan,nan,nan,nan
19.54473066329956,0.05713437870144844,1.4297645092010498,-1.7765668630599976,-0.035640302491049,0.002279520034790039,0.0,1.725004202276791,-1.7898060448652222,0.11720001421910306,0.7236568305140084,1.0,0.023774401253121122,0.06046807653153085,nan,nan,nan,nan,nan,nan,nan,nan,nan,nan
19.554540157318115,0.05673673003911972,1.4183332920074463,-1.7769944667816162,-0.03599273340987945,0.0026285648345947266,0.0,1.710270311113946,-1.7924212735129654,0.12720001421910307,0.7235648816923941,1.0,0.044614523840117555,0.0407537416447926,nan,nan,nan,nan,nan,nan,nan,nan,nan,nan
19.564502239227295,0.05596465989947319,1.3957759141921997,-1.778023362159729,-0.03756939693612041,0.002215862274169922,0.0,1.695675654963026,-1.795158288823152,0.13720001421910308,0.7233323291510984,1.0,0.02852748358728616,0.05650348926225404,nan,nan,nan,nan,nan,nan,nan,nan,nan,nan
19.74471926689148,0.05596465989947319,1.3957759141921997,-1.778023362159729,-0.03756939693612041,0.0033223628997802734,0.0,1.3832729016413265,-1.780221325243024,0.029288042630698362,0.7160886525464539,1.0,0.041130180426979676,0.044830390883482264,nan,nan,nan,nan,nan,nan,nan,nan,nan,nan
19.756224393844604,0.05624302104115486,1.1771332025527954,-1.793423056602478,-0.05549084350573516,0.003494739532470703,0.0,1.3708101779657198,-1.782502005717491,0.039288042630698364,0.7152616517203505,0.5723951045117501,0.03363022464291878,0.06074926274937718,nan,nan,nan,nan,nan,nan,nan,nan,nan,nan
19.764400720596313,0.05668747425079346,1.1618506908416748,-1.7951375246047974,-0.056527230431657464,0.002100706100463867,0.0,1.3583979815702383,-1.78486547071156,0.049288042630698366,0.7154777575638774,0.5599821815760225,0.041650099911800485,0.06518031029746908,nan,nan,nan,nan,nan,nan,nan,nan,nan,nan
20.069076538085938,0.05668747425079346,1.1618506908416748,-1.7951375246047974,-0.056527230431657464,0.002696514129638672,0.0,1.1529822310474074,-1.7978581485595972,0.07748814897451907,0.7136500162119777,1.0,0.0394889682013559,0.07364631861359437,nan,nan,nan,nan,nan,nan,nan,nan,nan,nan
20.076900720596313,0.06494956463575363,0.9976974129676819,-1.8144854307174683,-0.06323086105637281,0.004251003265380859,0.0,1.1442036458302076,-1.8006144844594625,0.08748814897451906,0.7161488971029922,0.07476293958763469,0.051064453410702565,0.058689822269284465,nan,nan,nan,nan,nan,nan,nan,nan,nan,nan
20.084494829177856,0.06494956463575363,0.9976974129676819,-1.8144854307174683,-0.06323086105637281,0.002301931381225586,0.0,1.1355246032301338,-1.8034053441489466,0.09748814897451906,0.716409587235559,0.13084357345772224,0.03935127935253606,0.08255935198782308,nan,nan,nan,nan,nan,nan,nan,nan,nan,nan
20.094590187072754,0.06435897201299667,0.9958339929580688,-1.8142075538635254,-0.06240796643837454,0.0023910999298095703,0.0,1.1269547474418604,-1.8062292170924539,0.10748814897451905,0.7168201619220119,0.12276197829684521,0.04718770393662759,0.09012182417989174,nan,nan,nan,nan,nan,nan,nan,nan,nan,nan
20.104725122451782,0.06411860883235931,0.9962424635887146,-1.8136802911758423,-0.061974878895736836,0.002685070037841797,0.0,1.1185036907898969,-1.809084271921122,0.11748814897451905,0.7171031589831174,0.15749839857158165,0.04583600540147336,0.09931940887874942,nan,nan,nan,nan,nan,nan,nan,nan,nan,nan
20.11452579498291,0.06388452649116516,0.9967703223228455,-1.8132073879241943,-0.06180864880436635,0.002306222915649414,0.0,1.1101810057683228,-1.811968358173393,0.12748814897451904,0.7173605320503696,0.1966962980803696,0.048472830936255464,0.10349489783484714,nan,nan,nan,nan,nan,nan,nan,nan,nan,nan
20.125826120376587,0.06343255937099457,0.9981608986854553,-1.8124333620071411,-0.061146071855893436,0.0031697750091552734,0.0,1.101996217149503,-1.814879008225577,0.13748814897451905,0.7176180759159615,0.21879669142626657,0.04740737742030314,0.10700495445802984,nan,nan,nan,nan,nan,nan,nan,nan,nan,nan
20.134399890899658,0.06321029365062714,0.9990131855010986,-1.8121330738067627,-0.060837261706211634,0.0024566650390625,0.0,1.0939587941660767,-1.8178134394086567,0.14748814897451906,0.7178715319075937,0.2623984664642365,0.047888073087420636,0.1079569860182473,nan,nan,nan,nan,nan,nan,nan,nan,nan,nan
20.144628524780273,0.06299124658107758,0.9999640583992004,-1.8118815422058105,-0.06075886089984475,0.002402782440185547,0.0,1.0860781427703545,-1.8207685563075262,0.15748814897451907,0.7180809592761149,0.30866137693002904,0.04774628497139069,0.10796794852313478,nan,nan,nan,nan,nan,nan,nan,nan,nan,nan
20.33067774772644,0.06299124658107758,0.9999640583992004,-1.8118815422058105,-0.06075886089984475,0.0027434825897216797,0.0,0.9994780364762352,-1.8136041879115476,0.08122207786696133,0.7158335783071424,-1.0,0.047921290593479195,0.10674818256901285,nan,nan,nan,nan,nan,nan,nan,nan,nan,nan
20.337965965270996,0.0626334398984909,1.0535470247268677,-1.8220434188842773,-0.06043977396621653,0.0027735233306884766,0.0,0.999060426311575,-1.815272622764138,0.07122207786696133,0.7117331325939178,-1.0,0.06365641675222007,0.11773220856255777,0.06650025973320008,0.06630025973320007,3.8860517574310305,3.88585175743103,-12.086506979370117,-12.086706979370117,-0.14864482071953417,-0.14884482071953414,1.50508628616333,1.50488628616333
20.34490966796875,0.06297451257705688,1.0569908618927002,-1.8229433298110962,-0.060144470001163054,0.0022497177124023438,0.0,0.9987025865746209,-1.8168901582329984,0.06122207786696133,0.7118829525260558,-1.0,0.06593397339514873,0.1285363320123101,1059.9352353118772,-1061.349435752866,220319.6531915481,-220312.76092244996,220401.55008440636,-220421.1863631337,4041.2902137177075,-4041.247287816773,4092.879687368642,-4088.1307687278872
20.355145692825317,0.06332652270793915,1.0604974031448364,-1.8238985538482666,-0.059748233844175096,0.0027723312377929688,0.0,0.9983957908579149,-1.8184598066926294,0.05122207786696133,0.7120312101927277,-1.0,0.07248630730967022,0.13955494583068756,nan,nan,nan,nan,nan,nan,nan,nan,nan,nan
20.36445951461792,0.06404998153448105,1.0677305459976196,-1.825946569442749,-0.0586478207024074,0.002403736114501953,0.0,0.9981312352266553,-1.8199842797544825,0.041222077866961325,0.7122122911777724,-1.0,0.08048516361378107,0.1531226268103936,nan,nan,nan,nan,nan,nan,nan,nan,nan,nan
20.375412225723267,0.06404998153448105,1.0677305459976196,-1.825946569442749,-0.0586478207024074,0.003965139389038086,0.0,0.997900045798217,-1.8214659868075198,0.031222077866961323,0.7124561850239355,-1.0,0.08409303927320419,0.16520428536410717,nan,nan,nan,nan,nan,nan,nan,nan,nan,nan
20.38436269760132,0.06479176878929138,1.0753217935562134,-1.8281240463256836,-0.05719909662828729,0.0020194053649902344,0.0,0.997693286345684,-1.822907033766557,0.02122207786696132,0.7128030223215434,-1.0,0.0895064219280556,0.1791028721758883,nan,nan,nan,nan,nan,nan,nan,nan,nan,nan
20.39450693130493,0.06479176878929138,1.0753217935562134,-1.8281240463256836,-0.05719909662828729,0.0021212100982666016,0.0,0.9975019659194891,-1.824309222027302,0.011222077866961321,0.71303333689947,-1.0,0.09435686637537712,0.191554670293015,nan,nan,nan,nan,nan,nan,nan,nan,nan,nan
20.404563903808594,0.06555379182100296,1.0833314657211304,-1.8303810358047485,-0.05548008402698698,0.003027677536010742,0.0,0.9973170464813558,-1.8256740476268347,0.0012220778669613207,0.7134486409210775,-1.0,0.09415087963522979,0.20455966574582157,nan,nan,nan,nan,nan,nan,nan,nan,nan,nan
20.58657717704773,0.06555379182100296,1.0833314657211304,-1.8303810358047485,-0.05548008402698698,0.004727840423583984,0.0,1.087064775198174,-1.832231290953372,0.20188737448602181,0.7051584959630056,-1.0,0.10024524054909831,0.21549059123046035,nan,nan,nan,nan,nan,nan,nan,nan,nan,nan
20.596383571624756,0.07755598425865173,1.2136625051498413,-1.8411390781402588,-0.02686665843460119,0.0023910999298095703,0.0,1.090967763733877,-1.8340106499044964,0.1918873744860218,0.709212206993416,-1.0,-0.04478958531021696,0.1898090933528755,nan,nan,nan,nan,nan,nan,nan,nan,nan,nan
20.605390310287476,0.07835353910923004,1.2365318536758423,-1.8412744998931885,-0.022395992594505018,0.002656221389770508,0.0,1.0950331063847996,-1.8357261967383594,0.1818873744860218,0.710100234723706,-1.0,-0.0357574216779084,0.14700371047313163,nan,nan,nan,nan,nan,nan,nan,nan,nan,nan
20.614523887634277,0.07835353910923004,1.2365318536758423,-1.8412744998931885,-0.022395992594505018,0.002413511276245117,0.0,1.0992532946021303,-1.8373847419248268,0.1718873744860218,0.7105339533970647,-1.0,-0.057613507501894624,0.10969850339932241,nan,nan,nan,nan,nan,nan,nan,nan,nan,nan
20.62494421005249,0.07849061489105225,1.2445796728134155,-1.8412508964538574,-0.020887287872680904,0.0026366710662841797,0.0,1.1036206433407787,-1.8389928179600903,0.16188737448602178,0.7111085162670837,-1.0,-0.07472864992751618,0.07362633662474499,nan,nan,nan,nan,nan,nan,nan,nan,nan,nan
20.634432077407837,0.07861730456352234,1.2526782751083374,-1.8412387371063232,-0.01936592092431122,0.002256155014038086,0.0,1.10812729827714,-1.840556675225383,0.15188737448602177,0.711681412473379,-1.0,-0.09217304094863245,0.03929013208199044,nan,nan,nan,nan,nan,nan,nan,nan,nan,nan
20.64484691619873,0.07872820645570755,1.2608169317245483,-1.8412503004074097,-0.017847418774739617,0.0024929046630859375,0.0,1.1127652431282335,-1.8420822780689896,0.14188737448602176,0.7122344812304066,-1.0,-0.10775428637064183,0.007008063633073153,nan,nan,nan,nan,nan,nan,nan,nan,nan,nan
20.6545832157135,0.07891040295362473,1.2772345542907715,-1.841304063796997,-0.014835278285437396,0.002583742141723633,0.0,1.1175263070649457,-1.8435753011125553,0.13188737448602175,0.7129108951633669,-1.0,-0.12459420471313107,-0.023499726446032737,nan,nan,nan,nan,nan,nan,nan,nan,nan,nan
20.665294885635376,0.07898009568452835,1.2855098247528076,-1.841346263885498,-0.013370532532623922,0.002645254135131836,0.0,1.1224021722121453,-1.8450411257824455,0.12188737448602176,0.7134213208318745,-1.0,-0.13396549682815292,-0.050390256363560676,nan,nan,nan,nan,nan,nan,nan,nan,nan,nan
20.8351469039917,0.07898009568452835,1.2855098247528076,-1.841346263885498,-0.013370532532623922,0.0025413036346435547,0.0,1.2936710756152465,-1.841785662027365,0.11317295374043201,0.7180905738695532,-1.0,-0.14230077024985366,-0.07382920728667543,nan,nan,nan,nan,nan,nan,nan,nan,nan,nan
20.844526767730713,0.08267118036746979,1.474883794784546,-1.8337713479995728,0.011032299623461741,0.0023500919342041016,0.0,1.301943142585401,-1.8422570637444593,0.10317295374043202,0.7207578865341108,-0.7767312804696183,-0.014107849092651855,-0.02673507259474582,nan,nan,nan,nan,nan,nan,nan,nan,nan,nan
20.854902267456055,0.08265452086925507,1.492837905883789,-1.8330168724060059,0.012720461955023254,0.0027446746826171875,0.0,1.310316603715805,-1.8427646965771254,0.09317295374043202,0.721195100588965,-0.7649331006729391,-0.03917553535614273,-0.03412600986513998,nan,nan,nan,nan,nan,nan,nan,nan,nan,nan
20.864434480667114,0.08255071192979813,1.502095103263855,-1.8326529264450073,0.013543668680662804,0.0021567344665527344,0.0,1.3187819316842964,-1.8433124792646862,0.08317295374043203,0.7215251497268794,-0.7747329214075083,-0.025851347351404822,-0.032878673452907424,nan,nan,nan,nan,nan,nan,nan,nan,nan,nan
20.8748881816864,0.08243568986654282,1.5113134384155273,-1.8323010206222534,0.014352518211065734,0.0025086402893066406,0.0,1.327329501523309,-1.843904019663309,0.07317295374043203,0.7218441707472681,-0.78498922526433,-0.02321872315670945,-0.03265264321317769,nan,nan,nan,nan,nan,nan,nan,nan,nan,nan
20.88440179824829,0.08231012523174286,1.5204901695251465,-1.8319627046585083,0.015146788517706719,0.0022232532501220703,0.0,1.3359495983885858,-1.8445426128790223,0.06317295374043204,0.7221318203560225,-0.7958802836541816,-0.01740402985263865,-0.03093571375329588,nan,nan,nan,nan,nan,nan,nan,nan,nan,nan
20.89493489265442,0.08202989399433136,1.5387063026428223,-1.8313567638397217,0.016685774002885186,0.003428220748901367,0.0,1.3446324253610291,-1.845231239615166,0.05317295374043204,0.7224281035164628,-0.78495458045995,-0.008227046270091984,-0.027651095652498712,nan,nan,nan,nan,nan,nan,nan,nan,nan,nan
20.904703855514526,0.08187616616487503,1.5477397441864014,-1.831082820892334,0.01742974308220272,0.0033075809478759766,0.0,1.3533681112754945,-1.8459725647333616,0.043172953740432035,0.7226659393324524,-0.798951472541323,-0.007175824116894651,-0.027066949137985075,nan,nan,nan,nan,nan,nan,nan,nan,nan,nan
20.915199518203735,0.08171389251947403,1.5567197799682617,-1.8308279514312744,0.018153869871026157,0.002956390380859375,0.0,1.3621467185704281,-1.846768936026912,0.03317295374043203,0.7228953590301923,-0.8146449228601162,-0.004698476036713807,-0.02607581034598187,nan,nan,nan,nan,nan,nan,nan,nan,nan,nan
21.089534997940063,0.08171389251947403,1.5567197799682617,-1.8308279514312744,0.018153869871026157,0.002706289291381836,0.0,1.5659605074064116,-1.83193147795005,-0.05306216047941915,0.7262311585210912,-1.0,-0.005329505766463823,-0.026105663113452193,nan,nan,nan,nan,nan,nan,nan,nan,nan,nan
21.09664249420166,0.07459010928869247,1.732730746269226,-1.83501136302948,0.10789803589865068,0.0022215843200683594,0.0,1.5751483919407185,-1.83310989356845,-0.06306216047941915,0.7219556117727652,-1.0,0.20630378012891668,0.015493780432381013,nan,nan,nan,nan,nan,nan,nan,nan,nan,nan
21.10480523109436,0.07414034754037857,1.7384586334228516,-1.833927869796753,0.11102645991407734,0.0026772022247314453,0.0,1.5842730700742642,-1.834361933582321,-0.07306216047941914,0.7219361766571266,-1.0,0.13772109381248385,-0.03858407094348253,nan,nan,nan,nan,nan,nan,nan,nan,nan,nan
21.11446714401245,0.07370538264513016,1.7441343069076538,-1.8329317569732666,0.11387418258293,0.0021986961364746094,0.0,1.5933242093686215,-1.8356860194930162,-0.08306216047941914,0.7219282250454709,-1.0,0.1530461543019673,-0.05315227159300989,nan,nan,nan,nan,nan,nan,nan,nan,nan,nan
21.125219583511353,0.07328449189662933,1.7497532367706299,-1.8320192098617554,0.11648465914449654,0.00278472900390625,0.0,1.6022915159102802,-1.8370802603585952,-0.09306216047941913,0.7219172798494116,-1.0,0.14386610185945867,-0.07174374817458704,nan,nan,nan,nan,nan,nan,nan,nan,nan,nan
21.134490251541138,0.0725216269493103,1.7607306241989136,-1.8306076526641846,0.12183976655101936,0.0025539398193359375,0.0,1.6111647417279842,-1.8385424543225446,-0.10306216047941913,0.7212570036051076,-1.0,0.15406573956806083,-0.0807558818813211,0.06650025973320008,0.06630025973320007,3.8860517574310305,3.88585175743103,-12.086506979370117,-12.086706979370117,-0.14864482071953417,-0.14884482071953414,1.50508628616333,1.50488628616333
21.14471983909607,0.07216291129589081,1.766109824180603,-1.8300434350967407,0.12431277087802242,0.002427816390991211,0.0,1.6199336921568124,-1.8400700903173064,-0.11306216047941912,0.7212765045194443,-1.0,0.15005756584310653,-0.09231740891026892,1059.9352353118772,-1061.349435752866,220319.6531915481,-220312.76092244996,220401.55008440636,-220421.1863631337,4041.2902137177075,-4041.247287816773,4092.879687368642,-4088.1307687278872
21.15451407432556,0.07179532200098038,1.7714169025421143,-1.8295458555221558,0.12677673853811147,0.0024566650390625,0.0,1.6285882331449593,-1.8416603499398174,-0.12306216047941912,0.7213043894155063,-1.0,0.15067872159545478,-0.10017162552568841,nan,nan,nan,nan,nan,nan,nan,nan,nan,nan
21.16557741165161,0.071420818567276,1.7766515016555786,-1.829111933708191,0.12924213463439674,0.0025453567504882812,0.0,1.637118298499294,-1.8433101094961957,-0.13306216047941913,0.7213332501895786,-1.0,0.15077607171415344,-0.1068582940083994,nan,nan,nan,nan,nan,nan,nan,nan,nan,nan
21.175084590911865,0.07065533846616745,1.7869144678115845,-1.8284318447113037,0.1343855548076893,0.0030975341796875,0.0,1.6455138970659065,-1.8450159422126358,-0.14306216047941914,0.7212838780630239,-1.0,0.15417197548800218,-0.11254503460207203,nan,nan,nan,nan,nan,nan,nan,nan,nan,nan
21.34575653076172,0.07065533846616745,1.7869144678115845,-1.8284318447113037,0.1343855548076893,0.0026044845581054688,0.0,1.7931289140646027,-1.830309464399146,-0.01450913508657999,0.7126833842600145,-1.0,0.15174183687525877,-0.11826900827160779,nan,nan,nan,nan,nan,nan,nan,nan,nan,nan
21.354702949523926,0.05804958939552307,1.8646879196166992,-1.824623942375183,0.20170475507068925,0.003290891647338867,0.0,1.7993205846168718,-1.8321986165069648,-0.02450913508657999,0.711878136740582,-0.6897418021392951,0.21960944402514765,-0.12734273324554296,nan,nan,nan,nan,nan,nan,nan,nan,nan,nan
21.364545583724976,0.057319752871990204,1.8669545650482178,-1.8242908716201782,0.2051933949979491,0.003141164779663086,0.0,1.8054800366373411,-1.8341000799162688,-0.03450913508657999,0.7121120473915948,-0.7173692575962758,0.19710426830294298,-0.14916523731216966,nan,nan,nan,nan,nan,nan,nan,nan,nan,nan
21.37492299079895,0.05587621033191681,1.8712888956069946,-1.8238314390182495,0.21226459837262907,0.002995014190673828,0.0,1.8115978031403668,-1.8360143105934277,-0.04450913508657999,0.7123259882189532,-0.7186954907469227,0.2070229184865294,-0.16423792747189417,nan,nan,nan,nan,nan,nan,nan,nan,nan,nan
21.384639501571655,0.05516345053911209,1.8733468055725098,-1.823693037033081,0.21577063911480254,0.002271890640258789,0.0,1.8176644011680274,-1.8379414419168119,-0.05450913508657999,0.7125768171703754,-0.7471829448109143,0.20346447922433292,-0.1800764446300269,nan,nan,nan,nan,nan,nan,nan,nan,nan,nan
