time,x,y,z,yaw,ctrl_comp_time,rollout_comptime,y_ref,z_ref,yaw_ref,throttle,roll_rate,pitch_rate,yaw_rate,save_tube_pyH,save_tube_pyL,save_tube_pzH,save_tube_pzL,wy,wz
15.031593561172485,0.10923925787210464,3.9570131301879883,-12.463237762451172,-0.0015478989793204015,0.17688417434692383,0.1388871669769287,3.9456139329531874,-12.430791769964813,-0.1714549586748416,0.5861714162308659,-0.9982000358874276,0.005445507212675496,0.018667035823701786,3.9796795876097,3.9118951239138995,-12.427724845402249,-12.443685088524077,0.0,0.0
15.619256973266602,0.10923925787210464,3.9570131301879883,-12.463237762451172,-0.0015478989793204015,0.17993712425231934,0.11356568336486816,3.945111839609735,-12.419919004680498,-0.1914549586748416,0.586234171406836,-1.0,0.01224095010189189,0.04459964627750124,3.9916139662292927,3.8991656643404564,-12.413053359784518,-12.438006092741704,0.0,0.0
15.75639796257019,0.13092966377735138,3.898259401321411,-12.173439979553223,-0.0028948422965919818,0.001990079879760742,0.11545300483703613,3.944381627170598,-12.40765123995382,-0.21145495867484163,0.6923413926607412,1.0,-0.042390963817214806,-0.02034870893723545,4.006451569065623,3.8831021004939092,-12.394903346695562,-12.433015816348322,0.0,0.0
15.765183210372925,0.13092966377735138,3.898259401321411,-12.173439979553223,-0.0028948422965919818,0.0029773712158203125,0.11545300483703613,3.9433979300241897,-12.393985965922061,-0.23145495867484164,0.6910769987428365,1.0,-0.06323306688583742,-0.056410958941725285,4.025138857537552,3.8627072349161824,-12.372406088044144,-12.429581051031992,0.0,0.0
15.773684740066528,0.13092966377735138,3.898259401321411,-12.173439979553223,-0.0028948422965919818,0.0018312931060791016,0.11545300483703613,3.9421355207534594,-12.378917571334828,-0.25145495867484163,0.6898173349537046,1.0,-0.08455062686622274,-0.0952754140826091,4.049118527980258,3.836487733706726,-12.344241244672567,-12.42901401669567,0.0,0.0
15.783791303634644,0.13235293328762054,3.8894264698028564,-12.151626586914062,-0.002956384622662539,0.0026128292083740234,0.11545300483703613,3.9405694885768474,-12.362437341102053,-0.27145495867484165,0.6927977354677507,1.0,-0.10614511796060892,-0.13555261975509417,4.0806022209527795,3.8021817734410264,-12.3084456849472,-12.433263518000473,0.0,0.0
15.793892621994019,0.13235293328762054,3.8894264698028564,-12.151626586914062,-0.002956384622662539,0.0034465789794921875,0.11545300483703613,3.93867541804085,-12.34453346379254,-0.29145495867484167,0.6915444630867873,1.0,-0.1281630662608628,-0.17610520087468629,4.1229817647161795,3.7563481549602167,-12.26201666999682,-12.445311764180467,0.0,0.0
15.805140972137451,0.13235293328762054,3.8894264698028564,-12.151626586914062,-0.002956384622662539,0.0034601688385009766,0.11545300483703613,3.9364295674307264,-12.325191049040901,-0.3114549586748417,0.6902973232639368,1.0,-0.15063535323120514,-0.21819187761723544,4.181424590164736,3.693771245675581,-12.200265845711304,-12.4698204019639,0.0,0.0
15.818424940109253,0.1361279934644699,3.8634707927703857,-12.093278884887695,-0.0026709927799558053,0.0021581649780273438,0.11545300483703613,3.9338090463741597,-12.304392154789847,-0.3314549586748417,0.6951819817541801,1.0,-0.1656803531093848,-0.25383627879128945,4.263651259963719,3.60668380657526,-12.115737921480527,-12.514211881505583,0.0,0.0
15.823863744735718,0.1361279934644699,3.8634707927703857,-12.093278884887695,-0.0026709927799558053,0.0018906593322753906,0.11545300483703613,3.9307919921227725,-12.282115824265007,-0.3514549586748417,0.6939496558352863,1.0,-0.182245056868878,-0.28356666790365037,4.380718722813256,3.483984091972939,-11.99647674098445,-12.59040344984323,0.0,0.0
15.833925485610962,0.1361279934644699,3.8634707927703857,-12.093278884887695,-0.0026709927799558053,0.0038008689880371094,0.11545300483703613,3.9273577440081895,-12.258338132550955,-0.37145495867484174,0.6927257809621414,1.0,-0.19762676336726162,-0.3135714596527727,4.547245838872749,3.3110106749452433,-11.823636242417097,-12.71719627426063,0.0,0.0
15.843445062637329,0.13825997710227966,3.851311206817627,-12.067720413208008,-0.0022944504633183593,0.00443267822265625,0.11545300483703613,3.9234870155826576,-12.233032242609932,-0.39145495867484176,0.6931474868039575,1.0,-0.20820714291006695,-0.33626267354028655,4.784240198068951,3.0667159757410554,-11.569519553254892,-12.92223645015697,0.0,0.0
15.856000423431396,0.13825997710227966,3.851311206817627,-12.067720413208008,-0.0022944504633183593,0.0035583972930908203,0.11545300483703613,3.9560487022741415,-12.436717481847806,-0.15162535715400793,0.6919506547069824,1.0,-0.21900328466497407,-0.35631431024772886,3.9803317572695014,3.9322846309499866,-12.435915814625542,-12.445890940625803,0.0,0.0
15.86734390258789,0.14127175509929657,3.8310844898223877,-12.028861999511719,-0.0012943640439741222,0.002368927001953125,0.11545300483703613,3.9553923493168193,-12.42729073169947,-0.17162535715400795,0.692969424523697,1.0,-0.2206700568453397,-0.36422888823936994,3.98962681425134,3.921862098571915,-12.424144996306332,-12.440214505477915,0.0,0.0
15.875067234039307,0.14127175509929657,3.8310844898223877,-12.028861999511719,-0.0012943640439741222,0.0027866363525390625,0.11545300483703613,3.954532033585127,-12.416460062770653,-0.19162535715400797,0.6918113478088437,1.0,-0.22366333690194062,-0.36898454186400725,4.001201129615403,3.9087773801571926,-12.409477667704769,-12.434623893649906,0.0,0.0
16.004722595214844,0.1536540389060974,3.66520619392395,-11.79186725616455,0.0007047129345886527,0.0019762516021728516,0.11973428726196289,3.9534426180740563,-12.404226024277213,-0.211625357154008,0.7140892333694193,0.1906684766475315,-0.16078217597490888,-0.310694642063793,4.015679664811223,3.8923554110743117,-12.39130851076962,-12.429728590604533,0.0,0.0
16.013686656951904,0.15421031415462494,3.652980327606201,-11.777079582214355,0.00033913590812856276,0.0031371116638183594,0.11973428726196289,3.952098927311364,-12.390586080964743,-0.231625357154008,0.7144431989437027,0.02532365678045334,-0.10981685048816524,-0.2759531801451234,4.034011494219724,3.871596760222362,-12.368766081076036,-12.426398059064333,0.0,0.0
16.023393630981445,0.15477174520492554,3.6405956745147705,-11.762252807617188,-7.959144488906e-05,0.0018963813781738281,0.11973428726196289,3.950475924892872,-12.375534600738385,-0.251625357154008,0.7148077541597777,-0.14556643511324951,-0.07120549975954128,-0.2275083535725038,4.057643076057322,3.8450047130006038,-12.34052746153877,-12.425947050613438,0.0,0.0
16.034019470214844,0.15533943474292755,3.628056764602661,-11.747386932373047,-0.0005548696669493702,0.00307464599609375,0.11973428726196289,3.9485488918070204,-12.359062852249988,-0.27162535715400804,0.715180967292687,-0.3218904826165605,-0.03621539313963105,-0.17296712409936343,4.0887912325249305,3.8103126471548823,-12.304627085452706,-12.430326767872542,0.0,0.0
16.043551921844482,0.15650637447834015,3.6025660037994385,-11.717567443847656,-0.0017100520013129672,0.0027475357055664062,0.11973428726196289,3.946293605008971,-12.341159012432326,-0.29162535715400806,0.7163106779904748,-0.4557011933431474,0.0028731069179298214,-0.10902805818257333,4.130854495745586,3.764073043872889,-12.258061039183806,-12.442520566935938,0.0,0.0
16.054888248443604,0.15710332989692688,3.589602470397949,-11.702620506286621,-0.002406124823480793,0.0020520687103271484,0.11973428726196289,3.9436865157109224,-12.32180818393814,-0.3116253571540081,0.7165043632251197,-0.637235074225025,0.04103810552895246,-0.04044386183934654,4.189008209208469,3.7010627433369385,-12.196141928903863,-12.467189115624496,0.0,0.0
16.06618070602417,0.15771107375621796,3.57649564743042,-11.687662124633789,-0.003183194327630451,0.004865169525146484,0.11973428726196289,3.9407049268635825,-12.300992422410799,-0.3316253571540081,0.7166320413501722,-0.8175836369709455,0.08022071434461764,0.033252717994968116,4.270980856665921,3.6135069717288184,-12.111419034874533,-12.5117502839334,0.0,0.0
16.0776469707489,0.1587543934583664,3.533562421798706,-11.64111614227295,-0.006127962914038304,0.00461268424987793,0.11973428726196289,3.9373271693138703,-12.278690773483731,-0.3516253571540081,0.7177159096247774,-0.8389543456887842,0.1264013028285276,0.11502376408273027,4.387834416592366,3.49029934053739,-11.991945813705952,-12.588111706072988,0.0,0.0
16.090229988098145,0.1587543934583664,3.533562421798706,-11.64111614227295,-0.006127962914038304,0.00432896614074707,0.11973428726196289,3.9335327761356678,-12.254879319377158,-0.37162535715400813,0.7172843351447504,-1.0,0.1637787036847424,0.1835550917103582,4.554182810837952,3.3167837485175844,-11.818889759116484,-12.715061003341464,0.0,0.0
16.10529088973999,0.1592666059732437,3.503453016281128,-11.609625816345215,-0.00852176781960684,0.0034220218658447266,0.11973428726196289,3.956048702274105,-12.436717481847804,-0.15162535715400793,0.7177232384428338,-1.0,0.198334423497245,0.24131549983604286,3.9803317572694703,3.932284630949956,-12.435915814625542,-12.445890940625803,0.0,0.0
16.11976933479309,0.16021153330802917,3.4574787616729736,-11.562541961669922,-0.012413531116897525,0.0036263465881347656,0.11973428726196289,3.9553923493167704,-12.427290731699468,-0.17162535715400795,0.7183454560514497,-1.0,0.22090582067455528,0.269373567688071,3.989626814251298,3.9218620985718724,-12.42414499630633,-12.440214505477917,0.0,0.0
16.130041360855103,0.16021153330802917,3.4574787616729736,-11.562541961669922,-0.012413531116897525,0.0030946731567382812,0.11973428726196289,3.9545320335850636,-12.416460062770648,-0.19162535715400797,0.7179409371289855,-1.0,0.235626889656472,0.2871969847206863,4.001201129615348,3.908777380157136,-12.409477667704765,-12.434623893649908,0.0,0.0
16.26472568511963,0.16733229160308838,3.1757428646087646,-11.299758911132812,-0.032984001710870986,0.0029904842376708984,0.12359333038330078,3.9534426180739763,-12.404226024277207,-0.211625357154008,0.6886569865608008,1.0,0.11169451555646312,-0.022231054179767416,4.015679664811154,3.892355411074239,-12.39130851076961,-12.429728590604537,0.0,0.0
16.273854970932007,0.1678008884191513,3.157809019088745,-11.284353256225586,-0.03388943316149931,0.00185394287109375,0.12359333038330078,3.9520989273112654,-12.390586080964734,-0.231625357154008,0.6879693920690532,1.0,0.07071921632845184,0.04805312520786254,4.034011494219639,3.8715967602222707,-12.36876608107602,-12.426398059064336,0.0,0.0
16.28384757041931,0.16876395046710968,3.1214118003845215,-11.253495216369629,-0.0355809516906016,0.0028166770935058594,0.12359333038330078,3.9504759248927526,-12.375534600738373,-0.251625357154008,0.6870737248502857,1.0,0.04885761087707735,0.06460709995563309,4.057643076057218,3.8450047130004905,-12.340527461538745,-12.425947050613447,0.0,0.0
16.293864250183105,0.16925562918186188,3.1029393672943115,-11.238038063049316,-0.03636308975912042,0.003650188446044922,0.12359333038330078,3.948548891806878,-12.359062852249972,-0.27162535715400804,0.6863497424791405,1.0,0.034935698915873004,0.06588204508660148,4.088791232524807,3.8103126471547446,-12.304627085452669,-12.430326767872556,0.0,0.0
16.303932905197144,0.16975222527980804,3.0842785835266113,-11.222552299499512,-0.03710584484738305,0.0021162033081054688,0.12359333038330078,3.9462936050088033,-12.341159012432309,-0.29162535715400806,0.6856237551445703,1.0,0.02328043668026358,0.06274573332562054,4.130854495745442,3.764073043872723,-12.258061039183755,-12.442520566935961,0.0,0.0
16.313629627227783,0.17025230824947357,3.0654239654541016,-11.207037925720215,-0.03783435073919106,0.0032567977905273438,0.12359333038330078,3.943686515710726,-12.321808183938117,-0.3116253571540081,0.6848951559962433,1.0,0.012326657792189314,0.05855757853073383,4.189008209208303,3.7010627433367405,-12.196141928903794,-12.46718911562453,0.0,0.0
16.323420763015747,0.17163443565368652,3.02687668800354,-11.175671577453613,-0.0391501654451078,0.0020263195037841797,0.12359333038330078,3.9407049268633556,-12.30099242241077,-0.3316253571540081,0.6840235926934314,1.0,-0.003396678375292734,0.05419084330812909,4.270980856665731,3.6135069717285866,-12.111419034874446,-12.511750283933445,0.0,0.0
16.3339786529541,0.17251460254192352,3.0071778297424316,-11.159811973571777,-0.039530484451343606,0.0027811527252197266,0.12359333038330078,3.9373271693136096,-12.278690773483698,-0.3516253571540081,0.683581193435436,1.0,-0.01470690915641775,0.05023703231482834,4.387834416592142,3.4902993405371285,-11.991945813705852,-12.588111706073033,0.0,0.0
16.34373664855957,0.17338906228542328,2.9872806072235107,-11.143922805786133,-0.039773663088982586,0.003274202346801758,0.12359333038330078,3.9335327761353707,-12.254879319377117,-0.37162535715400813,0.6832747314426976,1.0,-0.02342361475734837,0.04742298290157117,4.554182810837668,3.316783748517314,-11.818889759116393,-12.715061003341487,0.0,0.0
16.35399079322815,0.1742573082447052,2.96718692779541,-11.127979278564453,-0.03987834276758817,0.002089977264404297,0.12359333038330078,3.9557444564115842,-12.43217975089212,-0.16162535715400794,0.683086066978069,1.0,-0.03030666778422682,0.04568136735516443,3.9803317572694703,3.932284630949956,-12.435915814625542,-12.445890940625803,0.0,0.0
16.364405155181885,0.17597393691539764,2.9264156818389893,-11.095913887023926,-0.03970738183379646,0.005344390869140625,0.12359333038330078,3.954989254886241,-12.422050780677333,-0.18162535715400796,0.6832689322714102,1.0,-0.0376542573972131,0.04501643398668145,3.989626814251298,3.9218620985718724,-12.42414499630633,-12.440214505477917,0.0,0.0
16.375361442565918,0.17597393691539764,2.9264156818389893,-11.095913887023926,-0.03970738183379646,0.0031211376190185547,0.12359333038330078,3.954017537942695,-12.41051855068707,-0.20162535715400798,0.6829712807598367,1.0,-0.040823397488457557,0.04453000583433001,4.001201129615348,3.908777380157136,-12.409477667704765,-12.434623893649908,0.0,0.0
16.506736516952515,0.18842339515686035,2.5202975273132324,-10.791598320007324,-0.030951117221426933,0.0019378662109375,0.11888551712036133,3.9528041272209533,-12.397582070070175,-0.221625357154008,0.7152117829838751,1.0,-0.04144598882506926,0.045637224856092444,4.015679664811154,3.892355411074239,-12.39130851076961,-12.429728590604537,0.0,0.0
16.51425266265869,0.18842339515686035,2.5202975273132324,-10.791598320007324,-0.030951117221426933,0.003309965133666992,0.11888551712036133,3.951323894528853,-12.383237256076091,-0.241625357154008,0.714843954360574,1.0,-0.04171986045485355,0.046028550765467635,4.034011494219639,3.8715967602222707,-12.36876608107602,-12.426398059064336,0.0,0.0
16.523476362228394,0.18947061896324158,2.4713776111602783,-10.756049156188965,-0.029934016942917974,0.0020072460174560547,0.11888551712036133,3.949551939839775,-12.36747692666261,-0.26162535715400803,0.7160110736420455,1.0,-0.040811879191651926,0.04583999031603877,4.057643076057218,3.8450047130004905,-12.340527461538745,-12.425947050613447,0.0,0.0
16.535300970077515,0.18998292088508606,2.4467711448669434,-10.738198280334473,-0.029430054094040356,0.002529621124267578,0.11888551712036133,3.9474637698090818,-12.350290803059856,-0.28162535715400805,0.7164243254007339,1.0,-0.03980116149857508,0.04548887056206675,4.088791232524807,3.8103126471547446,-12.304627085452669,-12.430326767872556,0.0,0.0
16.54380202293396,0.1904946118593216,2.4220786094665527,-10.720319747924805,-0.028948140658741628,0.0029668807983398438,0.11888551712036133,3.945035476272521,-12.33166552226416,-0.30162535715400807,0.7168191282034863,1.0,-0.03872036504805663,0.04504500251739124,4.130854495745442,3.764073043872723,-12.258061039183755,-12.442520566935961,0.0,0.0
16.55352807044983,0.19100545346736908,2.397301435470581,-10.702401161193848,-0.02847370833126478,0.002079010009765625,0.11888551712036133,3.9422439141971575,-12.311584659403943,-0.3216253571540081,0.717081171278683,1.0,-0.037582949050847934,0.04453528220271316,4.189008209208303,3.7010627433367405,-12.196141928903794,-12.46718911562453,0.0,0.0
16.56418538093567,0.19202403724193573,2.3475003242492676,-10.666495323181152,-0.027547814380194963,0.0033931732177734375,0.11888551712036133,3.939066878564634,-12.29002875988944,-0.3416253571540081,0.7178574570534682,1.0,-0.035770286910854716,0.04363944727213639,4.270980856665731,3.6135069717285866,-12.111419034874446,-12.511750283933445,0.0,0.0
16.573509454727173,0.19233806431293488,2.3214430809020996,-10.648479461669922,-0.027089835091464662,0.0019154548645019531,0.11888551712036133,3.9354832796774897,-12.266975381228937,-0.3616253571540081,0.7179534295874708,1.0,-0.034259278378236495,0.0428822678581565,4.387834416592142,3.4902993405371285,-11.991945813705852,-12.588111706073033,0.0,0.0
16.58380103111267,0.192658469080925,2.295332193374634,-10.630455017089844,-0.026588506597439943,0.0026845932006835938,0.11888551712036133,3.931473316391871,-12.242399144366342,-0.38162535715400814,0.7180349027201609,1.0,-0.03283039718037104,0.042130386451563875,4.554182810837668,3.316783748517314,-11.818889759116393,-12.715061003341487,0.0,0.0
16.59347367286682,0.1929851472377777,2.2691714763641357,-10.612444877624512,-0.026095223265742554,0.003208160400390625,0.11888551712036133,3.9553923493167704,-12.427290731699468,-0.17162535715400795,0.7181085837808354,1.0,-0.03144384061480973,0.041364333082779745,3.9803317572694703,3.932284630949956,-12.435915814625542,-12.445890940625803,0.0,0.0
16.603532552719116,0.19331783056259155,2.2429659366607666,-10.594429969787598,-0.025611308297178476,0.0021088123321533203,0.11888551712036133,3.9545320335850636,-12.416460062770648,-0.19162535715400797,0.7181805960351798,1.0,-0.03008996744864149,0.040579611176008744,3.989626814251298,3.9218620985718724,-12.42414499630633,-12.440214505477917,0.0,0.0
16.613908767700195,0.19365695118904114,2.2167184352874756,-10.576410293579102,-0.025132417399359355,0.005407094955444336,0.11888551712036133,3.9534426180739763,-12.404226024277207,-0.211625357154008,0.7182508239355021,1.0,-0.028745986091640807,0.039767733985877185,4.001201129615348,3.908777380157136,-12.409477667704765,-12.434623893649908,0.0,0.0
16.626051664352417,0.19365695118904114,2.2167184352874756,-10.576410293579102,-0.025132417399359355,0.003900289535522461,0.11888551712036133,3.9520989273112654,-12.390586080964734,-0.231625357154008,0.7176837803287027,1.0,-0.02807646227877264,0.03941247768155812,4.015679664811154,3.892355411074239,-12.39130851076961,-12.429728590604537,0.0,0.0
16.75424861907959,0.20327168703079224,1.7400623559951782,-10.252630233764648,-0.01676733645728235,0.0019614696502685547,0.11480927467346191,3.9504759248927526,-12.375534600738373,-0.251625357154008,0.7053265483375569,1.0,-0.010062255992305539,0.02175419868978258,4.034011494219639,3.8715967602222707,-12.36876608107602,-12.426398059064336,0.0,0.0
16.763933181762695,0.20484229922294617,1.6871572732925415,-10.216719627380371,-0.015818183450853125,0.004004478454589844,0.11480927467346191,3.948548891806878,-12.359062852249972,-0.27162535715400804,0.7064891390174991,1.0,-0.00048360647235534996,0.015529663378229044,4.057643076057218,3.8450047130004905,-12.340527461538745,-12.425947050613447,0.0,0.0
16.77449607849121,0.20563754439353943,1.6607884168624878,-10.198752403259277,-0.015350331775551115,0.0019252300262451172,0.11480927467346191,3.9462936050088033,-12.341159012432309,-0.29162535715400806,0.7065820595231692,1.0,0.003852755936439469,0.014672034139336279,4.088791232524807,3.8103126471547446,-12.304627085452669,-12.430326767872556,0.0,0.0
16.784095525741577,0.20643961429595947,1.634481430053711,-10.180778503417969,-0.01488727299374034,0.002480745315551758,0.11480927467346191,3.943686515710726,-12.321808183938117,-0.3116253571540081,0.706681074837317,1.0,0.006452488074323661,0.014614203010859958,4.130854495745442,3.764073043872723,-12.258061039183755,-12.442520566935961,0.0,0.0
16.793564319610596,0.20724879205226898,1.6082409620285034,-10.162816047668457,-0.01442872373329542,0.0032651424407958984,0.11480927467346191,3.9407049268633556,-12.30099242241077,-0.3316253571540081,0.7068029764100294,1.0,0.008526815639436044,0.014328297083219393,4.189008209208303,3.7010627433367405,-12.196141928903794,-12.46718911562453,0.0,0.0
16.80383610725403,0.2088896632194519,1.5559766292572021,-10.126846313476562,-0.013530322321623434,0.0021190643310546875,0.11480927467346191,3.9373271693136096,-12.278690773483698,-0.3516253571540081,0.708267560047982,1.0,0.011511683191286834,0.01264743981099331,4.270980856665731,3.6135069717285866,-12.111419034874446,-12.511750283933445,0.0,0.0
16.813840627670288,0.2097274512052536,1.5299654006958008,-10.108833312988281,-0.013089106475402602,0.003236532211303711,0.11480927467346191,3.9335327761353707,-12.254879319377117,-0.37162535715400813,0.7084918992241697,1.0,0.013375078935224003,0.012181602867850763,4.387834416592142,3.4902993405371285,-11.991945813705852,-12.588111706073033,0.0,0.0
16.82340431213379,0.21057330071926117,1.5040379762649536,-10.090797424316406,-0.012652208744965986,0.001996278762817383,0.11480927467346191,3.929302654643472,-12.229531234933525,-0.39162535715400815,0.7087305409853293,1.0,0.014808573659893945,0.011850824738454155,4.554182810837668,3.316783748517314,-11.818889759116393,-12.715061003341487,0.0,0.0
16.833971738815308,0.21075646579265594,1.4778032302856445,-10.073382377624512,-0.012221096312364732,0.002717256546020508,0.11480927467346191,3.954989254886241,-12.422050780677333,-0.18162535715400796,0.7089381965090079,1.0,0.015283353722445573,0.012035192137994394,3.9803317572694703,3.932284630949956,-12.435915814625542,-12.445890940625803,0.0,0.0
16.84347939491272,0.21118034422397614,1.4256415367126465,-10.038458824157715,-0.0115585159139927,0.0027616024017333984,0.11480927467346191,3.954017537942695,-12.41051855068707,-0.20162535715400798,0.7105790353542651,1.0,0.015131956279793394,0.012100510110243448,3.989626814251298,3.9218620985718724,-12.42414499630633,-12.440214505477917,0.0,0.0
16.85348606109619,0.21142049133777618,1.3997228145599365,-10.02093505859375,-0.011232815585132082,0.002093791961669922,0.11480927467346191,3.9528041272209533,-12.397582070070175,-0.221625357154008,0.7108200021278809,1.0,0.01478811691182518,0.012051535496144766,4.001201129615348,3.908777380157136,-12.409477667704765,-12.434623893649908,0.0,0.0
16.989198923110962,0.21589334309101105,0.9788868427276611,-9.714665412902832,-0.006905096624294282,0.001984119415283203,0.1274106502532959,3.951323894528853,-12.383237256076091,-0.241625357154008,0.7181827328654882,0.4184115997423775,0.004518879980747744,0.019526492168561255,4.015679664811154,3.892355411074239,-12.39130851076961,-12.429728590604537,0.0,0.0
16.996347427368164,0.21589334309101105,0.9788868427276611,-9.714665412902832,-0.006905096624294282,0.0025413036346435547,0.1274106502532959,3.949551939839775,-12.36747692666261,-0.26162535715400803,0.7168010989034121,0.4241578419904435,0.0033595487441753914,0.013183239218504547,4.034011494219639,3.8715967602222707,-12.36876608107602,-12.426398059064336,0.0,0.0
17.004910469055176,0.21589334309101105,0.9788868427276611,-9.714665412902832,-0.006905096624294282,0.002000093460083008,0.1274106502532959,3.9474637698090818,-12.350290803059856,-0.28162535715400805,0.7154184851611572,0.4326105303918649,0.002678452443800069,0.010342202850743734,4.057643076057218,3.8450047130004905,-12.340527461538745,-12.425947050613447,0.0,0.0
17.01402759552002,0.21629804372787476,0.9322884678840637,-9.67740249633789,-0.006563592751489128,0.0042612552642822266,0.1274106502532959,3.945035476272521,-12.33166552226416,-0.30162535715400807,0.7177115991879672,0.32113405882579116,0.0010669989299899342,0.00954578634780183,4.088791232524807,3.8103126471547446,-12.304627085452669,-12.430326767872556,0.0,0.0
17.023568153381348,0.21629804372787476,0.9322884678840637,-9.67740249633789,-0.006563592751489128,0.001992940902709961,0.1274106502532959,3.9422439141971575,-12.311584659403943,-0.3216253571540081,0.7163045798509776,0.3357187303705119,0.0005913279086534408,0.008574859976484744,4.130854495745442,3.764073043872723,-12.258061039183755,-12.442520566935961,0.0,0.0
17.035539865493774,0.21703484654426575,0.8638910055160522,-9.621156692504883,-0.00606641087679699,0.002332448959350586,0.1274106502532959,3.939066878564634,-12.29002875988944,-0.3416253571540081,0.7204873922304488,0.1487298135180406,-0.0015361442680078916,0.00880163423448807,4.189008209208303,3.7010627433367405,-12.196141928903794,-12.46718911562453,0.0,0.0
17.043534755706787,0.21703484654426575,0.8638910055160522,-9.621156692504883,-0.00606641087679699,0.004015922546386719,0.1274106502532959,3.9354832796774897,-12.266975381228937,-0.3616253571540081,0.7190470679219215,0.16989747885277762,-0.0020854058565735497,0.008018035287223793,4.270980856665731,3.6135069717285866,-12.111419034874446,-12.511750283933445,0.0,0.0
17.0546293258667,0.21793027222156525,0.7974011301994324,-9.564571380615234,-0.005694633637049862,0.0021584033966064453,0.1274106502532959,3.931473316391871,-12.242399144366342,-0.38162535715400814,0.7231394247640597,-0.014370827474573522,-0.0035030625479329142,0.007719725384921661,4.387834416592142,3.4902993405371285,-11.991945813705852,-12.588111706073033,0.0,0.0
17.064000129699707,0.21793027222156525,0.7974011301994324,-9.564571380615234,-0.005694633637049862,0.005229949951171875,0.1274106502532959,3.9270186467940156,-12.216271794368467,-0.40162535715400816,0.7216739868482974,0.013408643057721048,-0.003913435515411937,0.007251623889330559,4.554182810837668,3.316783748517314,-11.818889759116393,-12.715061003341487,0.0,0.0
17.07658863067627,0.21793027222156525,0.7974011301994324,-9.564571380615234,-0.005694633637049862,0.0036499500274658203,0.1274106502532959,3.9545320335850636,-12.416460062770648,-0.19162535715400797,0.7202087732788263,0.04407912364994748,-0.004030517185758873,0.006820492986629539,3.9803317572694703,3.932284630949956,-12.435915814625542,-12.445890940625803,0.0,0.0
17.090168237686157,0.22037430107593536,0.6907178163528442,-9.46923542022705,-0.005276275187545809,0.0019040107727050781,0.1274106502532959,3.9534426180739763,-12.404226024277207,-0.211625357154008,0.7279676754157033,-0.2337627040762742,-0.00430247980045139,0.006030592583987485,3.989626814251298,3.9218620985718724,-12.42414499630633,-12.440214505477917,0.0,0.0
17.09856104850769,0.22037430107593536,0.6907178163528442,-9.46923542022705,-0.005276275187545809,0.003403186798095703,0.1274106502532959,3.9520989273112654,-12.390586080964734,-0.231625357154008,0.7264851140004094,-0.1959817169750515,-0.004427900825301926,0.006157659784868923,4.001201129615348,3.908777380157136,-12.409477667704765,-12.434623893649908,0.0,0.0
17.22910761833191,0.23291327059268951,0.37738028168678284,-9.140228271484375,-0.0049357629842451956,0.0025327205657958984,0.11974191665649414,3.9504759248927526,-12.375534600738373,-0.251625357154008,0.7428162303955125,0.2771935640435653,0.002188374873329959,0.002542438993056686,4.015679664811154,3.892355411074239,-12.39130851076961,-12.429728590604537,0.0,0.0
17.237676858901978,0.23291327059268951,0.37738028168678284,-9.140228271484375,-0.0049357629842451956,0.001993417739868164,0.11974191665649414,3.948548891806878,-12.359062852249972,-0.27162535715400804,0.741637154708804,0.36123610304675835,0.0034721146424563443,0.0035479413214925394,4.034011494219639,3.8715967602222707,-12.36876608107602,-12.426398059064336,0.0,0.0
17.244566679000854,0.23291327059268951,0.37738028168678284,-9.140228271484375,-0.0049357629842451956,0.002547740936279297,0.11974191665649414,3.9462936050088033,-12.341159012432309,-0.29162535715400806,0.7404616025717957,0.4486274091742626,0.003967099074479749,0.0046015692420260795,4.057643076057218,3.8450047130004905,-12.340527461538745,-12.425947050613447,0.0,0.0
17.25374937057495,0.23461656272411346,0.3464946150779724,-9.101581573486328,-0.00496554091303783,0.0023670196533203125,0.11974191665649414,3.943686515710726,-12.321808183938117,-0.3116253571540081,0.7423186944905545,0.46389015481236107,0.005348657521342989,0.004093395538758163,4.088791232524807,3.8103126471547446,-12.304627085452669,-12.430326767872556,0.0,0.0
17.263638496398926,0.2354886382818222,0.3313646614551544,-9.082180976867676,-0.004979801634925979,0.0033478736877441406,0.11974191665649414,3.9407049268633556,-12.30099242241077,-0.3316253571540081,0.7426632001506642,0.5209519969984813,0.006126391548425566,0.0048034012413900595,4.130854495745442,3.764073043872723,-12.258061039183755,-12.442520566935961,0.0,0.0
17.273734092712402,0.23637403547763824,0.3164421617984772,-9.062729835510254,-0.004994661410048479,0.001878499984741211,0.11974191665649414,3.9373271693136096,-12.278690773483698,-0.3516253571540081,0.743000029947624,0.5813261836187774,0.007027776371665997,0.004918588567928553,4.189008209208303,3.7010627433367405,-12.196141928903794,-12.46718911562453,0.0,0.0
17.283889055252075,0.23727256059646606,0.30172789096832275,-9.043234825134277,-0.005004257739638279,0.002955913543701172,0.11974191665649414,3.9335327761353707,-12.254879319377117,-0.37162535715400813,0.7432656997720061,0.6425969857975298,0.007856358694044977,0.00510475531508002,4.270980856665731,3.6135069717285866,-12.111419034874446,-12.511750283933445,0.0,0.0
17.293415546417236,0.23910774290561676,0.27292829751968384,-9.004162788391113,-0.004986800846535272,0.0038628578186035156,0.11974191665649414,3.929302654643472,-12.229531234933525,-0.39162535715400815,0.7447965250434346,0.6545429186562389,0.0092141520119621,0.004667367576697515,4.387834416592142,3.4902993405371285,-11.991945813705852,-12.588111706073033,0.0,0.0
17.304414987564087,0.24004404246807098,0.25884291529655457,-8.98459243774414,-0.004957174352989618,0.0020532608032226562,0.11974191665649414,3.924619255615868,-12.202616852907575,-0.41162535715400816,0.7450017236445633,0.7088434433927197,0.009900473421448789,0.005598944202224801,4.554182810837668,3.316783748517314,-11.818889759116393,-12.715061003341487,0.0,0.0
17.313535928726196,0.24098676443099976,0.24496868252754211,-8.964995384216309,-0.004916662983760339,0.002878904342651367,0.11974191665649414,3.954017537942695,-12.41051855068707,-0.20162535715400798,0.7452112240611608,0.7614356884209975,0.010765754069710457,0.005495180375395023,3.9803317572694703,3.932284630949956,-12.435915814625542,-12.445890940625803,0.0,0.0
17.323432683944702,0.24194183945655823,0.2313043475151062,-8.94537353515625,-0.004872830686906887,0.0020911693572998047,0.11974191665649414,3.9528041272209533,-12.397582070070175,-0.221625357154008,0.7454242177701346,0.8124113559215651,0.011417908770019128,0.005770391726986082,3.989626814251298,3.9218620985718724,-12.42414499630633,-12.440214505477917,0.0,0.0
17.333853244781494,0.24290913343429565,0.21785062551498413,-8.925725936889648,-0.004820728247508288,0.0031478404998779297,0.11974191665649414,3.951323894528853,-12.383237256076091,-0.241625357154008,0.7456411534310364,0.8619529731524445,0.012142687921863933,0.005655193930934985,4.001201129615348,3.908777380157136,-12.409477667704765,-12.434623893649908,0.0,0.0
17.457081079483032,0.2561529278755188,0.039524953812360764,-8.595078468322754,-0.0029800869704427746,0.0019838809967041016,0.11370635032653809,3.949551939839775,-12.36747692666261,-0.26162535715400803,0.7528821191623171,-0.9180678387305736,0.0174328632627832,-0.0021754220198080126,4.015679664811154,3.892355411074239,-12.39130851076961,-12.429728590604537,0.0,0.0
17.4657621383667,0.2561529278755188,0.039524953812360764,-8.595078468322754,-0.0029800869704427746,0.0031447410583496094,0.11370635032653809,3.9474637698090818,-12.350290803059856,-0.28162535715400805,0.7518048784819231,-0.8064962089422083,0.016610406906092976,0.0036474356105527695,4.034011494219639,3.8715967602222707,-12.36876608107602,-12.426398059064336,0.0,0.0
17.473891019821167,0.25710082054138184,0.031831044703722,-8.57552433013916,-0.0028524952628042888,0.001905202865600586,0.11370635032653809,3.945035476272521,-12.33166552226416,-0.30162535715400807,0.7519375236526158,-0.8437077149829713,0.01767688633928656,0.0068633403070539785,4.057643076057218,3.8450047130004905,-12.340527461538745,-12.425947050613447,0.0,0.0
17.483872652053833,0.25806528329849243,0.02436995878815651,-8.555920600891113,-0.002722056603887607,0.0034363269805908203,0.11370635032653809,3.9422439141971575,-12.311584659403943,-0.3216253571540081,0.7520742839213402,-0.8800182900143789,0.01888567585894898,0.008777193433029486,4.088791232524807,3.8103126471547446,-12.304627085452669,-12.430326767872556,0.0,0.0
17.4934139251709,0.25904610753059387,0.01714598573744297,-8.536266326904297,-0.0025934646481231005,0.0033109188079833984,0.11370635032653809,3.939066878564634,-12.29002875988944,-0.3416253571540081,0.7522146617430716,-0.9155018995460749,0.019964328645165827,0.010172534729556367,4.130854495745442,3.764073043872723,-12.258061039183755,-12.442520566935961,0.0,0.0
17.505725860595703,0.25904610753059387,0.01714598573744297,-8.536266326904297,-0.0025934646481231005,0.0034003257751464844,0.11370635032653809,3.9354832796774897,-12.266975381228937,-0.3616253571540081,0.7511610190560739,-0.7891092895207534,0.020582231803202396,0.011070028751670392,4.189008209208303,3.7010627433367405,-12.196141928903794,-12.46718911562453,0.0,0.0
17.518887281417847,0.2631191909313202,-0.009238229133188725,-8.457256317138672,-0.0021965991400393625,0.0040662288665771484,0.11370635032653809,3.931473316391871,-12.242399144366342,-0.38162535715400814,0.7543081912306839,-1.0,0.022444697310374715,0.012882928073193693,4.270980856665731,3.6135069717285866,-12.111419034874446,-12.511750283933445,0.0,0.0
17.530653476715088,0.2631191909313202,-0.009238229133188725,-8.457256317138672,-0.0021965991400393625,0.004053831100463867,0.11370635032653809,3.9270186467940156,-12.216271794368467,-0.40162535715400816,0.7532806161142643,-1.0,0.023427819642609635,0.013839214708732603,4.387834416592142,3.4902993405371285,-11.991945813705852,-12.588111706073033,0.0,0.0
17.540253162384033,0.2663153111934662,-0.026234766468405724,-8.397640228271484,-0.0021057088747616637,0.0019001960754394531,0.11370635032653809,3.922102555853336,-12.188562270265361,-0.4216253571540082,0.7552917100798483,-1.0,0.02442780301092736,0.015210787414821174,4.554182810837668,3.316783748517314,-11.818889759116393,-12.715061003341487,0.0,0.0
17.547290802001953,0.2663153111934662,-0.026234766468405724,-8.397640228271484,-0.0021057088747616637,0.002802133560180664,0.11370635032653809,3.9534426180739763,-12.404226024277207,-0.211625357154008,0.7543041364591138,-1.0,0.025061636226273446,0.016224039874757304,3.9803317572694703,3.932284630949956,-12.435915814625542,-12.445890940625803,0.0,0.0
17.55633521080017,0.2685198485851288,-0.03623316437005997,-8.357741355895996,-0.0021142823914966635,0.0019969940185546875,0.11370635032653809,3.9520989273112654,-12.390586080964734,-0.231625357154008,0.7553156641808028,-1.0,0.02555953721843605,0.017204259259617938,3.989626814251298,3.9218620985718724,-12.42414499630633,-12.440214505477917,0.0,0.0
17.563918590545654,0.2685198485851288,-0.03623316437005997,-8.357741355895996,-0.0021142823914966635,0.003008604049682617,0.11370635032653809,3.9504759248927526,-12.375534600738373,-0.251625357154008,0.7543653796841897,-1.0,0.02595868558899094,0.0178523463689894,4.001201129615348,3.908777380157136,-12.409477667704765,-12.434623893649908,0.0,0.0
17.70689368247986,0.3006906807422638,-0.058635447174310684,-7.9672346115112305,-0.0017222491223227998,0.001970052719116211,0.1311488151550293,3.948548891806878,-12.359062852249972,-0.27162535715400804,0.767481345312516,-0.17505575981550847,0.02468951739602297,0.015342364731074726,4.015679664811154,3.892355411074239,-12.39130851076961,-12.429728590604537,0.0,0.0
17.713870525360107,0.3006906807422638,-0.058635447174310684,-7.9672346115112305,-0.0017222491223227998,0.003665447235107422,0.1311488151550293,3.9462936050088033,-12.341159012432309,-0.29162535715400806,0.766817418911146,-0.009400347564207046,0.02427092262217547,0.01739594120515947,4.034011494219639,3.8715967602222707,-12.36876608107602,-12.426398059064336,0.0,0.0
17.7233989238739,0.30342262983322144,-0.05526529997587204,-7.946359634399414,-0.0016606949673138582,0.0019390583038330078,0.1311488151550293,3.943686515710726,-12.321808183938117,-0.3116253571540081,0.7668373868855723,0.11987949413909726,0.025058296264651374,0.017273387708794954,4.057643076057218,3.8450047130004905,-12.340527461538745,-12.425947050613447,0.0,0.0
17.735599040985107,0.3088225722312927,-0.04821693152189255,-7.904659271240234,-0.0015241096108296048,0.0025866031646728516,0.1311488151550293,3.9407049268633556,-12.30099242241077,-0.3316253571540081,0.7675437011841479,0.2218092334909756,0.025982567959781593,0.017092181399608455,4.088791232524807,3.8103126471547446,-12.304627085452669,-12.430326767872556,0.0,0.0
17.743380308151245,0.3114892840385437,-0.04455142095685005,-7.883836269378662,-0.001453523895880604,0.0039539337158203125,0.1311488151550293,3.9373271693136096,-12.278690773483698,-0.3516253571540081,0.7675764162345514,0.36587752585409494,0.026550846509246277,0.01726340847598576,4.130854495745442,3.764073043872723,-12.258061039183755,-12.442520566935961,0.0,0.0
17.75419020652771,0.3141342103481293,-0.040795110166072845,-7.863058090209961,-0.0013763164807569228,0.002009868621826172,0.1311488151550293,3.9335327761353707,-12.254879319377117,-0.37162535715400813,0.7675233228914907,0.512138414619467,0.027177170138280686,0.016858709621870083,4.189008209208303,3.7010627433367405,-12.196141928903794,-12.46718911562453,0.0,0.0
17.763860940933228,0.3167574107646942,-0.03694998100399971,-7.842319965362549,-0.0012849430200135847,0.005502223968505859,0.1311488151550293,3.929302654643472,-12.229531234933525,-0.39162535715400815,0.767410087051882,0.6576345585026937,0.02768490751589601,0.016286169360851366,4.270980856665731,3.6135069717285866,-12.111419034874446,-12.511750283933445,0.0,0.0
17.774781465530396,0.3167574107646942,-0.03694998100399971,-7.842319965362549,-0.0012849430200135847,0.001996278762817383,0.1311488151550293,3.924619255615868,-12.202616852907575,-0.41162535715400816,0.7668224160234861,0.8419739658307042,0.027752410522819564,0.01568669802422354,4.387834416592142,3.4902993405371285,-11.991945813705852,-12.588111706073033,0.0,0.0
17.785425662994385,0.3244999945163727,-0.024910271167755127,-7.780385971069336,-0.0009140379891639239,0.003502368927001953,0.1311488151550293,3.9194667392649856,-12.174103738301804,-0.4316253571540082,0.7675691259020947,0.8853505837224396,0.029377414174853192,0.012579181847116733,4.554182810837668,3.316783748517314,-11.818889759116393,-12.715061003341487,0.0,0.0
17.793582677841187,0.3270401358604431,-0.0207375455647707,-7.7598371505737305,-0.0007571882795738005,0.002615690231323242,0.1311488151550293,3.9528041272209533,-12.397582070070175,-0.221625357154008,0.7674263107975964,1.0,0.02890754830927981,0.01546434290589116,3.9803317572694703,3.932284630949956,-12.435915814625542,-12.445890940625803,0.0,0.0
17.804160594940186,0.32956862449645996,-0.016483783721923828,-7.739352226257324,-0.0005827711045278405,0.002622365951538086,0.1311488151550293,3.951323894528853,-12.383237256076091,-0.241625357154008,0.767280829907528,1.0,0.03104535143643793,0.01049081657524803,3.989626814251298,3.9218620985718724,-12.42414499630633,-12.440214505477917,0.0,0.0
17.81372570991516,0.3345676064491272,-0.007745492737740278,-7.698520660400391,-0.00017274217196379393,0.0031142234802246094,0.1311488151550293,3.949551939839775,-12.36747692666261,-0.26162535715400803,0.7675037232609299,1.0,0.02996579135359595,0.016438457681536983,4.001201129615348,3.908777380157136,-12.409477667704765,-12.434623893649908,0.0,0.0
17.959136486053467,0.38097620010375977,0.10751691460609436,-7.332777500152588,0.004928692526902534,0.0019173622131347656,0.13409042358398438,3.9474637698090818,-12.350290803059856,-0.28162535715400805,0.7526532634647539,-1.0,0.051442170907298426,-0.019941873608274957,4.015679664811154,3.892355411074239,-12.39130851076961,-12.429728590604537,0.0,0.0
17.968036890029907,0.38097620010375977,0.10751691460609436,-7.332777500152588,0.004928692526902534,0.002807140350341797,0.13409042358398438,3.945035476272521,-12.33166552226416,-0.30162535715400807,0.7519614140598873,-1.0,0.04041636701141025,0.008480199416630974,4.034011494219639,3.8715967602222707,-12.36876608107602,-12.426398059064336,0.0,0.0
17.975436687469482,0.3872508406639099,0.12267360836267471,-7.293391704559326,0.005382271781858988,0.0018513202667236328,0.13409042358398438,3.9422439141971575,-12.311584659403943,-0.3216253571540081,0.7514534101390979,-1.0,0.05021797048530776,0.023138705611231707,4.057643076057218,3.8450047130004905,-12.340527461538745,-12.425947050613447,0.0,0.0
17.98452639579773,0.3903425931930542,0.13047733902931213,-7.273736476898193,0.005604254298000655,0.0031049251556396484,0.13409042358398438,3.939066878564634,-12.29002875988944,-0.3416253571540081,0.750835996902603,-1.0,0.05921864877900008,0.038049427473276075,4.088791232524807,3.8103126471547446,-12.304627085452669,-12.430326767872556,0.0,0.0
17.99345088005066,0.393405020236969,0.13843956589698792,-7.2541046142578125,0.005821763351951531,0.0026352405548095703,0.13409042358398438,3.9354832796774897,-12.266975381228937,-0.3616253571540081,0.7501948360669725,-1.0,0.06857817443969672,0.05326922691482599,4.130854495745442,3.764073043872723,-12.258061039183755,-12.442520566935961,0.0,0.0
18.00377655029297,0.3964385986328125,0.1465691328048706,-7.234516620635986,0.006023362979396318,0.002276182174682617,0.13409042358398438,3.931473316391871,-12.242399144366342,-0.38162535715400814,0.7494836562138794,-1.0,0.07852303641801094,0.06932838986560998,4.189008209208303,3.7010627433367405,-12.196141928903794,-12.46718911562453,0.0,0.0
18.013591051101685,0.3994418978691101,0.15487435460090637,-7.214959621429443,0.006206649148917942,0.0027208328247070312,0.13409042358398438,3.9270186467940156,-12.216271794368467,-0.40162535715400816,0.74878324911726,-1.0,0.08912516444476218,0.08656595623609986,4.270980856665731,3.6135069717285866,-12.111419034874446,-12.511750283933445,0.0,0.0
18.02344274520874,0.40241754055023193,0.16336052119731903,-7.19542932510376,0.006369746712422408,0.002042531967163086,0.13409042358398438,3.922102555853336,-12.188562270265361,-0.4216253571540082,0.7481616671882269,-1.0,0.100326779215379,0.10512712602526568,4.387834416592142,3.4902993405371285,-11.991945813705852,-12.588111706073033,0.0,0.0
18.033974647521973,0.40828901529312134,0.1808798611164093,-7.156423091888428,0.0066631782991853905,0.005382061004638672,0.13409042358398438,3.9167101196015874,-12.159236783823543,-0.4416253571540082,0.7478105347118579,-1.0,0.1129362422571014,0.1262132388980256,4.554182810837668,3.316783748517314,-11.818889759116393,-12.715061003341487,0.0,0.0
18.047330141067505,0.40828901529312134,0.1808798611164093,-7.156423091888428,0.0066631782991853905,0.004773855209350586,0.13409042358398438,3.9520989273112654,-12.390586080964734,-0.231625357154008,0.7471910507033851,-1.0,0.12484131291135583,0.1472468745957985,3.9803317572694703,3.932284630949956,-12.435915814625542,-12.445890940625803,0.0,0.0
18.180657386779785,0.4541577994823456,0.3907697796821594,-6.790769577026367,0.013290956925741365,0.002630472183227539,0.12070488929748535,3.9504759248927526,-12.375534600738373,-0.251625357154008,0.7600910490015399,-1.0,0.08305316524159582,0.15354570855007635,3.989626814251298,3.9218620985718724,-12.42414499630633,-12.440214505477917,0.0,0.0
18.18930673599243,0.4541577994823456,0.3907697796821594,-6.790769577026367,0.013290956925741365,0.0019278526306152344,0.12070488929748535,3.948548891806878,-12.359062852249972,-0.27162535715400804,0.7595746385181492,-1.0,0.0790889590436341,0.1370036627701669,4.001201129615348,3.908777380157136,-12.409477667704765,-12.434623893649908,0.0,0.0
18.196359395980835,0.45834383368492126,0.4159519672393799,-6.752558708190918,0.014469428287954403,0.002573251724243164,0.12070488929748535,3.9462936050088033,-12.341159012432309,-0.29162535715400806,0.7600070779163247,-1.0,0.06261454997496681,0.11919903541475663,4.015679664811154,3.892355411074239,-12.39130851076961,-12.429728590604537,0.0,0.0
18.20369863510132,0.45834383368492126,0.4159519672393799,-6.752558708190918,0.014469428287954403,0.0024476051330566406,0.12070488929748535,3.943686515710726,-12.321808183938117,-0.3116253571540081,0.7594821868025239,-1.0,0.05348151537860222,0.10010270965203835,4.034011494219639,3.8715967602222707,-12.36876608107602,-12.426398059064336,0.0,0.0
18.21384906768799,0.45834383368492126,0.4159519672393799,-6.752558708190918,0.014469428287954403,0.0039670467376708984,0.12070488929748535,3.9407049268633556,-12.30099242241077,-0.3316253571540081,0.7589543449445507,-1.0,0.045057613711362056,0.08300077360317035,4.057643076057218,3.8450047130004905,-12.340527461538745,-12.425947050613447,0.0,0.0
18.223700761795044,0.4637008309364319,0.4583767056465149,-6.693971157073975,0.016281159145174792,0.002040386199951172,0.12070488929748535,3.9373271693136096,-12.278690773483698,-0.3516253571540081,0.7598594876607242,-1.0,0.02382302029548034,0.06089414700848708,4.088791232524807,3.8103126471547446,-12.304627085452669,-12.430326767872556,0.0,0.0
18.2340829372406,0.4637008309364319,0.4583767056465149,-6.693971157073975,0.016281159145174792,0.005016803741455078,0.12070488929748535,3.9335327761353707,-12.254879319377117,-0.37162535715400813,0.7593198298197982,-1.0,0.013169374960603624,0.038242098352102,4.130854495745442,3.764073043872723,-12.258061039183755,-12.442520566935961,0.0,0.0
18.243751049041748,0.4672117233276367,0.48692312836647034,-6.655069828033447,0.017453556463691663,0.0021219253540039062,0.12070488929748535,3.929302654643472,-12.229531234933525,-0.39162535715400815,0.7596288001893414,-1.0,-0.0034679495384001904,0.014819567288279363,4.189008209208303,3.7010627433367405,-12.196141928903794,-12.46718911562453,0.0,0.0
18.253929138183594,0.4672117233276367,0.48692312836647034,-6.655069828033447,0.017453556463691663,0.002033710479736328,0.12070488929748535,3.924619255615868,-12.202616852907575,-0.41162535715400816,0.7590777170012839,-1.0,-0.013487912169021295,-0.006597315836559205,4.270980856665731,3.6135069717285866,-12.111419034874446,-12.511750283933445,0.0,0.0
18.263726234436035,0.47237083315849304,0.5300475358963013,-6.597075939178467,0.01911618839778438,0.002691030502319336,0.12070488929748535,3.9194667392649856,-12.174103738301804,-0.4316253571540082,0.7598123105394248,-1.0,-0.028634335638013004,-0.028222028110965774,4.387834416592142,3.4902993405371285,-11.991945813705852,-12.588111706073033,0.0,0.0
18.273916006088257,0.47237083315849304,0.5300475358963013,-6.597075939178467,0.01911618839778438,0.0019087791442871094,0.12070488929748535,3.9138311375164996,-12.143956771516821,-0.4516253571540082,0.7592452298078266,-1.0,-0.03711286395611026,-0.04667636672176968,4.554182810837668,3.316783748517314,-11.818889759116393,-12.715061003341487,0.0,0.0
18.28376531600952,0.4757330119609833,0.5589505434036255,-6.55863618850708,0.02014501486643648,0.00327301025390625,0.12070488929748535,3.951323894528853,-12.383237256076091,-0.241625357154008,0.7595742480551434,-1.0,-0.04559304953412598,-0.062092492394908744,3.9803317572694703,3.932284630949956,-12.435915814625542,-12.445890940625803,0.0,0.0
18.416683197021484,0.5021712779998779,0.7997490167617798,-6.261096000671387,0.025415212395419676,0.0030775070190429688,0.12229537963867188,3.949551939839775,-12.36747692666261,-0.26162535715400803,0.7556666436804369,-1.0,-0.015546197982100591,-0.0390162387361902,3.989626814251298,3.9218620985718724,-12.42414499630633,-12.440214505477917,0.0,0.0
18.42502522468567,0.5021712779998779,0.7997490167617798,-6.261096000671387,0.025415212395419676,0.0018651485443115234,0.12229537963867188,3.9474637698090818,-12.350290803059856,-0.28162535715400805,0.7549594309406986,-1.0,-0.012949233710493242,-0.038756874718544415,4.001201129615348,3.908777380157136,-12.409477667704765,-12.434623893649908,0.0,0.0
18.43369483947754,0.5037466287612915,0.8148083686828613,-6.242987632751465,0.025613387084500696,0.0030498504638671875,0.12229537963867188,3.945035476272521,-12.33166552226416,-0.30162535715400807,0.7547926209441295,-1.0,-0.010140288294545436,-0.03741877993694229,4.015679664811154,3.892355411074239,-12.39130851076961,-12.429728590604537,0.0,0.0
18.443429470062256,0.5068395137786865,0.8446959853172302,-6.2068891525268555,0.02597110412365449,0.0022640228271484375,0.12229537963867188,3.9422439141971575,-12.311584659403943,-0.3216253571540081,0.755203654556023,-0.9529628352425775,-0.004410682853959341,-0.03315714195829203,4.034011494219639,3.8715967602222707,-12.36876608107602,-12.426398059064336,0.0,0.0
18.453657388687134,0.5068395137786865,0.8446959853172302,-6.2068891525268555,0.02597110412365449,0.002642393112182617,0.12229537963867188,3.939066878564634,-12.29002875988944,-0.3416253571540081,0.7544749958319671,-0.953312892162022,-0.004321446211626129,-0.03462910164132044,4.057643076057218,3.8450047130004905,-12.340527461538745,-12.425947050613447,0.0,0.0
18.463870525360107,0.5113497972488403,0.8888780474662781,-6.153064250946045,0.026409400526962244,0.003033161163330078,0.12229537963867188,3.9354832796774897,-12.266975381228937,-0.3616253571540081,0.7555602549154231,-0.8531967496626656,0.003615575958745982,-0.028565818639207513,4.088791232524807,3.8103126471547446,-12.304627085452669,-12.430326767872556,0.0,0.0
18.47514820098877,0.5113497972488403,0.8888780474662781,-6.153064250946045,0.026409400526962244,0.0032806396484375,0.12229537963867188,3.931473316391871,-12.242399144366342,-0.38162535715400814,0.7548115939053787,-0.859041320098967,0.0035207360247101758,-0.031193667705669503,4.130854495745442,3.764073043872723,-12.258061039183755,-12.442520566935961,0.0,0.0
18.487677574157715,0.5170871019363403,0.934918999671936,-6.099499702453613,0.026622745814042878,0.002587556838989258,0.12229537963867188,3.9270186467940156,-12.216271794368467,-0.40162535715400816,0.7560693406491545,-0.7517510052919562,0.010600729753207612,-0.02667464183696902,4.189008209208303,3.7010627433367405,-12.196141928903794,-12.46718911562453,0.0,0.0
18.49371862411499,0.5170871019363403,0.934918999671936,-6.099499702453613,0.026622745814042878,0.002254009246826172,0.12229537963867188,3.922102555853336,-12.188562270265361,-0.4216253571540082,0.7553012871063104,-0.7631572485244708,0.010378129505284257,-0.02933103448784477,4.270980856665731,3.6135069717285866,-12.111419034874446,-12.511750283933445,0.0,0.0
18.503649473190308,0.5208170413970947,0.9649632573127747,-6.06397008895874,0.02667050641044697,0.0024030208587646484,0.12229537963867188,3.9167101196015874,-12.159236783823543,-0.4416253571540082,0.7559512101199786,-0.6861322501688768,0.013834160581219475,-0.027908370299712687,4.387834416592142,3.4902993405371285,-11.991945813705852,-12.588111706073033,0.0,0.0
18.51361083984375,0.5226589441299438,0.9797815084457397,-6.046260356903076,0.026681943485315822,0.0024340152740478516,0.12229537963867188,3.9108283654053535,-12.128258907010014,-0.4616253571540082,0.7558961380496304,-0.6537681021891095,0.01515407390345473,-0.028486944643600243,4.554182810837668,3.316783748517314,-11.818889759116393,-12.715061003341487,0.0,0.0
18.654643058776855,0.5510455369949341,1.2139256000518799,-5.746789455413818,0.025993398941895576,0.00393223762512207,0.12844300270080566,3.9504759248927526,-12.375534600738373,-0.251625357154008,0.7667001909179066,-0.039380330060549196,0.01960499116184102,-0.023830257598755206,3.9803317572694703,3.932284630949956,-12.435915814625542,-12.445890940625803,0.0,0.0
18.666194438934326,0.5510455369949341,1.2139256000518799,-5.746789455413818,0.025993398941895576,0.0034656524658203125,0.12844300270080566,3.948548891806878,-12.359062852249972,-0.27162535715400804,0.7659595114291479,-0.10016612450879658,0.018963481866074723,-0.027054468419476063,3.989626814251298,3.9218620985718724,-12.42414499630633,-12.440214505477917,0.0,0.0
18.674811840057373,0.5555979013442993,1.2508455514907837,-5.694257736206055,0.025733376887800544,0.0019583702087402344,0.12844300270080566,3.9462936050088033,-12.341159012432309,-0.29162535715400806,0.7677158826682389,0.0521775167001719,0.01767596376256096,-0.029544098964238263,4.001201129615348,3.908777380157136,-12.409477667704765,-12.434623893649908,0.0,0.0
18.68509817123413,0.5570942163467407,1.2627140283584595,-5.676791667938232,0.025640235558118216,0.0041506290435791016,0.12844300270080566,3.943686515710726,-12.321808183938117,-0.3116253571540081,0.7678119138756524,0.06138958604082001,0.01736646366221197,-0.029918831790764253,4.015679664811154,3.892355411074239,-12.39130851076961,-12.429728590604537,0.0,0.0
18.693758010864258,0.5585799217224121,1.2743598222732544,-5.659347057342529,0.025545945835979605,0.0022437572479248047,0.12844300270080566,3.9407049268633556,-12.30099242241077,-0.3316253571540081,0.7679112216084669,0.06959594174391492,0.017002351904116808,-0.030201933941261,4.034011494219639,3.8715967602222707,-12.36876608107602,-12.426398059064336,0.0,0.0
18.703863859176636,0.5615203976631165,1.2969698905944824,-5.62454891204834,0.025351435720386006,0.0022771358489990234,0.12844300270080566,3.9373271693136096,-12.278690773483698,-0.3516253571540081,0.7687049790145271,0.15731598585549578,0.016109601512749584,-0.03070610552650535,4.057643076057218,3.8450047130004905,-12.340527461538745,-12.425947050613447,0.0,0.0
18.71373438835144,0.5629748702049255,1.3079257011413574,-5.607204914093018,0.025256064968884495,0.005331754684448242,0.12844300270080566,3.9335327761353707,-12.254879319377117,-0.37162535715400813,0.7686811500561653,0.15969135210186858,0.015576732896650548,-0.03064221193579128,4.088791232524807,3.8103126471547446,-12.304627085452669,-12.430326767872556,0.0,0.0
18.726377487182617,0.5629748702049255,1.3079257011413574,-5.607204914093018,0.025256064968884495,0.003995418548583984,0.12844300270080566,3.929302654643472,-12.229531234933525,-0.39162535715400815,0.767944696452099,0.08029512062764566,0.015622387547251506,-0.03040072147144217,4.130854495745442,3.764073043872723,-12.258061039183755,-12.442520566935961,0.0,0.0
18.738467693328857,0.5700889825820923,1.3480130434036255,-5.53852653503418,0.02488115972582494,0.002290487289428711,0.12844300270080566,3.924619255615868,-12.202616852907575,-0.41162535715400816,0.7698880570926037,0.29238860064115135,0.013777229710376006,-0.03132727306895014,4.189008209208303,3.7010627433367405,-12.196141928903794,-12.46718911562453,0.0,0.0
18.74402928352356,0.5700889825820923,1.3480130434036255,-5.53852653503418,0.02488115972582494,0.003186941146850586,0.12844300270080566,3.9194667392649856,-12.174103738301804,-0.4316253571540082,0.7691616456975349,0.20669541983931183,0.013860136644983957,-0.03056626586108928,4.270980856665731,3.6135069717285866,-12.111419034874446,-12.511750283933445,0.0,0.0
18.8716402053833,0.5700889825820923,1.3480130434036255,-5.53852653503418,0.02488115972582494,0.001992940902709961,0.11574316024780273,3.9138311375164996,-12.143956771516821,-0.4516253571540082,0.7667301982351004,-1.0,0.01431389138401007,-0.03024282182958496,4.387834416592142,3.4902993405371285,-11.991945813705852,-12.588111706073033,0.0,0.0
18.879159927368164,0.6005616188049316,1.4739269018173218,-5.252868175506592,0.023197208857345858,0.0030934810638427734,0.11574316024780273,3.9077005121720108,-12.112138240063505,-0.4716253571540082,0.7736689892777414,-0.17405532750968344,0.004218738262543977,-0.028471416825746027,4.554182810837668,3.316783748517314,-11.818889759116393,-12.715061003341487,0.0,0.0
18.887819051742554,0.6005616188049316,1.4739269018173218,-5.252868175506592,0.023197208857345858,0.00257110595703125,0.11574316024780273,3.949551939839775,-12.36747692666261,-0.26162535715400803,0.7736689892777414,-0.29566506269646076,0.004390736019573229,-0.026370312066916868,3.9803317572694703,3.932284630949956,-12.435915814625542,-12.445890940625803,0.0,0.0
18.895607471466064,0.6026247143745422,1.4789319038391113,-5.236365795135498,0.02304100709392798,0.003268718719482422,0.11574316024780273,3.9474637698090818,-12.350290803059856,-0.28162535715400805,0.7736689892777414,-0.3693234732162044,0.003774763202229016,-0.02505234261015496,3.989626814251298,3.9218620985718724,-12.42414499630633,-12.440214505477917,0.0,0.0
18.905192852020264,0.6066713333129883,1.4883370399475098,-5.203488349914551,0.022717856878860646,0.002171039581298828,0.11574316024780273,3.945035476272521,-12.33166552226416,-0.30162535715400807,0.7736689892777414,-0.39597859057193485,0.0027701334010255445,-0.02395105096912617,4.001201129615348,3.908777380157136,-12.409477667704765,-12.434623893649908,0.0,0.0
18.913673400878906,0.6086552143096924,1.492740273475647,-5.187115669250488,0.02254959135561703,0.0028917789459228516,0.11574316024780273,3.9422439141971575,-12.311584659403943,-0.3216253571540081,0.7736689892777414,-0.4749657280486672,0.0022430356951021707,-0.02271504336487659,4.015679664811154,3.892355411074239,-12.39130851076961,-12.429728590604537,0.0,0.0
18.923449277877808,0.6106128692626953,1.4969451427459717,-5.1707868576049805,0.022372106575197864,0.0023241043090820312,0.11574316024780273,3.939066878564634,-12.29002875988944,-0.3416253571540081,0.7736689892777414,-0.5539595216619805,0.0017209063932784336,-0.02136828513695649,4.034011494219639,3.8715967602222707,-12.36876608107602,-12.426398059064336,0.0,0.0
18.933785915374756,0.6125265955924988,1.5009468793869019,-5.154504299163818,0.022187725398141747,0.003196239471435547,0.11574316024780273,3.9354832796774897,-12.266975381228937,-0.3616253571540081,0.7736689892777414,-0.6326326873153383,0.00124113503207345,-0.01995184625793192,4.057643076057218,3.8450047130004905,-12.340527461538745,-12.425947050613447,0.0,0.0
18.943429231643677,0.6162780523300171,1.5083638429641724,-5.12207555770874,0.021782375198073495,0.001941680908203125,0.11574316024780273,3.931473316391871,-12.242399144366342,-0.38162535715400814,0.7736689892777414,-0.6442155350150103,0.00048471129848241156,-0.018618271618538046,4.088791232524807,3.8103126471547446,-12.304627085452669,-12.430326767872556,0.0,0.0
18.95363998413086,0.6181164383888245,1.5117806196212769,-5.105928897857666,0.021571494393133744,0.0023965835571289062,0.11574316024780273,3.9270186467940156,-12.216271794368467,-0.40162535715400816,0.7736689892777414,-0.717384113574756,0.00013212705190412022,-0.01752346641498373,4.130854495745442,3.764073043872723,-12.258061039183755,-12.442520566935961,0.0,0.0
18.96397829055786,0.6199305057525635,1.5150034427642822,-5.089846134185791,0.021353006964723045,0.0035758018493652344,0.11574316024780273,3.922102555853336,-12.188562270265361,-0.4216253571540082,0.7736689892777414,-0.7895988696758988,-0.00011176979171870594,-0.016189982900184058,4.189008209208303,3.7010627433367405,-12.196141928903794,-12.46718911562453,0.0,0.0
18.974679708480835,0.6216461062431335,1.5172488689422607,-5.07431697845459,0.021127994874245243,0.0018689632415771484,0.11574316024780273,3.9167101196015874,-12.159236783823543,-0.4416253571540082,0.7736689892777414,-0.8568031820445628,-0.0004421967592386094,-0.015128173133491601,4.270980856665731,3.6135069717285866,-12.111419034874446,-12.511750283933445,0.0,0.0
18.98368787765503,0.625012993812561,1.5211957693099976,-5.043354034423828,0.02065230107449298,0.0035512447357177734,0.11574316024780273,3.9108283654053535,-12.128258907010014,-0.4616253571540082,0.7736689892777414,-0.8301023170888764,-0.0009019350745205971,-0.013832060741029634,4.387834416592142,3.4902993405371285,-11.991945813705852,-12.588111706073033,0.0,0.0
19.12852716445923,0.6508486866950989,1.5191923379898071,-4.771411895751953,0.01615332649046658,0.0026466846466064453,0.13417649269104004,3.9044464279178155,-12.0955896678846,-0.4816253571540082,0.7727544130751525,1.0,-0.00019946032807410628,-0.0032339748138387747,4.554182810837668,3.316783748517314,-11.818889759116393,-12.715061003341487,0.0,0.0
