time,x,y,z,yaw,ctrl_comp_time,x_ref,y_ref,z_ref,yaw_ref,throttle,roll_rate,pitch_rate,yaw_rate,save_tube_pyH,save_tube_pyL,save_tube_pzH,save_tube_pzL
15.085641622543335,-0.07320358604192734,3.886833906173706,-12.497498512268066,0.005443213832658583,0.18104195594787598,0.0,3.8869755772186276,-12.497314035421002,-0.008666101818482368,0.5629485710250313,-1.0,0.017671431041675508,0.013869087398477723,-12.497398512268067,-12.497598512268066,0.014291699214279651,0.014091699214279652
16.11974024772644,0.03924263268709183,3.832158088684082,-12.124903678894043,-0.0020766873869956515,0.2770504951477051,0.0,3.8869755772186276,-12.497314035421002,-0.008666101818482368,0.6850103804170876,1.0,0.015184468452499716,0.03552299646628962,-12.475623378056486,-12.478925761519639,0.312397023110083,-0.3695890612977329
16.356540203094482,0.03924263268709183,3.832158088684082,-12.124903678894043,-0.0020766873869956515,0.001573801040649414,0.0,3.8336257838562933,-12.109596025140549,-0.4181509820874636,0.6965140787768765,-1.0,0.021040361989143455,0.03321338869737617,-12.40021910054087,-12.43575402606941,0.5650926432506453,-0.9029585834768635
16.36354660987854,0.055378906428813934,3.114994525909424,-10.847269058227539,0.006864921924053469,0.0017056465148925781,0.0,3.8349382007888826,-12.094039094492128,-0.4281509820874636,0.7736689892777414,1.0,-0.1582992338004547,-0.48680191992281985,-12.23096584853422,-12.411326607802476,0.8805442324169448,-1.6913781392500453
16.37489652633667,0.057057928293943405,3.069423198699951,-10.793083190917969,0.008075504293784286,0.004149675369262695,0.0,3.8360916440662383,-12.078226056405775,-0.4381509820874636,0.7736689892777414,1.0,-0.05294150131162656,-0.1603920250072975,-11.796520616532309,-12.576213581848743,1.4695699670772298,-2.9409401655003564
16.386435985565186,0.057057928293943405,3.069423198699951,-10.793083190917969,0.008075504293784286,0.002888202667236328,0.0,3.837082606524841,-12.062149893712819,-0.4481509820874636,0.7736689892777414,1.0,-0.06174616418336691,-0.06956095441985606,-12.497398512268067,-12.497598512268066,0.014291699214279651,0.014091699214279652
16.39795184135437,0.05866564065217972,3.022815704345703,-10.738380432128906,0.009290765775741672,0.0028679370880126953,0.0,3.8379077742047567,-12.045803407381491,-0.45815098208746363,0.7736689892777414,1.0,-0.08433234573013994,-0.03011859554097436,-12.475623378056486,-12.478925761519639,0.3123970231092754,-0.3695890612985378
16.407033920288086,0.05866564065217972,3.022815704345703,-10.738380432128906,0.009290765775741672,0.002726316452026367,0.0,3.8385640311811047,-12.029179221402872,-0.46815098208746364,0.7736689892777414,1.0,-0.10377134489742433,-0.004040244861238399,-12.400219100540859,-12.435754026069398,0.5650926432489167,-0.9029585834785233
16.418668270111084,0.06094587594270706,2.9508509635925293,-10.655745506286621,0.011048147821825671,0.0030295848846435547,0.0,3.839048464272767,-12.01226978779661,-0.47815098208746365,0.7736689892777414,1.0,-0.11919485733711763,0.017980871417502823,-12.230965848534169,-12.41132660780244,0.8805442324138141,-1.6913781392524858
16.68023157119751,0.06094587594270706,2.9508509635925293,-10.655745506286621,0.011048147821825671,0.0015301704406738281,0.0,2.9445136180711198,-10.611838197674718,-0.5415767799764915,0.7736689892777414,1.0,-0.13148642349848869,0.03405787646210189,-11.796520616532339,-12.576213581848503,1.4695699670696718,-2.940940165501349
16.69419503211975,0.09339388459920883,1.8635404109954834,-9.674882888793945,0.043742976787350576,0.001968860626220703,0.0,2.9372667252099753,-10.5677822152851,-0.5315767799764914,0.7570781933541834,1.0,-0.03365747029849151,0.04288786976819254,-12.124803678894043,-12.125003678894043,-0.47276716103553773,-0.4729671610355377
16.92070245742798,0.09339388459920883,1.8635404109954834,-9.674882888793945,0.043742976787350576,0.0025653839111328125,0.0,1.8330168984451938,-9.633279089317059,-0.22731904230829564,0.7271301524775131,1.0,0.005389786046366439,0.009544125690442289,-11.947181541253409,-11.97232255910307,-0.5936241882637241,-1.210370658299718
16.931851625442505,0.13593032956123352,0.8354669809341431,-8.90196418762207,0.06535729894002223,0.0015556812286376953,0.0,1.8018655795724698,-9.591881774472935,-0.21731904230829563,0.7399394939447633,1.0,0.09243271772552261,-0.09612934391292902,-11.697174634825496,-11.828375981593442,-0.7536191792528735,-2.0803081433609925
16.94191265106201,0.14061634242534637,0.7265222668647766,-8.822595596313477,0.06695186790989324,0.0014450550079345703,0.0,1.7700967491411617,-9.550701959650898,-0.20731904230829562,0.7428023977548762,1.0,0.1338359072594813,-0.17941025018952134,-11.305916395908383,-11.745879002811893,-0.7986951292742049,-3.2009855465561645
16.95362377166748,0.14061634242534637,0.7265222668647766,-8.822595596313477,0.06695186790989324,0.0026242733001708984,0.0,1.7377209047021,-9.509750392592855,-0.1973190423082956,0.7416013170648673,1.0,0.16238506123736732,-0.24281797250216808,-10.506296381690477,-11.99368831980023,-0.35673729080381444,-4.777709264120852
17.210891246795654,0.14061634242534637,0.7265222668647766,-8.822595596313477,0.06695186790989324,0.0026268959045410156,0.0,0.6838248456641791,-8.792443820639377,0.04869138864624222,0.7215653192911835,1.0,0.18441532042557546,-0.29281209142482323,-12.124803678894043,-12.125003678894043,-0.47276716103553773,-0.4729671610355377
17.41567325592041,0.19264841079711914,-1.0125426054000854,-7.369836330413818,0.0483838738023506,0.001827239990234375,0.0,0.6838248456641791,-8.792443820639377,0.04869138864624222,0.7736689892777414,-1.0,-0.7832277392843442,2.0879442189333806,-11.947181541253409,-11.97232255910307,-0.5936241882637241,-1.210370658299718
17.4248788356781,0.19264841079711914,-1.0125426054000854,-7.369836330413818,0.0483838738023506,0.002515077590942383,0.0,0.6408627435107482,-8.762653219359684,0.058691388646242224,0.7736689892777414,-1.0,-0.07558177513391053,1.4124517503729255,-11.697174634825496,-11.828375981593442,-0.7536191792528735,-2.0803081433609925
17.436060190200806,0.19227254390716553,-1.0574146509170532,-7.3171796798706055,0.04682834908243605,0.0037543773651123047,0.0,0.5976487929644413,-8.733227249500885,0.06869138864624222,0.7736689892777414,-1.0,-0.19130310883435947,0.7050360059794653,-11.305916395908383,-11.745879002811893,-0.7986951292742049,-3.2009855465561645
17.445698499679565,0.19227254390716553,-1.0574146509170532,-7.3171796798706055,0.04682834908243605,0.002794981002807617,0.0,0.5541958742016654,-8.704169040229909,0.07869138864624221,0.7736689892777414,-1.0,-0.27847495506391634,0.37765290105215854,-10.506296381690477,-11.99368831980023,-0.35673729080381444,-4.777709264120852
17.45665216445923,0.19127604365348816,-1.1224251985549927,-7.237493515014648,0.04474859278238483,0.002318859100341797,0.0,0.5105169075650446,-8.675481391802967,0.08869138864624221,0.7736689892777414,-1.0,-0.3395202185216641,0.21119705181183393,-12.124803678894043,-12.125003678894043,-0.47276716103553773,-0.4729671610355377
17.46694540977478,0.19127604365348816,-1.1224251985549927,-7.237493515014648,0.04474859278238483,0.003064870834350586,0.0,0.46662484608675375,-8.64716677469652,0.0986913886462422,0.7736689892777414,-1.0,-0.36478968880842155,0.12710170162011197,-11.947181541253409,-11.97232255910307,-0.5936241882637241,-1.210370658299718
17.47709035873413,0.18881060183048248,-1.1820628643035889,-7.156079292297363,0.04259589509140704,0.002650022506713867,0.0,0.4225326679900637,-8.619227328920806,0.1086913886462422,0.7736689892777414,-1.0,-0.3917437277586749,0.06943893306542248,-11.697174634825496,-11.828375981593442,-0.7536191792528735,-2.0803081433609925
17.70374608039856,0.18881060183048248,-1.1820628643035889,-7.156079292297363,0.04259589509140704,0.0026628971099853516,0.0,-1.2216864821496574,-7.140555168909865,0.5633132723473804,0.7736689892777414,1.0,-0.40191529827397204,0.038906829187217135,-11.305916395908383,-11.745879002811893,-0.7986951292742049,-3.2009855465561645
17.719647645950317,0.13806205987930298,-1.5749657154083252,-6.319134712219238,0.0011372855534978465,0.0030655860900878906,0.0,-1.2609961309980149,-7.125202800151905,0.5733132723473804,0.7736689892777414,0.20123166266168546,0.07209581747263867,-0.8262145400871517,-10.506296381690477,-11.99368831980023,-0.35673729080381444,-4.777709264120852
17.730963230133057,0.13585856556892395,-1.5811755657196045,-6.2906599044799805,-4.730130664323817e-05,0.0017046928405761719,0.0,-1.299985597058954,-7.1100095567939725,0.5833132723473804,0.7736689892777414,0.3021524237583493,-0.14973185242944914,-0.20101705772268014,-12.124803678894043,-12.125003678894043,-0.47276716103553773,-0.4729671610355377
17.741408109664917,0.12925013899803162,-1.5989341735839844,-6.205609321594238,-0.003432084922011802,0.0017557144165039062,0.0,-1.338648983652051,-7.094962659766034,0.5933132723473804,0.7736689892777414,0.4004996614155951,-0.015190035653316076,-0.18079639313498053,-11.947181541253409,-11.97232255910307,-0.5936241882637241,-1.210370658299718
17.751967906951904,0.12705670297145844,-1.6045713424682617,-6.177412509918213,-0.004518896302820347,0.0019381046295166016,0.0,-1.3769807144171125,-7.080049187163677,0.6033132723473804,0.7736689892777414,0.49144474166233,-0.010792091877352734,-0.05604155540996011,-11.697174634825496,-11.828375981593442,-0.7536191792528735,-2.0803081433609925
17.760735988616943,0.12705670297145844,-1.6045713424682617,-6.177412509918213,-0.004518896302820347,0.0014162063598632812,0.0,-1.4149755363780014,-7.065256081319811,0.6133132723473804,0.7736689892777414,0.5981434202868678,0.0003431805902815167,-0.021651003638184306,-11.305916395908383,-11.745879002811893,-0.7986951292742049,-3.2009855465561645
17.967236042022705,0.0695146843791008,-1.6731199026107788,-5.464418411254883,-0.01823885792265212,0.0015680789947509766,0.0,-1.6259843492015116,-6.14835046436384,0.30662478279830296,0.7736689892777414,-0.8007829993396058,0.054071623147500816,-0.0393987697417327,-10.506296381690477,-11.99368831980023,-0.35673729080381444,-4.777709264120852
17.975276231765747,0.0695146843791008,-1.6731199026107788,-5.464418411254883,-0.01823885792265212,0.0014488697052001953,0.0,-1.6473935930398138,-6.119480756597093,0.316624782798303,0.7736689892777414,-0.7143518130173414,0.04676770670880085,-0.008973102849295325,-12.124803678894043,-12.125003678894043,-0.47276716103553773,-0.4729671610355377
17.9816312789917,0.06449179351329803,-1.670287013053894,-5.383582592010498,-0.019772781631118203,0.0014917850494384766,0.0,-1.6687885633545048,-6.090797296421266,0.326624782798303,0.7736689892777414,-0.9147724628404794,0.05358900300729213,0.010269956635836616,-11.947181541253409,-11.97232255910307,-0.5936241882637241,-1.210370658299718
17.991321802139282,0.0628732293844223,-1.6690229177474976,-5.356720447540283,-0.020288313658642004,0.0016257762908935547,0.0,-1.690158933481976,-6.062293718327945,0.336624782798303,0.7736689892777414,-0.9223566989631498,0.057005182804403684,0.017784398854064087,-11.697174634825496,-11.828375981593442,-0.7536191792528735,-2.0803081433609925
18.002020835876465,0.06127679720520973,-1.667588710784912,-5.329904079437256,-0.02078299127453742,0.0015761852264404297,0.0,-1.7114945668523833,-6.0339633858356825,0.346624782798303,0.7736689892777414,-0.9267066611890022,0.05861963041380585,0.022998242804845092,-11.305916395908383,-11.745879002811893,-0.7986951292742049,-3.2009855465561645
18.01104497909546,0.05970283970236778,-1.665976643562317,-5.30317497253418,-0.021239069875166244,0.0014812946319580078,0.0,-1.732785523024257,-6.005799395956954,0.356624782798303,0.7736689892777414,-0.9241900133815726,0.05963712044544825,0.026928305721024347,-10.506296381690477,-11.99368831980023,-0.35673729080381444,-4.777709264120852
18.021368741989136,0.05662253499031067,-1.6622037887573242,-5.249869346618652,-0.022015884154292287,0.0014870166778564453,0.0,-1.7540220636223967,-5.977794583791423,0.366624782798303,0.7736689892777414,-0.9883271136970246,0.05892417044240318,0.03112466659689735,-12.124803678894043,-12.125003678894043,-0.47276716103553773,-0.4729671610355377
18.234715938568115,0.05662253499031067,-1.6622037887573242,-5.249869346618652,-0.022015884154292287,0.0016579627990722656,0.0,-1.676173221821575,-5.220380837138567,0.3873367592784009,0.7736689892777414,1.0,0.059558210981497696,0.031149667874666817,-11.947181541253409,-11.97232255910307,-0.5936241882637241,-1.210370658299718
18.25004243850708,0.028787603601813316,-1.5326694250106812,-4.570237159729004,-0.026854883395308005,0.002353191375732422,0.0,-1.6900778600321344,-5.190956760531749,0.3973367592784009,0.7736689892777414,0.5096442911142449,-0.01392013237266804,0.12116168141821297,-11.697174634825496,-11.828375981593442,-0.7536191792528735,-2.0803081433609925
18.262094497680664,0.027996264398097992,-1.516746163368225,-4.519271373748779,-0.02716888983654686,0.001443624496459961,0.0,-1.7039095557497526,-5.161589121163256,0.4073367592784009,0.7736689892777414,0.6308034450907363,0.02419259546081407,0.01893048745159514,-11.305916395908383,-11.745879002811893,-0.7986951292742049,-3.2009855465561645
18.271162271499634,0.026820626109838486,-1.4926091432571411,-4.443497180938721,-0.027575469057545682,0.0014204978942871094,0.0,-1.7176603899909195,-5.1322696937269905,0.4173367592784009,0.7736689892777414,0.7530191019398911,-0.008342563397643565,0.05312859939872205,-10.506296381690477,-11.99368831980023,-0.35673729080381444,-4.777709264120852
18.282814025878906,0.026820626109838486,-1.4926091432571411,-4.443497180938721,-0.027575469057545682,0.003189563751220703,0.0,-1.73132267765265,-5.102990028540794,0.4273367592784009,0.7736689892777414,0.8622127888172357,0.007711954741481158,0.009781057962991798,-12.124803678894043,-12.125003678894043,-0.47276716103553773,-0.4729671610355377
18.539541721343994,0.026820626109838486,-1.4926091432571411,-4.443497180938721,-0.027575469057545682,0.0016245841979980469,0.0,-1.4917206639198128,-4.412125365827436,0.15060348952199312,0.7736689892777414,0.4344268338292331,-0.006059696265778518,0.03454335924472818,-11.947181541253409,-11.97232255910307,-0.5936241882637241,-1.210370658299718
18.74444556236267,0.0019116959301754832,-0.8604663014411926,-3.126814603805542,-0.025198559429061074,0.0015087127685546875,0.0,-1.4917206639198128,-4.412125365827436,0.15060348952199312,0.7638134378688112,-1.0,0.03953479650298401,-0.06680055529226063,-11.697174634825496,-11.828375981593442,-0.7536191792528735,-2.0803081433609925
18.74918532371521,0.0019116959301754832,-0.8604663014411926,-3.126814603805542,-0.025198559429061074,0.0015025138854980469,0.0,-1.490816698748633,-4.380796426390062,0.15431727003329795,0.7633487267356939,-1.0,-0.030285471715428565,0.021243345009295526,-11.305916395908383,-11.745879002811893,-0.7986951292742049,-3.2009855465561645
18.760414123535156,0.0014902879483997822,-0.8270716071128845,-3.0838706493377686,-0.025016989732479455,0.0029807090759277344,0.0,-1.4898729728536981,-4.34950953044412,0.15742881068977105,0.7609282133459099,-1.0,0.030943901665728964,-0.008575107954464945,-10.506296381690477,-11.99368831980023,-0.35673729080381444,-4.777709264120852
18.77163314819336,0.0012877153931185603,-0.8100632429122925,-3.062403678894043,-0.024924843440773448,0.002378702163696289,0.0,-1.488866791004113,-4.318263945816993,0.15996573593347702,0.7594591839355276,-1.0,0.009438818858362855,0.0457202682051167,-10.655645506286621,-10.65584550628662,-2.8405295776367185,-2.840729577636719
18.782357931137085,0.0010933673474937677,-0.7928333878517151,-3.0409698486328125,-0.024834235842681324,0.0016624927520751953,0.0,-1.4877769806790813,-4.287059087260758,0.16195504029174956,0.7579691755113293,-1.0,0.047572455222249385,0.048572873263521894,-10.197273485306736,-10.22704084210145,-3.014300699054962,-3.618114329098132
18.791523456573486,0.0009052249370142817,-0.7753884792327881,-3.0195391178131104,-0.02475445271782914,0.002335071563720703,0.0,-1.4865838367232922,-4.255894553426006,0.16342308347412812,0.7564451206368433,-1.0,0.049138877970618326,0.09682869966678766,-9.682200416316089,-9.856867001067299,-3.0014719856436733,-4.40621397827356
19.016813039779663,-0.0003008859930559993,-0.16401176154613495,-2.3964571952819824,-0.017288120858113473,0.0018355846405029297,0.0,-0.7688247264312015,-2.986363097135666,0.41343663035054645,0.7709613699137735,-1.0,0.051264359938635005,0.12022438999687078,-8.979887388908072,-9.707611556775788,-2.627240495376566,-5.372085193087124
19.024967670440674,-0.0003008859930559993,-0.16401176154613495,-2.3964571952819824,-0.017288120858113473,0.0017185211181640625,0.0,-0.76153444666391,-2.9531504401331214,0.40343663035054644,0.7708193532818282,-1.0,0.06390465912254988,0.13827026956450295,-7.311250223716351,-10.584724109663721,-1.5061037960893702,-6.895318883449761
19.034737825393677,0.0004828633682336658,-0.09054277092218399,-2.333360195159912,-0.015968075324790373,0.0022246837615966797,0.0,-0.7535244028420773,-2.9199161399152262,0.39343663035054643,0.7717883069937862,-1.0,0.06247823619687151,0.15286597421243475,-10.655645506286621,-10.65584550628662,-2.8405295776367185,-2.840729577636719
19.042145490646362,0.0004828633682336658,-0.09054277092218399,-2.333360195159912,-0.015968075324790373,0.0024023056030273438,0.0,-0.744801660310778,-2.8866749774754874,0.3834366303505464,0.7716104441255824,-1.0,0.07083833484429705,0.16422769596564427,-10.197273485306736,-10.22704084210145,-3.014300699054962,-3.618114329098132
19.050373315811157,0.0007438663160428405,-0.06592932343482971,-2.312364101409912,-0.015509769012234317,0.0015490055084228516,0.0,-0.735373581819633,-2.8534415156445796,0.3734366303505464,0.7718420467320279,-1.0,0.07149174683577045,0.1742358191040025,-9.682200416316089,-9.856867001067299,-3.0014719856436733,-4.40621397827356
19.27920174598694,-0.003225484164431691,0.6848398447036743,-1.7104229927062988,0.006019856063385908,0.002986431121826172,0.0,-0.04358505088012746,-2.2806434280524113,0.18247279285375645,0.7736689892777414,-0.926831632798983,-0.0932588900671023,-0.05286661648666156,-8.979887388908072,-9.707611556775788,-2.627240495376566,-5.372085193087124
19.291808605194092,-0.003505850676447153,0.7106276154518127,-1.6904239654541016,0.006985774120256243,0.002060413360595703,0.0,-0.020726764716382386,-2.249180740530806,0.17247279285375644,0.7736689892777414,-0.889250080825736,-0.04019633656199149,0.0054910647293093355,-7.311250223716351,-10.584724109663721,-1.5061037960893702,-6.895318883449761
19.303359031677246,-0.0037924821954220533,0.7362945079803467,-1.670487880706787,0.007960312664997783,0.0030679702758789062,0.0,0.0026331408173553388,-2.217984913563926,0.16247279285375643,0.7736689892777414,-0.8515517587435473,-0.06435607779303017,-0.022090843155855425,-9.674782888793946,-9.674982888793945,-3.944794790649414,-3.9449947906494143
19.553587913513184,-0.009867824614048004,1.4355993270874023,-0.6394091844558716,0.030353352438675506,0.002473592758178711,0.0,0.7671900965514359,-1.6483448374328558,-0.09187107037866209,0.7098939458244115,-1.0,-0.02500540151086415,-0.008849955921079039,-9.259783024293252,-9.279019637995967,-3.794048885112876,-4.470441345093409
19.56451392173767,-0.01071122381836176,1.4750802516937256,-0.6307674646377563,0.030407580723640103,0.0016019344329833984,0.0,0.798220859046128,-1.6265733857437437,-0.10187107037866208,0.7060562325755204,-1.0,-0.04562367679263515,-0.049743771988307955,-8.820402006476462,-8.966080366127665,-3.4591217669326912,-4.986092758770125
19.786492586135864,-0.01071122381836176,1.4750802516937256,-0.6307674646377563,0.030407580723640103,0.001674652099609375,0.0,1.498662759961892,-0.6247966873353699,-0.005273110436000162,0.7579664193271789,-1.0,-0.050216353852065854,-0.07565151022472834,-8.192164908230472,-8.914782691828155,-2.7676754856738457,-5.662481141839119
19.797975778579712,0.04488591104745865,1.9601877927780151,-1.2160738706588745,0.0006657955861194701,0.001971721649169922,0.0,1.5223102746604256,-0.6190898167127549,-0.015273110436000163,0.6726901652928986,-1.0,0.278428150371616,0.1285016918208892,-6.563015217770459,-9.944986658537294,-1.31386264405045,-6.905604192208227
19.803075313568115,0.04488591104745865,1.9601877927780151,-1.2160738706588745,0.0006657955861194701,0.001722574234008789,0.0,1.5460100714814737,-0.6136472935662494,-0.02527311043600016,0.672638406484869,-1.0,0.24468036520533396,0.23385763516037963,-9.674782888793946,-9.674982888793945,-3.944794790649414,-3.9449947906494143
19.810285568237305,0.046951163560152054,1.9768120050430298,-1.2189326286315918,-9.382648474778703e-05,0.0014264583587646484,0.0,1.569749428157789,-0.608469230366421,-0.03527311043600016,0.6729101413601825,-1.0,0.32120971042896523,0.34588758521478014,-9.259783024293252,-9.279019637995967,-3.794048885112876,-4.470441345093409
19.821701049804688,0.05317142605781555,2.0263400077819824,-1.2273468971252441,-0.0022924159168498867,0.0017027854919433594,0.0,1.5935156317610053,-0.6035554115018384,-0.045273110436000165,0.6737898462784715,-1.0,0.2980110903799648,0.34527169705142524,-8.820402006476462,-8.966080366127665,-3.4591217669326912,-4.986092758770125
19.831298112869263,0.05525435879826546,2.042715549468994,-1.2301549911499023,-0.0029873057191734387,0.0016515254974365234,0.0,1.61729598599079,-0.5989052936857576,-0.05527311043600017,0.673909079756634,-1.0,0.3064665050912858,0.3381017216826202,-8.192164908230472,-8.914782691828155,-2.7676754856738457,-5.662481141839119
20.044490337371826,0.05525435879826546,2.042715549468994,-1.2301549911499023,-0.0029873057191734387,0.001962900161743164,0.0,2.0626778871549747,-1.2348827858508047,-0.07024370458237697,0.7224334127896563,-1.0,0.29757197315452827,0.32626324685081143,-6.563015217770459,-9.944986658537294,-1.31386264405045,-6.905604192208227
20.0555636882782,0.1112334132194519,2.4589884281158447,-1.2769801616668701,-0.009581661721283857,0.0015273094177246094,0.0,2.0825391396113067,-1.239742700046063,-0.08024370458237697,0.7455411495855869,0.22977279788958915,-0.5628040754467865,-1.392711442844524,-9.674782888793946,-9.674982888793945,-3.944794790649414,-3.9449947906494143
20.059829235076904,0.1112334132194519,2.4589884281158447,-1.2769801616668701,-0.009581661721283857,0.0014514923095703125,0.0,2.102288864836414,-1.244732923629527,-0.09024370458237696,0.7452326184449773,0.20083029915275463,0.1084116293906994,-0.9167618768030298,-9.259783024293252,-9.279019637995967,-3.794048885112876,-4.470441345093409
20.071844339370728,0.11504168808460236,2.4837231636047363,-1.2782281637191772,-0.009301763448651884,0.0015492439270019531,0.0,2.1219166573765875,-1.2498513564253826,-0.10024370458237696,0.7474647991181478,0.28396525040294485,-0.17359577091073558,-0.560145507867204,-8.820402006476462,-8.966080366127665,-3.4591217669326912,-4.986092758770125
20.081330060958862,0.11870934814214706,2.5076379776000977,-1.2791523933410645,-0.009046873196203037,0.0015087127685546875,0.0,2.141412154980124,-1.2550956088837286,-0.11024370458237695,0.7493271312458512,0.3728250899395753,-0.11911083941569565,-0.2675432530335553,-8.192164908230472,-8.914782691828155,-2.7676754856738457,-5.662481141839119
20.091185569763184,0.12048351764678955,2.519252300262451,-1.2795253992080688,-0.009111992992224371,0.0014815330505371094,0.0,2.160765045237579,-1.2604630029304364,-0.12024370458237695,0.7496563862796525,0.4036122400713684,-0.1785230365791502,-0.16654982141439412,-6.563015217770459,-9.944986658537294,-1.31386264405045,-6.905604192208227
20.101243495941162,0.12221323698759079,2.5306122303009033,-1.2798830270767212,-0.009272618925439707,0.0014901161193847656,0.0,2.1799650722044803,-1.2659505729708036,-0.13024370458237694,0.7498065011447783,0.4322766420052153,-0.18455850417970773,-0.09943869173354794,-9.674782888793946,-9.674982888793945,-3.944794790649414,-3.9449947906494143
20.317732334136963,0.12221323698759079,2.5306122303009033,-1.2798830270767212,-0.009272618925439707,0.0017125606536865234,0.0,2.543731542931152,-1.2855023036835445,-0.39119971748415716,0.7579543158284727,-1.0,-0.18874661781377652,-0.07028948220116768,-9.259783024293252,-9.279019637995967,-3.794048885112876,-4.470441345093409
20.32888650894165,0.1641295701265335,2.70833420753479,-1.2707105875015259,0.006728131908770307,0.002775430679321289,0.0,2.5564484966494327,-1.2911371810632024,-0.40119971748415717,0.7662595478167998,-0.21538059828445277,-0.030963344340526076,0.3844998587036114,-8.820402006476462,-8.966080366127665,-3.4591217669326912,-4.986092758770125
20.336118459701538,0.1641295701265335,2.70833420753479,-1.2707105875015259,0.006728131908770307,0.002442598342895508,0.0,2.5687558400346653,-1.2967764304325424,-0.4111997174841572,0.76638296332815,-0.2933047268199608,-0.22502511444988701,-0.041454891647601175,-8.192164908230472,-8.914782691828155,-2.7676754856738457,-5.662481141839119
20.347018718719482,0.16544011235237122,2.7123308181762695,-1.269686222076416,0.00772591615550966,0.002557992935180664,0.0,2.5806465815888218,-1.3024086062274904,-0.4211997174841572,0.7665850771076819,-0.3320654982567264,-0.06714030549139943,0.19640300245797013,-6.563015217770459,-9.944986658537294,-1.31386264405045,-6.905604192208227
20.35451602935791,0.16544011235237122,2.7123308181762695,-1.269686222076416,0.00772591615550966,0.002822399139404297,0.0,2.5921139946695098,-1.308022052008666,-0.4311997174841572,0.7667295199486671,-0.41352410715243515,-0.16719488854544945,-0.03394658785399668,-8.822495596313477,-8.822695596313476,-4.149814264678955,-4.150014264678955
20.37141489982605,0.16468077898025513,2.713001012802124,-1.268122911453247,0.009168598701571468,0.002508401870727539,0.0,2.6031516222876747,-1.3136049064750086,-0.4411997174841572,0.7662927552900936,-0.40840320247703343,-0.06175889347625649,0.15258831934733558,-8.530686749584806,-8.544666157181778,-3.7251984044102047,-4.410753336539398
20.382477283477783,0.1639922857284546,2.7122223377227783,-1.2676441669464111,0.009643968642248785,0.0025033950805664062,0.0,2.613753281768277,-1.3191451095818234,-0.4511997174841572,0.7661382234806665,-0.45316628150418825,-0.13421932373514184,-0.031354550541610675,-8.215575433609374,-8.365477620672849,-3.126618974197904,-4.651246856780442
20.622432708740234,0.13367360830307007,2.5713374614715576,-1.260292410850525,0.02305128057824235,0.0028061866760253906,0.0,2.715158794417579,-1.2684269397917236,-0.3571649950296901,0.7509349785871335,0.9723904560074146,0.09657100522881437,0.38565966066375096,-7.70124527370576,-8.459079058894513,-2.1899302886027683,-5.03921828752845
20.63999366760254,0.13195563852787018,2.55147123336792,-1.2601619958877563,0.023995094465933675,0.002519369125366211,0.0,2.7177629340348197,-1.2691579458653397,-0.36716499502969013,0.7497047500123745,1.0,-0.12021362619446184,0.122804678541785,-6.346112013394789,-9.458764320990591,-0.5596154044129806,-5.935667099584397
20.651517629623413,0.13195563852787018,2.55147123336792,-1.2601619958877563,0.023995094465933675,0.0025522708892822266,0.0,2.7200277380305344,-1.2698267523144697,-0.37716499502969014,0.7500145631963252,0.9594893222688909,0.027044641257096144,0.1110013708928804,-8.822495596313477,-8.822695596313476,-4.149814264678955,-4.150014264678955
20.66828942298889,0.12950655817985535,2.5199508666992188,-1.2599207162857056,0.025500517782789445,0.0025682449340820312,0.0,2.7219464359053838,-1.2704227080865624,-0.38716499502969015,0.7478612627800115,1.0,0.011335807226374853,0.025757991919909733,-8.530686749591235,-8.54466615719419,-3.725198411639852,-4.410753343731121
20.904398918151855,0.12950655817985535,2.5199508666992188,-1.2599207162857056,0.025500517782789445,0.0016155242919921875,0.0,2.511811611819073,-1.2557393226435027,-0.4505013364821538,0.7649576250779117,1.0,0.0488289053685846,-0.0006329402717311619,-8.215575433624604,-8.365477620840373,-3.1266189947023695,-4.651246875627678
20.91698670387268,0.12562376260757446,2.0359859466552734,-1.2703100442886353,0.035973178327868324,0.001558065414428711,0.0,2.50322207756639,-1.2514870173253545,-0.4405013364821538,0.7485215428813784,1.0,0.03665126983450992,-0.02677635324429686,-7.7012452739167045,-8.459079059434952,-2.1899303421869876,-5.039218312102219
20.92103624343872,0.12562376260757446,2.0359859466552734,-1.2703100442886353,0.035973178327868324,0.0016667842864990234,0.0,2.494188291593743,-1.2471756350166499,-0.4305013364821538,0.7488591618811109,1.0,0.04691568892932627,-0.04252603359716416,-6.346112040736873,-9.458764295809043,-0.5596158789574671,-5.935666758179755
20.932166814804077,0.12755270302295685,1.9760202169418335,-1.2716331481933594,0.03678439035838202,0.0029757022857666016,0.0,2.484716546971096,-1.2428168091552692,-0.42050133648215376,0.7477034636117562,1.0,0.03964807743172317,-0.04614973471228289,-8.822495596313477,-8.822695596313476,-4.149814264678955,-4.150014264678955
20.941208124160767,0.12755270302295685,1.9760202169418335,-1.2716331481933594,0.03678439035838202,0.002917051315307617,0.0,2.474813397211453,-1.2384219664802758,-0.41050133648215376,0.7480165567866368,1.0,0.043047678108368646,-0.04966845580826153,-8.530686749591235,-8.54466615719419,-3.725198411639852,-4.410753343731121
20.95289635658264,0.1281794160604477,1.9559000730514526,-1.2720773220062256,0.037042115014993424,0.0018627643585205078,0.0,2.4644856511855666,-1.2340023217002432,-0.40050133648215375,0.7477571771514303,1.0,0.03961685635512362,-0.049324288825108094,-8.215575433624604,-8.365477620840373,-3.1266189947023695,-4.651246875627678
21.183605670928955,0.15049445629119873,1.2987052202224731,-1.2868980169296265,0.04099044167519271,0.0032241344451904297,0.0,1.9365114832465897,-1.2671879231648977,-0.2121469151098918,0.7331577017694129,0.9255389720427643,-0.0908655150302611,0.07631931421286554,-7.7012452739167045,-8.459079059434952,-2.1899303421869876,-5.039218312102219
21.190969944000244,0.15049445629119873,1.2987052202224731,-1.2868980169296265,0.04099044167519271,0.0017428398132324219,0.0,1.9168669999701817,-1.2624385130248956,-0.2021469151098918,0.7330527977413346,0.9213037294440083,-0.003895229177879377,-0.11782638594477209,-6.346112040736873,-9.458764295809043,-0.5596158789574671,-5.935666758179755
21.201927661895752,0.15159392356872559,1.2553958892822266,-1.2886892557144165,0.04113601094279205,0.0015876293182373047,0.0,1.8969769398560918,-1.2578354000055183,-0.1921469151098918,0.7330612954275868,0.882738995722953,-0.0871559015151452,0.013995013243622775,-8.822495596313477,-8.822695596313476,-4.149814264678955,-4.150014264678955
21.211371421813965,0.1526162475347519,1.2125481367111206,-1.290530800819397,0.041261494101016156,0.0014805793762207031,0.0,1.8768517548607078,-1.253384612885929,-0.18214691510989178,0.7331501659665975,0.8411304726434954,-0.027850155357020675,-0.11498745316671784,-8.530686749591235,-8.54466615719419,-3.725198411639852,-4.410753343731121
21.22114658355713,0.15309756994247437,1.1913076639175415,-1.2914671897888184,0.04130714875708415,0.0014917850494384766,0.0,1.8565020259434908,-1.2490918980661232,-0.17214691510989177,0.7331752606500505,0.8188225165224332,-0.08668808982415342,-0.015453251062742774,-8.215575433624604,-8.365477620840373,-3.1266189947023695,-4.651246875627678
21.442314624786377,0.15309756994247437,1.1913076639175415,-1.2914671897888184,0.04130714875708415,0.00157928466796875,0.0,1.1691211634685266,-1.2939489383634266,0.09254119460751982,0.7270265127608219,1.0,-0.038108635674285136,-0.10771185304411542,-7.7012452739167045,-8.459079059434952,-2.1899303421869876,-5.039218312102219
21.45278763771057,0.1632503867149353,0.627752423286438,-1.3257694244384766,0.037230685104675726,0.0014681816101074219,0.0,1.1470376309612202,-1.296593469217997,0.10254119460751981,0.7363865172798485,0.2220047564145744,-0.047962862366155726,0.048650224909279165,-6.346112040736873,-9.458764295809043,-0.5596158789574671,-5.935666758179755
21.466358423233032,0.1632503867149353,0.627752423286438,-1.3257694244384766,0.037230685104675726,0.0019025802612304688,0.0,1.1250678675926251,-1.2993985508403891,0.11254119460751981,0.7360524655034549,0.25189064510884485,0.033804708751097194,-0.11444440546497536,-8.822495596313477,-8.822695596313476,-4.149814264678955,-4.150014264678955
21.474122285842896,0.16330590844154358,0.5954853296279907,-1.3273694515228271,0.03671442865224628,0.0019528865814208984,0.0,1.1032226253631028,-1.302361655459987,0.1225411946075198,0.7370537473889791,0.20186792670472986,-0.04996410528320678,0.06308324202216771,-8.530686749591235,-8.54466615719419,-3.725198411639852,-4.410753343731121
21.48286199569702,0.1633192002773285,0.5797079801559448,-1.3281148672103882,0.03648096107253054,0.0027692317962646484,0.0,1.081512600298416,-1.3054799600622908,0.1325411946075198,0.7373687428713288,0.19216920756468547,0.05210953476880741,-0.13579904886066566,-8.215575433624604,-8.365477620840373,-3.1266189947023695,-4.651246875627678
21.712975025177002,0.1633192002773285,0.5797079801559448,-1.3281148672103882,0.03648096107253054,0.002513885498046875,0.0,0.5633480181313051,-1.3338405172674173,0.32099701405055353,0.7284227971997069,0.5574734215179991,-0.059833188703084066,0.08968456466140237,-7.7012452739167045,-8.459079059434952,-2.1899303421869876,-5.039218312102219
21.731500387191772,0.15276682376861572,0.2357206493616104,-1.3399333953857422,0.030402427812860622,0.002380847930908203,0.0,0.5472956403102416,-1.3395176810220444,0.3259359060639181,0.7431200007352303,-0.4423141108799127,0.009869665468110978,-0.25237005036041554,-6.346112040736873,-9.458764295809043,-0.5596158789574671,-5.935666758179755
21.74004292488098,0.15276682376861572,0.2357206493616104,-1.3399333953857422,0.030402427812860622,0.0016703605651855469,0.0,0.531551352848593,-1.3451321025116743,0.3302628434440108,0.7429403111021756,-0.46344994240042103,-0.19280448308040318,-0.020349682039426803,-8.822495596313477,-8.822695596313476,-4.149814264678955,-4.150014264678955
21.751264572143555,0.15054276585578918,0.21573978662490845,-1.338829755783081,0.029316072027756962,0.0016493797302246094,0.0,0.5161153051707269,-1.3506705936865153,0.3340013470750227,0.7439219587159864,-0.5944574608860494,-0.07067244903039216,-0.2462810199958774,-8.530686749591235,-8.54466615719419,-3.725198411639852,-4.410753343731121
21.76008915901184,0.15054276585578918,0.21573978662490845,-1.338829755783081,0.029316072027756962,0.0018055438995361328,0.0,0.5009873386389746,-1.3561210095215952,0.3371745548026448,0.743756573125461,-0.6146967651785049,-0.1939387909250668,-0.14177109440986402,-8.215575433624604,-8.365477620840373,-3.1266189947023695,-4.651246875627678
21.99776554107666,0.12169428169727325,0.17259375751018524,-1.3162394762039185,-0.002668368532704496,0.0021474361419677734,0.0,0.20821395604794274,-1.3410847853474173,0.38162810639418066,0.7415629083798818,-1.0,0.06391967456183703,-0.23275994084467297,-7.7012452739167045,-8.459079059434952,-2.1899303421869876,-5.039218312102219
22.007920503616333,0.12169428169727325,0.17259375751018524,-1.3162394762039185,-0.002668368532704496,0.0015287399291992188,0.0,0.20100651438213424,-1.3431067276824422,0.37196832208120795,0.7415921898274497,-1.0,-0.02524752509318226,-0.1181370935798277,-6.346112040736873,-9.458764295809043,-0.5596158789574671,-5.935666758179755
22.016538858413696,0.11899367719888687,0.1805664598941803,-1.3149259090423584,-0.0051334431084175125,0.001560211181640625,0.0,0.1941131336135113,-1.3449052876253191,0.36230919738134276,0.7413083156978876,-1.0,0.0646298392840152,-0.06499324518185146,-8.822495596313477,-8.822695596313476,-4.149814264678955,-4.150014264678955
22.021419763565063,0.11899367719888687,0.1805664598941803,-1.3149259090423584,-0.0051334431084175125,0.00154876708984375,0.0,0.1875292802322291,-1.3464900927714296,0.35266196860053756,0.7413377406009785,-1.0,0.061826503884004874,-0.008513585130192649,-8.530686749591235,-8.54466615719419,-3.725198411639852,-4.410753343731121
22.03084683418274,0.11508341878652573,0.19343599677085876,-1.3128787279129028,-0.008791530086478205,0.0016951560974121094,0.0,0.18125021813793843,-1.3478706666580902,0.3430373601655294,0.7408526620861628,-1.0,0.11080030449987967,0.03180248124784577,-8.215575433624604,-8.365477620840373,-3.1266189947023695,-4.651246875627678
22.260186672210693,0.11508341878652573,0.19343599677085876,-1.3128787279129028,-0.008791530086478205,0.0015933513641357422,0.0,0.1950889501344741,-1.311037961352997,0.24400682287341774,0.740641642649925,-1.0,0.11234876403346031,0.06596986457801066,-7.7012452739167045,-8.459079059434952,-2.1899303421869876,-5.039218312102219
22.270156383514404,0.09055735915899277,0.37465307116508484,-1.2821999788284302,-0.02355262066173384,0.0014109611511230469,0.0,0.19699647004448112,-1.3091381059084175,0.23400682287341773,0.7378180415885266,-0.5236569583541827,-0.0657460732672304,-0.09801922919810546,-6.346112040736873,-9.458764295809043,-0.5596158789574671,-5.935666758179755
22.282582759857178,0.08996085822582245,0.39091792702674866,-1.2790687084197998,-0.024072139448783697,0.0031442642211914062,0.0,0.19915065708040827,-1.3071863622893993,0.22400682287341772,0.7377809210345685,-0.4782277415040517,-0.006394225483247621,-0.00829038010684538,-8.822495596313477,-8.822695596313476,-4.149814264678955,-4.150014264678955
22.28931999206543,0.08996085822582245,0.39091792702674866,-1.2790687084197998,-0.024072139448783697,0.0014717578887939453,0.0,0.2015434491998741,-1.3051896827465186,0.2140068228734177,0.7377147308734121,-0.4959278557347805,-0.02253788866687918,0.0069233882462764185,-8.530686749591235,-8.54466615719419,-3.725198411639852,-4.410753343731121
22.30286455154419,0.08900253474712372,0.41478201746940613,-1.27468740940094,-0.02481325808001657,0.002777099609375,0.0,0.20416662758295948,-1.3031547675264639,0.2040068228734177,0.7376908481130896,-0.4141977081689201,-0.03599217499964118,0.016825603341184183,-8.215575433624604,-8.365477620840373,-3.1266189947023695,-4.651246875627678
22.548877716064453,0.08900253474712372,0.41478201746940613,-1.27468740940094,-0.02481325808001657,0.002298116683959961,0.0,0.42043226611564877,-1.2740598329673685,-0.03953881434209327,0.7407546357129287,-1.0,-0.03089835390731831,0.027325666449827337,-7.7012452739167045,-8.459079059434952,-2.1899303421869876,-5.039218312102219
22.56102967262268,0.0676407516002655,0.6135222315788269,-1.2501533031463623,-0.02696451779910561,0.0014660358428955078,0.0,0.42606137138282635,-1.2734707281545734,-0.04953881434209327,0.741201700325945,-0.25634704107456585,-0.022385656001387845,0.042484136677132925,-6.346112040736873,-9.458764295809043,-0.5596158789574671,-5.935666758179755
22.571041107177734,0.06559327244758606,0.6220729947090149,-1.2493269443511963,-0.02680888663267471,0.0015392303466796875,0.0,0.4316593327981643,-1.2729193058240567,-0.05953881434209327,0.7412067686114111,-0.24428475949706163,-0.027447361659945355,0.0385377324267507,-7.1559792922973635,-7.156179292297363,-2.5552233623504637,-2.555423362350464
22.795438051223755,0.06559327244758606,0.6220729947090149,-1.2493269443511963,-0.02680888663267471,0.0014867782592773438,0.0,0.6248796733330932,-1.2493957076082036,-0.18504700863858778,0.7428924877454915,-0.2760814864646113,-0.02499258064900306,0.043237818226442855,-6.989382382990028,-7.024661260314743,-1.7185920392862757,-2.2878578743309643
22.808236598968506,0.027621440589427948,0.6553658246994019,-1.2468692064285278,-0.021596050474388978,0.002605915069580078,0.0,0.6275145967288619,-1.249428445093752,-0.18736405376413962,0.7411152086261948,0.7367126650203569,-0.013332425559481616,0.04560487337303391,-6.759096095311478,-6.967339569535632,-0.7549915390856269,-1.9910618593942673
22.81510329246521,0.027621440589427948,0.6553658246994019,-1.2468692064285278,-0.021596050474388978,0.0024433135986328125,0.0,0.6299753470376044,-1.249422726077821,-0.1892565475662017,0.7411059388172279,0.7481882725401672,-0.01702617736313675,0.04153823949645831,-6.344686201183805,-7.076751536632975,0.48321783438675664,-1.8252683537434153
22.828639268875122,0.026233363896608353,0.6535342335700989,-1.2471345663070679,-0.021333393460821817,0.0037047863006591797,0.0,0.6322598831383822,-1.2493764578118332,-0.1907433102721741,0.7409535498254392,0.7981211141662303,-0.014653356702721715,0.040382817130864834,-5.391053086841173,-7.678555073500547,2.3471171820333274,-2.158376655957081
22.83749508857727,0.026233363896608353,0.6535342335700989,-1.2471345663070679,-0.021333393460821817,0.0026679039001464844,0.0,0.6343665203138786,-1.24928787643132,-0.191842758312003,0.7409475037244005,0.8089570851928936,-0.014935007168650457,0.03878967525815571,-7.1559792922973635,-7.156179292297363,-2.5552233623504637,-2.555423362350464
23.090898275375366,-0.0073310756124556065,0.47820207476615906,-1.2368237972259521,-0.011868574708659166,0.002498149871826172,0.0,0.6510686646152197,-1.2461271173095283,-0.24921628513988459,0.7384453924472048,1.0,-0.0019975255534816485,0.02114933728689445,-6.989382382990028,-7.024661260314743,-1.7185920392862757,-2.2878578743309643
23.109702587127686,-0.008873499929904938,0.46232616901397705,-1.236100196838379,-0.011255703062356723,0.0025510787963867188,0.0,0.6483530228844578,-1.2450729205576352,-0.23921628513988458,0.7382339505532113,1.0,-0.003162504863340736,0.015317962801244228,-6.759096095311478,-6.967339569535632,-0.7549915390856269,-1.9910618593942673
23.35777759552002,-0.03137483820319176,0.19293338060379028,-1.2333306074142456,-0.0029062768771894315,0.002439737319946289,0.0,0.4537802363101814,-1.2352168830287265,-0.08613281391183553,0.7372369188731458,0.04700475943908766,0.004475425072526556,-0.013174653948007861,-6.344686201183805,-7.076751536632975,0.48321783438675664,-1.8252683537434153
23.367785692214966,-0.03137483820319176,0.19293338060379028,-1.2333306074142456,-0.0029062768771894315,0.0015254020690917969,0.0,0.4451350859096096,-1.2343884982242244,-0.07613281391183553,0.7371028941887672,0.0733392333676226,-0.006984191523975494,0.001603166523555244,-5.391053086841173,-7.678555073500547,2.3471171820333274,-2.158376655957081
23.374945163726807,-0.0338117852807045,0.16983893513679504,-1.2338453531265259,-0.002212370917560394,0.0017015933990478516,0.0,0.43640069635439166,-1.233617831831642,-0.06613281391183554,0.7373751034965894,-0.04397544868519887,-0.0006628339500834381,-0.003739350823735497,-7.1559792922973635,-7.156179292297363,-2.5552233623504637,-2.555423362350464
23.59152626991272,-0.0338117852807045,0.16983893513679504,-1.2338453531265259,-0.002212370917560394,0.001650094985961914,0.0,0.1622496812374481,-1.2357210848547004,0.1856961384856791,0.7357508053796719,0.1307868576790625,-0.0037713078394372114,0.00044774695496847567,-6.989382382990028,-7.024661260314743,-1.7185920392862757,-2.2878578743309643
23.60243272781372,-0.04844004660844803,0.01239156536757946,-1.2633652687072754,0.002871458201491553,0.002521991729736328,0.0,0.15483516926860433,-1.237544800870239,0.18670662293106136,0.7362766975481676,-0.6210833684406907,0.010072080612762336,-0.011668055397181062,-6.759096095311478,-6.967339569535632,-0.7549915390856269,-1.9910618593942673
23.610245943069458,-0.04844004660844803,0.01239156536757946,-1.2633652687072754,0.002871458201491553,0.0027923583984375,0.0,0.14759601711296105,-1.2393139631832075,0.18743276410362206,0.7362005606033399,-0.6320794874344358,0.002612352281154599,-0.0037855587843258257,-6.344686201183805,-7.076751536632975,0.48321783438675664,-1.8252683537434153
23.62185573577881,-0.04864015057682991,0.009907965548336506,-1.2643389701843262,0.003002330175050416,0.002644777297973633,0.0,0.14053263084191564,-1.2410263283013898,0.18788733208637515,0.7360992975310516,-0.6604106633197959,0.007354915011448365,-0.0030823048712127965,-5.391053086841173,-7.678555073500547,2.3471171820333274,-2.158376655957081
23.633756399154663,-0.049250729382038116,0.004061947111040354,-1.2672489881515503,0.0033739767116121866,0.002538919448852539,0.0,0.13364521613772917,-1.2426799360877652,0.18808282250647762,0.735844297419146,-0.7264481674842949,0.00808928697552401,-0.0010807178139419775,-7.1559792922973635,-7.156179292297363,-2.5552233623504637,-2.555423362350464
23.876218795776367,-0.049250729382038116,0.004061947111040354,-1.2672489881515503,0.0033739767116121866,0.0015568733215332031,0.0,0.0024242919569343623,-1.2680994161184698,0.23121950047461287,0.736398348288602,-1.0,0.0083776310515163,-5.551179920882043e-05,-6.989382382990028,-7.024661260314743,-1.7185920392862757,-2.2878578743309643
23.88770341873169,-0.05694098398089409,0.03819802403450012,-1.2955459356307983,0.0067368669932911865,0.0020399093627929688,0.0,0.0010009179984865311,-1.2688531926413036,0.22121950047461286,0.733430687681077,-0.790738723857783,0.008358902893173198,-0.006485461200549643,-6.759096095311478,-6.967339569535632,-0.7549915390856269,-1.9910618593942673
23.892812728881836,-0.05694098398089409,0.03819802403450012,-1.2955459356307983,0.0067368669932911865,0.0024297237396240234,0.0,-0.00021569118922422115,-1.2695169540340652,0.21132467713185416,0.7334162712142255,-0.803850729053956,0.008104993226645972,-0.008254089475639867,-6.344686201183805,-7.076751536632975,0.48321783438675664,-1.8252683537434153
23.9039888381958,-0.05616694316267967,0.04507078602910042,-1.297086477279663,0.006902506151512319,0.002643585205078125,0.0,-0.0012331447207264816,-1.2700971993019106,0.20164525906574501,0.7331489187555986,-0.7665868367244159,0.008703975668589924,-0.008953731724598667,-5.391053086841173,-7.678555073500547,2.3471171820333274,-2.158376655957081
23.91123390197754,-0.05616694316267967,0.04507078602910042,-1.297086477279663,0.006902506151512319,0.002485990524291992,0.0,-0.00205906979851538,-1.2706001903663515,0.19218286244047803,0.7331296256120678,-0.7687652704921415,0.008423282216117016,-0.009587268660916064,-7.1559792922973635,-7.156179292297363,-2.5552233623504637,-2.555423362350464
24.14577579498291,-0.04438940808176994,0.1465209424495697,-1.3239554166793823,0.008041418761013483,0.002765655517578125,0.0,0.047709847362816145,-1.2975396724119748,0.055637133425945895,0.7329701027611717,0.0755873948002449,0.01681659353099033,-0.005289115124460779,-6.989382382990028,-7.024661260314743,-1.7185920392862757,-2.2878578743309643
24.15985918045044,-0.04438940808176994,0.1465209424495697,-1.3239554166793823,0.008041418761013483,0.002505779266357422,0.0,0.05040707652394428,-1.297981848502429,0.047130980108070084,0.7328936610966508,0.0812417078712745,0.013100057411892433,-0.013421675748831751,-6.759096095311478,-6.967339569535632,-0.7549915390856269,-1.9910618593942673
24.171554803848267,-0.04290183261036873,0.15572300553321838,-1.326735258102417,0.008027160578783998,0.0025434494018554688,0.0,0.05315435735152322,-1.2984136657979541,0.03899922848688165,0.732768573988661,0.21433401088751514,0.0165720845835132,-0.015272470593716659,-6.344686201183805,-7.076751536632975,0.48321783438675664,-1.8252683537434153
24.417410612106323,-0.02597455307841301,0.1766262650489807,-1.3566327095031738,0.006528770073833179,0.0014636516571044922,0.0,0.157100661846653,-1.32782904764167,-0.15350744340420738,0.7329890349717949,0.9486010778627082,0.009293888773968553,-0.01944865453071566,-5.391053086841173,-7.678555073500547,2.3471171820333274,-2.158376655957081
24.429118633270264,-0.02597455307841301,0.1766262650489807,-1.3566327095031738,0.006528770073833179,0.003663301467895508,0.0,0.15833640279194064,-1.3288621874026683,-0.14935972943919254,0.7329544292702944,0.9526653396912628,0.011604346127700858,-0.014112122575914038,-7.1559792922973635,-7.156179292297363,-2.5552233623504637,-2.555423362350464
24.440755367279053,-0.023554550483822823,0.17209945619106293,-1.3580232858657837,0.006371179431216276,0.002534627914428711,0.0,0.15943368813331488,-1.329836705350365,-0.1452114398142814,0.7327498047710057,0.9762533659825396,0.00973107537832777,-0.01016347602952437,-6.989382382990028,-7.024661260314743,-1.7185920392862757,-2.2878578743309643
24.67550778388977,-0.00433329027146101,0.06530722975730896,-1.3768420219421387,0.004211159344131705,0.0014469623565673828,0.0,0.16906480326394435,-1.3583578725112009,-0.14983024163903247,0.7318123302507084,0.3871603480786685,-0.00433883097102906,0.011079766574040872,-6.759096095311478,-6.967339569535632,-0.7549915390856269,-1.9910618593942673
24.688430547714233,-0.00433329027146101,0.06530722975730896,-1.3768420219421387,0.004211159344131705,0.002648591995239258,0.0,0.16588510147802507,-1.3586666314792384,-0.13983024163903246,0.7317511816098885,0.4135314512412904,0.003997529516707051,-0.0015559312129313457,-6.344686201183805,-7.076751536632975,0.48321783438675664,-1.8252683537434153
24.699193477630615,-0.003813596209511161,0.051757700741291046,-1.379459261894226,0.0040145615094524904,0.002554655075073242,0.0,0.16256911124153864,-1.358954055845241,-0.12983024163903245,0.7315958513912363,0.3191152220883007,-0.001337004694112447,8.900190584950315e-05,-5.391053086841173,-7.678555073500547,2.3471171820333274,-2.158376655957081
24.71088147163391,-0.0036404591519385576,0.04733056202530861,-1.380338191986084,0.003951354314438278,0.002462625503540039,0.0,0.15912569633450255,-1.3592243711510241,-0.11983024163903246,0.7315059405876772,0.30514356860873226,-0.00018388098011771996,-0.003264197010461341,-6.177312509918213,-6.177512509918213,-1.1982205080032349,-1.1984205080032349
24.939513444900513,0.006273672450333834,-0.05249018222093582,-1.397265076637268,0.002495942973196552,0.0025513172149658203,0.0,0.04268927249551952,-1.381729914132198,0.07822029276539344,0.732555989771971,-0.49461487343778515,-0.0035892106474416196,-0.000607987165448366,-5.88269243794652,-5.906627033654239,-0.5452909595568952,-1.1945369310181984
24.956867218017578,0.007589400280267,-0.055717770010232925,-1.3982799053192139,0.002428353642921932,0.002496957778930664,0.0,0.038123728394893246,-1.383095012075251,0.08153777236647192,0.7325058268579921,-0.5605371236962153,-0.001279246994482131,-0.003057693301557186,-5.546689127547701,-5.702333170083035,0.2663527523884011,-1.1682261878036224
24.969940185546875,0.007589400280267,-0.055717770010232925,-1.3982799053192139,0.002428353642921932,0.0025539398193359375,0.0,0.03363683161843627,-1.3844317239322979,0.08458039667885817,0.7324169077903951,-0.5684220335578375,-0.0024295927810136604,-0.0034714202343066407,-5.0463756180933395,-5.66877330166085,1.406353788214367,-1.2980762162178068
24.981685161590576,0.009479914791882038,-0.059599366039037704,-1.3997972011566162,0.0023301889892214794,0.002573251724243164,0.0,0.029231240657299585,-1.3857383848247897,0.08735773320184351,0.732266575627047,-0.6628264280339826,-0.0011044649111624052,-0.004036783879684151,-3.939941400974568,-6.213273831272227,3.1880204178211504,-1.9772778312970232
25.20737600326538,0.027115095406770706,-0.03589688986539841,-1.41782808303833,0.0015791575736036345,0.0016698837280273438,0.0,-0.060197752204120665,-1.4009469302703381,0.19665636895828362,0.731368857061087,-0.8437604000702528,0.013219864593425144,0.0003103772956035958,-6.177312509918213,-6.177512509918213,-1.1982205080032349,-1.1984205080032349
25.216033935546875,0.027115095406770706,-0.03589688986539841,-1.41782808303833,0.0015791575736036345,0.0014803409576416016,0.0,-0.06061648755836162,-1.4020162679596344,0.18761434424820714,0.7313354017329512,-0.8457013679553959,0.008893278683479215,-0.0037716788800860566,-5.88269243794652,-5.906627033654239,-0.5452909595568952,-1.1945369310181984
25.22308659553528,0.030351663008332253,-0.02609219029545784,-1.4197908639907837,0.0015195999621594597,0.0014081001281738281,0.0,-0.06086263734394066,-1.4030105623382456,0.17877392040340104,0.7310464593368575,-0.7994826676612508,0.012794268685493552,-0.0024626969229002427,-5.546689127547701,-5.702333170083035,0.2663527523884011,-1.1682261878036224
25.23131561279297,0.03238054737448692,-0.019426949322223663,-1.4211252927780151,0.0014837666959530912,0.00150299072265625,0.0,-0.06094323186853039,-1.4039348143197365,0.17013640462784166,0.7308458089105822,-0.7659237795286089,0.013128172498575428,-0.003914450149848495,-5.0463756180933395,-5.66877330166085,1.406353788214367,-1.2980762162178068
25.24364185333252,0.03238054737448692,-0.019426949322223663,-1.4211252927780151,0.0014837666959530912,0.0015883445739746094,0.0,-0.060865253176558484,-1.4047936889845636,0.16170280130327327,0.7308079419035232,-0.7670158491208159,0.012936984957957844,-0.004554394477058439,-3.939941400974568,-6.213273831272227,3.1880204178211504,-1.9772778312970232
25.481582403182983,0.03238054737448692,-0.019426949322223663,-1.4211252927780151,0.0014837666959530912,0.002683877944946289,0.0,-0.01641094386932427,-1.4219644980939292,0.0584157330466564,0.7320856705996338,-0.8791110381299816,0.013033001098197435,-0.00469650435696733,-6.177312509918213,-6.177512509918213,-1.1982205080032349,-1.1984205080032349
25.493616104125977,0.05779070407152176,0.09926041960716248,-1.4452369213104248,0.0010286146879666391,0.002524137496948242,0.0,-0.013338263518114646,-1.4227874263452134,0.0499927931298195,0.7306932296413716,0.10984288120871188,0.01299561348661174,-0.010103298551598182,-5.88269243794652,-5.906627033654239,-0.5452909595568952,-1.1945369310181984
25.50123691558838,0.05779070407152176,0.09926041960716248,-1.4452369213104248,0.0010286146879666391,0.002765655517578125,0.0,-0.010216676201478885,-1.4235947040076486,0.04193070398778288,0.7306024317642591,0.1155671179734995,0.014487894077857756,-0.009087616707426307,-5.546689127547701,-5.702333170083035,0.2663527523884011,-1.1682261878036224
25.51221489906311,0.05855235829949379,0.10238830745220184,-1.445949673652649,0.0010063462814305923,0.0028083324432373047,0.0,-0.007053647455882983,-1.4243867051919452,0.034222046139517105,0.7305335810665919,0.16353077466258226,0.013886245207497466,-0.009680279019033974,-5.0463756180933395,-5.66877330166085,1.406353788214367,-1.2980762162178068
25.73645782470703,0.07878144830465317,0.13384877145290375,-1.4638532400131226,-0.00017223595556171978,0.001538991928100586,0.0,0.10424107734497148,-1.447405188508845,-0.14563396791362404,0.7315025227687688,1.0,0.004060101060380681,-0.013389731916286262,-3.939941400974568,-6.213273831272227,3.1880204178211504,-1.9772778312970232
25.744615077972412,0.07878144830465317,0.13384877145290375,-1.4638532400131226,-0.00017223595556171978,0.0013606548309326172,0.0,0.10596107941134422,-1.4487944723915036,-0.14223032388795429,0.7314510278777416,1.0,0.006730351794830098,-0.007323319843796854,-6.177312509918213,-6.177512509918213,-1.1982205080032349,-1.1984205080032349
25.75319743156433,0.07997754961252213,0.13116700947284698,-1.4642906188964844,-0.00028769547194806844,0.0025954246520996094,0.0,0.1075511237794332,-1.450119159022512,-0.13880292858971438,0.7313678474914291,1.0,0.003333833523599942,-0.002690852287243767,-5.88269243794652,-5.906627033654239,-0.5452909595568952,-1.1945369310181984
25.767199277877808,0.07997754961252213,0.13116700947284698,-1.4642906188964844,-0.00028769547194806844,0.003052234649658203,0.0,0.10901405018234413,-1.4513808750505874,-0.1353573291134598,0.7313167743209364,1.0,0.003489576460061659,-0.0013038672512828346,-5.546689127547701,-5.702333170083035,0.2663527523884011,-1.1682261878036224
25.779721975326538,0.0816526934504509,0.12619668245315552,-1.464990258216858,-0.00046736811759107155,0.0019252300262451172,0.0,0.11035272423075333,-1.452581235075171,-0.13189882505244568,0.7311254705298625,1.0,0.001393196095035416,0.00015072076407503802,-5.0463756180933395,-5.66877330166085,1.406353788214367,-1.2980762162178068
26.001248121261597,0.07984587550163269,0.02540455013513565,-1.463908076286316,-0.0014732556461217548,0.0016264915466308594,0.0,0.12315640678508076,-1.4654066824282774,-0.16659729698052958,0.7312707511192468,0.4069309763636486,-0.013950042272958482,0.011622803444840707,-3.939941400974568,-6.213273831272227,3.1880204178211504,-1.9772778312970232
26.01193332672119,0.07827652990818024,0.011770382523536682,-1.4645843505859375,-0.0015369313411698615,0.0032601356506347656,0.0,0.11995758479608166,-1.4657869483390646,-0.15659729698052957,0.7312431160816398,0.310452496710216,-0.009485604366000855,0.0008796684159687454,-6.177312509918213,-6.177512509918213,-1.1982205080032349,-1.1984205080032349
26.020453453063965,0.07827652990818024,0.011770382523536682,-1.4645843505859375,-0.0015369313411698615,0.0017309188842773438,0.0,0.1166087141963801,-1.4661360048916594,-0.14659729698052956,0.7311684189821283,0.3357224775131902,-0.011450218648145383,1.83821582615962e-05,-5.88269243794652,-5.906627033654239,-0.5452909595568952,-1.1945369310181984
26.03113079071045,0.07748167216777802,0.0023420006036758423,-1.46445631980896,-0.001570258740930995,0.0014696121215820312,0.0,0.11311840702922328,-1.466458539452867,-0.13659729698052955,0.731152907060314,0.2786414283764196,-0.012091501334178646,-0.0018060958873699642,-5.546689127547701,-5.702333170083035,0.2663527523884011,-1.1682261878036224
26.03948998451233,0.07748167216777802,0.0023420006036758423,-1.46445631980896,-0.001570258740930995,0.003108978271484375,0.0,0.10949538354463169,-1.4667589752502597,-0.12659729698052954,0.7310708124515283,0.3059265045837205,-0.012044443529435133,-0.0026085589626581216,-5.0463756180933395,-5.66877330166085,1.406353788214367,-1.2980762162178068
26.255033254623413,0.07039925456047058,-0.10903540253639221,-1.4580821990966797,-0.0023134992931471837,0.0015423297882080078,0.0,-0.0024079052693130668,-1.465790993955855,0.06925656568542576,0.7327993108144164,-0.2503446004896773,-0.009327515754813123,-0.007917425446323414,-3.939941400974568,-6.213273831272227,3.1880204178211504,-1.9772778312970232
26.26281714439392,0.07039925456047058,-0.10903540253639221,-1.4580821990966797,-0.0023134992931471837,0.001590728759765625,0.0,-0.007090459890873319,-1.4671044975948613,0.07386774509277333,0.7327037640973769,-0.2590850008533606,-0.011253426910235847,-0.0051167892672121405,-6.177312509918213,-6.177512509918213,-1.1982205080032349,-1.1984205080032349
26.269336223602295,0.07017402350902557,-0.11171634495258331,-1.4579154253005981,-0.002348773548909472,0.0014293193817138672,0.0,-0.011701576134221733,-1.4683945979866029,0.07814402240795258,0.732679687926923,-0.2935092498015075,-0.009917296949915458,-0.004925684622934913,-5.88269243794652,-5.906627033654239,-0.5452909595568952,-1.1945369310181984
26.281310081481934,0.0697784498333931,-0.11645044386386871,-1.457054615020752,-0.002421334534884495,0.0015091896057128906,0.0,-0.016237471869327575,-1.469659146265339,0.08209638548748756,0.7327264216098547,-0.3552674222095145,-0.009444461562992754,-0.004260889734955359,-5.546689127547701,-5.702333170083035,0.2663527523884011,-1.1682261878036224
26.29213047027588,0.0694323405623436,-0.12042736262083054,-1.4557421207427979,-0.0024941857521807304,0.0018210411071777344,0.0,-0.02069465749535556,-1.470896086774205,0.08573570430056983,0.7327008522256564,-0.41357421166360214,-0.008636793740194456,-0.0036476252750293064,-5.0463756180933395,-5.66877330166085,1.406353788214367,-1.2980762162178068
26.301304578781128,0.06925483047962189,-0.1222221627831459,-1.455142855644226,-0.0025314902608845335,0.0015215873718261719,0.0,-0.025069923783190007,-1.4721034647469127,0.08907272217290957,0.7326401751429658,-0.443421401615546,-0.008265908580571982,-0.0028144829471441067,-3.939941400974568,-6.213273831272227,3.1880204178211504,-1.9772778312970232
26.31108808517456,0.06907457113265991,-0.12388711422681808,-1.4545787572860718,-0.002570271760430412,0.0015149116516113281,0.0,-0.029360330062919424,-1.473279432471663,0.0921180476132559,0.7325851382919432,-0.4706099701126095,-0.007743501552173748,-0.0021766738263288773,-6.177312509918213,-6.177512509918213,-1.1982205080032349,-1.1984205080032349
26.54678988456726,0.06907457113265991,-0.12388711422681808,-1.4545787572860718,-0.002570271760430412,0.0015065670013427734,0.0,-0.12483546332694308,-1.4557419481911118,0.18205353941033373,0.7325863722424074,-0.6855867862604748,-0.007655439713736251,-0.001561194016369513,-5.88269243794652,-5.906627033654239,-0.5452909595568952,-1.1945369310181984
