time,x,y,z,yaw,ctrl_comp_time,x_ref,y_ref,z_ref,yaw_ref,throttle,roll_rate,pitch_rate,yaw_rate,save_tube_pyH,save_tube_pyL,save_tube_pzH,save_tube_pzL
15.010840654373169,0.1497092992067337,3.8361241817474365,-12.53580379486084,-0.002710615234142769,0.12104129791259766,0.0,3.8275950579488147,-12.540907080496897,-0.03336142044559041,0.5884893265335807,-1.0,0.020187335358232913,0.01965222068765025,-12.54138292541504,-12.541582925415039,0.0736994577407837,0.07349945774078369
15.474074602127075,0.1497092992067337,3.8361241817474365,-12.53580379486084,-0.002710615234142769,0.16086816787719727,0.0,3.836818690630996,-12.535220302150908,-0.03305572220471806,0.5882177027947336,-1.0,0.05295211925295652,0.09154849401541988,-12.51708149221912,-12.522380164545893,0.35242000713573485,-0.33913185472358603
15.770381212234497,0.05300913751125336,3.8842060565948486,-12.49209976196289,0.0009506824646690944,0.0018470287322998047,0.0,3.836818690630996,-12.535220302150908,-0.03305572220471806,0.5873895336182611,-1.0,0.09612868274097351,0.2683289631830372,-12.434734802709,-12.492186951466202,0.6433975716673598,-0.9586065960764232
15.895930051803589,0.05300913751125336,3.8842060565948486,-12.49209976196289,0.0009506824646690944,0.0008814334869384766,0.0,3.884559878193967,-12.491936194992778,-0.034480965379444846,0.5872843352178946,-1.0,0.30729007791868146,0.5341644815915185,-12.17287231684977,-12.5729650202119,1.2177969032687737,-2.0528072830441944
15.900990962982178,0.04837945103645325,3.897758722305298,-12.482462882995605,-3.1845570093438566e-05,0.0009675025939941406,0.0,3.884904102772113,-12.491405016928587,-0.04448096537944485,0.5861025153371227,-1.0,0.455103054543077,0.6670822407957593,-10.715789468318635,-13.77704710093812,2.7882196752972708,-4.329141905660815
15.909895658493042,0.04814961925148964,3.898577928543091,-12.482234954833984,-9.153413092300063e-05,0.0010409355163574219,0.0,3.885236180914225,-12.490508901213246,-0.05448096537944485,0.5847264486188257,-1.0,0.5585721381801539,0.7335411203978797,-12.53570379486084,-12.53590379486084,0.06818726489543915,0.06798726489543915
15.920002698898315,0.047910694032907486,3.8993828296661377,-12.482015609741211,-0.00012220024654103698,0.0011115074157714844,0.0,3.885553483841805,-12.489250351991693,-0.06448096537944485,0.5834113385522229,-1.0,0.6310004967261077,0.7667705601989399,-12.51132694920348,-12.516594488639837,0.3472139590616818,-0.34435229775773685
15.92993426322937,0.047663308680057526,3.900174617767334,-12.481779098510742,-8.443106037155437e-05,0.0016753673553466797,0.0,3.8858533082346542,-12.4876317014587,-0.07448096537944485,0.5825011033586801,-1.0,0.6817003477082754,0.7833852800994698,-12.428957091419079,-12.486184141988225,0.6385061828386509,-0.9635508684416665
15.940244436264038,0.047143273055553436,3.9017205238342285,-12.481107711791992,0.00023995125317548098,0.0017566680908203125,0.0,3.886132881130689,-12.485655107345321,-0.08448096537944484,0.582914128263588,-1.0,0.7171902433957927,0.7916926400497348,-12.16717193040769,-12.566595992536634,1.2132569029013915,-2.057525082002039
15.951255559921265,0.047143273055553436,3.9017205238342285,-12.481107711791992,0.00023995125317548098,0.0009615421295166016,0.0,3.8863893648998635,-12.483322550546067,-0.09448096537944484,0.5815758135814781,-1.0,0.742033170377055,0.7958463200248675,-10.708984907650006,-13.771454266721202,2.7842250078979673,-4.333845917568456
15.95996618270874,0.04659577086567879,3.9032256603240967,-12.480037689208984,0.0009217464882160901,0.0010776519775390625,0.0,3.886619862288153,-12.480635832888757,-0.10448096537944483,0.5827511155282155,-1.0,0.7594232192639384,0.7979231600124339,-12.53570379486084,-12.53590379486084,0.06818726489543915,0.06798726489543915
15.970045328140259,0.046310290694236755,3.903961181640625,-12.479317665100098,0.0013943648150667766,0.001361846923828125,0.0,3.8868214215275287,-12.477596575048908,-0.11448096537944483,0.582836922492806,-1.0,0.7715962534847569,0.7989615800062171,-12.51132694920348,-12.516594488639834,0.34721395906134905,-0.3443522977580673
15.979869842529297,0.045709021389484406,3.905390977859497,-12.477441787719727,0.002584989379353416,0.001626729965209961,0.0,3.8869910415077924,-12.474206214610323,-0.12448096537944482,0.5845496162183568,-1.0,0.78011737743933,0.7994807900031087,-12.42895709141908,-12.486184141988213,0.6385061828379255,-0.9635508684423321
15.990126848220825,0.04538964480161667,3.906080722808838,-12.476276397705078,0.003296867210233617,0.0010917186737060547,0.0,3.887125677006118,-12.470466004273455,-0.13448096537944482,0.5848149254505226,-1.0,0.786082164207531,0.7997403950015545,-12.167171930407722,-12.566595992536572,1.2132569028998685,-2.0575250820027886
15.999850988388062,0.04505515471100807,3.9067509174346924,-12.474952697753906,0.0040832271611184225,0.0011265277862548828,0.0,3.887222243970111,-12.46637701021295,-0.14448096537944483,0.5851207846624193,-1.0,0.7902575149452717,0.7998701975007774,-10.708984907651402,-13.771454266719727,2.784225007872034,-4.333845917545975
16.00990605354309,0.044739287346601486,3.90739369392395,-12.473492622375488,0.004937081320056661,0.0010554790496826172,0.0,3.8872776248501704,-12.461940110585669,-0.15448096537944483,0.5854605956393408,-1.0,0.7931802604616902,0.7999350987503888,-12.49199976196289,-12.49219976196289,0.03507117012739182,0.03487117012739181
16.02002215385437,0.04502427950501442,3.9089198112487793,-12.469985008239746,0.0068094153837657476,0.0012073516845703125,0.0,3.8872886739769092,-12.45715599419029,-0.16448096537944484,0.5875582101969491,-1.0,0.7952261823231832,0.7999675493751943,-12.471575489298262,-12.476836939922377,0.31261130690707084,-0.378769264933614
16.15004563331604,0.04502427950501442,3.9089198112487793,-12.469985008239746,0.0068094153837657476,0.0010747909545898438,0.0,3.909346813409464,-12.467741572970459,-0.08948760776035704,0.6010439282298873,-1.0,0.7966583276262282,0.7999837746875973,-12.39298630837326,-12.44936207218042,0.6017730661869267,-0.9985917083915956
16.15983557701111,0.04057539626955986,3.9150848388671875,-12.412606239318848,0.029719671593931518,0.0009667873382568359,0.0,3.909749164654654,-12.465155771646687,-0.09948760776035703,0.6301775091265504,0.010203136004587998,0.7976608293383598,0.7999918873437988,-12.135365057765895,-12.53104360679223,1.1720310104570344,-2.090766870479651
16.170377731323242,0.03990361839532852,3.9151477813720703,-12.407479286193848,0.031342539803392355,0.0021843910217285156,0.0,3.910123712144821,-12.46222920491819,-0.10948760776035703,0.6308840235178752,0.001487622302782654,0.724626341902896,0.7999959436718994,-10.692757212853046,-13.724397838570471,2.730899544193929,-4.357594331352822
16.179829120635986,0.03832147642970085,3.9149744510650635,-12.396689414978027,0.034663171570101126,0.0010738372802734375,0.0,3.910467254400609,-12.458963287250503,-0.11948760776035702,0.6335384344421586,0.07207284904182965,0.6356002438989309,0.7999979718359498,-12.49199976196289,-12.49219976196289,0.03507117012739182,0.03487117012739181
16.1900053024292,0.03740447014570236,3.914729595184326,-12.391033172607422,0.0363539891585688,0.0011587142944335938,0.0,3.910776546574551,-12.455359245157165,-0.12948760776035703,0.6341221465930664,0.06357819662140263,0.5569021544599853,0.7999989859179749,-12.471575489298262,-12.476836939922377,0.31261130690707084,-0.378769264933614
16.199785232543945,0.03639639541506767,3.9143688678741455,-12.385221481323242,0.038082252924272156,0.0011157989501953125,0.0,3.91104830577573,-12.451418115581369,-0.13948760776035704,0.6345644864853249,0.05193060005834149,0.4904314722473681,0.7999994929589874,-12.39298630837326,-12.44936207218042,0.6017730661869267,-0.9985917083915956
16.209945678710938,0.035292234271764755,3.9138855934143066,-12.379291534423828,0.03987332456796833,0.0010960102081298828,0.0,3.911279216443181,-12.447140744428335,-0.14948760776035705,0.6349420906160734,0.034605523307803754,0.43180787519377023,0.7999997464794938,-12.135365057765895,-12.53104360679223,1.1720310104570344,-2.090766870479651
16.220129013061523,0.032786525785923004,3.912524461746216,-12.367012977600098,0.0437660300112664,0.0014443397521972656,0.0,3.9114659357637986,-12.44252778524956,-0.15948760776035706,0.6368352258280155,0.08092329340982674,0.35825719808352163,0.799999873239747,-10.692757212853046,-13.724397838570471,2.730899544193929,-4.357594331352822
16.229784727096558,0.03137527033686638,3.911644458770752,-12.360668182373047,0.04591182928748212,0.0010700225830078125,0.0,3.9116050991305045,-12.43757969807994,-0.16948760776035707,0.6371702440047597,0.04509936505725154,0.29848479169545217,0.7999999366198736,-12.49199976196289,-12.49219976196289,0.03507117012739182,0.03487117012739181
16.240214347839355,0.029854917898774147,3.9106292724609375,-12.354186058044434,0.048205783191355336,0.0011839866638183594,0.0,3.9116933256364095,-12.432296748428671,-0.17948760776035708,0.6375060494757326,0.0025036996286087465,0.2476912775819915,0.7999999683099368,-12.471575489298262,-12.476836939922377,0.31261130690707084,-0.378769264933614
16.24978256225586,0.028223177418112755,3.9094769954681396,-12.347567558288574,0.05065360376038322,0.001016855239868164,0.0,3.9117272236006975,-12.426679006424644,-0.18948760776035709,0.6378465003299248,-0.0462511947376516,0.20223892446356442,0.7999999841549684,-12.39298630837326,-12.44936207218042,0.6017730661869267,-0.9985917083915956
16.260056257247925,0.024616315960884094,3.9067578315734863,-12.333969116210938,0.05602895309064872,0.0012786388397216797,0.0,3.9117033961219585,-12.42072634611695,-0.1994876077603571,0.6397270320233649,-0.04649303657379744,0.14414684624360702,0.7661222925972273,-12.135365057765895,-12.53104360679223,1.1720310104570344,-2.090766870479651
16.270055532455444,0.023204565048217773,3.9049220085144043,-12.326875686645508,0.058962878458645146,0.0011742115020751953,0.0,3.9116184466546895,-12.41443844493098,-0.2094876077603571,0.6400880478533052,-0.10728754733255363,0.08044751817690757,0.6682159138703699,-10.692757212853046,-13.724397838570471,2.730899544193929,-4.357594331352822
16.389111518859863,0.023204565048217773,3.9049220085144043,-12.326875686645508,0.058962878458645146,0.0010793209075927734,0.0,3.9046397114138403,-12.317798777876781,-0.2830848611285195,0.6482684012857772,-1.0,-0.00290270104485675,0.557286770703573,-12.49199976196289,-12.49219976196289,0.03507117012739182,0.03487117012739181
16.39751172065735,-0.014776899479329586,3.8604776859283447,-12.204526901245117,0.1173189152635397,0.0022525787353515625,0.0,3.9042587366901023,-12.308423950906189,-0.2930848611285195,0.6713609516057683,-0.3974705325815626,-0.24203189073139972,0.3244240151310517,-12.471575489298262,-12.476836939922377,0.31261130690707084,-0.378769264933614
16.40156102180481,-0.014776899479329586,3.8604776859283447,-12.204526901245117,0.1173189152635397,0.0015163421630859375,0.0,3.9037751953415003,-12.298748316774413,-0.3030848611285195,0.6701101741478482,-0.536587852286996,-0.4094223235119798,-0.22350643977804138,-12.39298630837326,-12.44936207218042,0.6017730661869267,-0.9985917083915956
16.410040140151978,-0.0234072208404541,3.850767135620117,-12.186211585998535,0.12625446731050038,0.0015015602111816406,0.0,3.903185276274301,-12.288768781575362,-0.3130848611285195,0.6722900348795455,-0.5703785616073238,-0.5265956264583859,-0.5117532198890207,-12.135365057765895,-12.53104360679223,1.1720310104570344,-2.090766870479651
16.419992923736572,-0.0234072208404541,3.850767135620117,-12.186211585998535,0.12625446731050038,0.0017542839050292969,0.0,3.9024852520002016,-12.278482048202477,-0.32308486112851953,0.671265680027208,-0.7207506742890634,-0.6086169385208702,-0.6558766099445104,-10.692757212853046,-13.724397838570471,2.730899544193929,-4.357594331352822
16.42993664741516,-0.03252432495355606,3.8405966758728027,-12.167330741882324,0.13528735896936162,0.0018780231475830078,0.0,3.901671484291939,-12.267884618247175,-0.33308486112851954,0.6733119586474896,-0.7553866242709462,-0.6660318569646091,-0.7279383049722552,-12.49199976196289,-12.49219976196289,0.03507117012739182,0.03487117012739181
16.44010877609253,-0.03252432495355606,3.8405966758728027,-12.167330741882324,0.13528735896936162,0.0016009807586669922,0.0,3.9007404297931516,-12.256972794047934,-0.34308486112851955,0.6723002772631678,-0.9126328083518465,-0.7062222998752263,-0.7639691524861276,-12.471575489298262,-12.476836939922377,0.31261130690707084,-0.378769264933614
16.449934720993042,-0.04718460887670517,3.824395179748535,-12.138134002685547,0.14897467739455458,0.0025796890258789062,0.0,3.899688645578684,-12.245742680888437,-0.35308486112851956,0.6746549194825641,-0.8471253810799149,-0.7343556099126585,-0.7819845762430637,-12.39298630837326,-12.44936207218042,0.6017730661869267,-0.9985917083915956
16.459940433502197,-0.04718460887670517,3.824395179748535,-12.138134002685547,0.14897467739455458,0.0015931129455566406,0.0,3.8985127946615763,-12.234190189343053,-0.36308486112851956,0.6736546807474451,-1.0,-0.754048926938861,-0.7909922881215319,-12.135365057765895,-12.53104360679223,1.1720310104570344,-2.090766870479651
16.470178842544556,-0.06311263144016266,3.8069028854370117,-12.108316421508789,0.16293494589250665,0.0026361942291259766,0.0,3.897209651443058,-12.222311037767891,-0.3730848611285196,0.6752560112559605,-0.8901797961507769,-0.7678342488572028,-0.7954961440607657,-10.692757212853046,-13.724397838570471,2.730899544193929,-4.357594331352822
16.479830741882324,-0.06311263144016266,3.8069028854370117,-12.108316421508789,0.16293494589250665,0.0016012191772460938,0.0,3.8957761071019297,-12.210100754935503,-0.3830848611285196,0.6742751781585326,-1.0,-0.7774839742000419,-0.7977480720303829,-12.49199976196289,-12.49219976196289,0.03507117012739182,0.03487117012739181
16.49009656906128,-0.07442174106836319,3.7944793701171875,-12.088105201721191,0.17200868148890447,0.001619577407836914,0.0,3.8942091749197907,-12.197554682811264,-0.3930848611285196,0.674994287712086,-1.0,-0.7842387819400294,-0.7988740360151914,-12.471575489298262,-12.476836939922377,0.31261130690707084,-0.378769264933614
16.49981999397278,-0.07442174106836319,3.7944793701171875,-12.088105201721191,0.17200868148890447,0.0015406608581542969,0.0,3.8925059955386403,-12.184667979469353,-0.4030848611285196,0.6740300876135561,-1.0,-0.7889671473580205,-0.7994370180075956,-12.39298630837326,-12.44936207218042,0.6017730661869267,-0.9985917083915956
16.510093212127686,-0.0923285111784935,3.7746615409851074,-12.057317733764648,0.18488395079920492,0.0016689300537109375,0.0,3.8906638421474646,-12.171435622146168,-0.4130848611285196,0.6756471282522827,-1.0,-0.7922770031506143,-0.7997185090037977,-12.135365057765895,-12.53104360679223,1.1720310104570344,-2.090766870479651
16.632373094558716,-0.0923285111784935,3.7746615409851074,-12.057317733764648,0.18488395079920492,0.0019659996032714844,0.0,3.770746273463701,-12.042474023754616,-0.3043573892510038,0.6681184472590541,-1.0,-0.7945939022054301,-0.7998592545018988,-10.692757212853046,-13.724397838570471,2.730899544193929,-4.357594331352822
16.641611337661743,-0.19230829179286957,3.6579411029815674,-11.909234046936035,0.23107363405462567,0.0015044212341308594,0.0,3.7667639663692163,-12.027329161102525,-0.3143573892510038,0.679468260003253,0.9802476128208697,-0.7962157315438011,-0.7999296272509495,-12.49199976196289,-12.49219976196289,0.03507117012739182,0.03487117012739181
16.650447130203247,-0.2075229287147522,3.6381537914276123,-11.886590957641602,0.2359483106384738,0.0016453266143798828,0.0,3.7627105817134083,-12.01187984964507,-0.3243573892510038,0.6799473374237429,1.0,-0.7973510120806608,-0.7999648136254748,-12.471575489298262,-12.476836939922377,0.31261130690707084,-0.378769264933614
16.66003179550171,-0.21668623387813568,3.6271748542785645,-11.875127792358398,0.2382536651269531,0.0017387866973876953,0.0,3.7585821768664274,-11.996122588776887,-0.33435738925100383,0.6798956522906934,1.0,-0.7981457084564626,-0.7999824068127375,-12.39298630837326,-12.44936207218042,0.6017730661869267,-0.9985917083915956
16.67005705833435,-0.23499277234077454,3.6046080589294434,-11.851922035217285,0.24245188555692213,0.0017654895782470703,0.0,3.7543749101566295,-11.98005367562335,-0.34435738925100384,0.6806821936074523,1.0,-0.7987019959195238,-0.7999912034063688,-12.135365057765895,-12.53104360679223,1.1720310104570344,-2.090766870479651
16.67991065979004,-0.2441273182630539,3.5930120944976807,-11.840150833129883,0.24442022880822928,0.001688241958618164,0.0,3.7500850464200544,-11.963669207359192,-0.35435738925100385,0.6805837553070524,1.0,-0.7990913971436667,-0.7999956017031844,-10.692757212853046,-13.724397838570471,2.730899544193929,-4.357594331352822
16.69011640548706,-0.25324344635009766,3.581195116043091,-11.828278541564941,0.24625391679137035,0.002634286880493164,0.0,3.7457089624959563,-11.946965083671309,-0.36435738925100386,0.6804240124577964,1.0,-0.7993639780005667,-0.7999978008515922,-12.49199976196289,-12.49219976196289,0.03507117012739182,0.03487117012739181
16.699979782104492,-0.26233676075935364,3.5691494941711426,-11.816311836242676,0.24791755458488612,0.002695322036743164,0.0,3.7412431526648433,-11.929937009364078,-0.37435738925100387,0.6802645894150541,1.0,-0.7995547846003968,-0.7999989004257961,-12.471575489298262,-12.476836939922377,0.31261130690707084,-0.378769264933614
16.70994758605957,-0.2804015278816223,3.5443527698516846,-11.792108535766602,0.25072736784333105,0.0015630722045898438,0.0,3.73668423402554,-11.91258049710535,-0.3843573892510039,0.6808286161369822,1.0,-0.7996883492202778,-0.7999994502128981,-12.39298630837326,-12.44936207218042,0.6017730661869267,-0.9985917083915956
16.72017478942871,-0.28936710953712463,3.531602621078491,-11.779865264892578,0.2519030940709353,0.0019969940185546875,0.0,3.732028951807857,-11.894890870311222,-0.3943573892510039,0.6807696007065885,1.0,-0.7997818444541944,-0.799999725106449,-12.135365057765895,-12.53104360679223,1.1720310104570344,-2.090766870479651
16.730013608932495,-0.29829734563827515,3.518622875213623,-11.767518997192383,0.25297750024244947,0.0026693344116210938,0.0,3.7272741846175217,-11.876863266167618,-0.4043573892510039,0.6807697922536864,1.0,-0.7998472911179361,-0.7999998625532245,-10.692757212853046,-13.724397838570471,2.730899544193929,-4.357594331352822
16.740225076675415,-0.30718985199928284,3.505415439605713,-11.755067825317383,0.25397075334607605,0.001993894577026367,0.0,3.7224169496100967,-11.858492638786615,-0.4143573892510039,0.6808000161606491,1.0,-0.7998931037825553,-0.7999999312766123,-12.49199976196289,-12.49219976196289,0.03507117012739182,0.03487117012739181
16.74976873397827,-0.32485324144363403,3.4783267974853516,-11.729851722717285,0.2557169816672895,0.0016262531280517578,0.0,3.717454407590682,-11.839773762495355,-0.4243573892510039,0.6816010718470105,1.0,-0.7999251726477887,-0.7999999656383061,-12.471575489298262,-12.476836939922377,0.31261130690707084,-0.378769264933614
16.759997129440308,-0.33361971378326416,3.4644522666931152,-11.717087745666504,0.25646058765594476,0.0016679763793945312,0.0,3.712383868036279,-11.82070123525532,-0.4343573892510039,0.6816726202215644,1.0,-0.7999476208534522,-0.7999999828191531,-12.39298630837326,-12.44936207218042,0.6017730661869267,-0.9985917083915956
16.880070686340332,-0.33361971378326416,3.4644522666931152,-11.717087745666504,0.25646058765594476,0.002291440963745117,0.0,3.4569616382155735,-11.695187148922336,-0.46637865067863754,0.7006692722431435,-1.0,-0.7999633345974165,-0.7999999914095766,-12.135365057765895,-12.53104360679223,1.1720310104570344,-2.090766870479651
16.893558263778687,-0.4656774401664734,3.1982948780059814,-11.499496459960938,0.25470441209507205,0.0014581680297851562,0.0,3.4493516567323494,-11.672924529083591,-0.47637865067863755,0.7112573454700155,0.12809567362797813,-0.7999743342181915,-0.7598285334480437,-10.692757212853046,-13.724397838570471,2.730899544193929,-4.357594331352822
16.90016746520996,-0.4733314514160156,3.1803665161132812,-11.485130310058594,0.25355183604191056,0.0034542083740234375,0.0,3.4416202452290645,-11.650292860117275,-0.48637865067863756,0.711318672357294,-0.05300247019297988,-0.799982033952734,-0.7799142667240219,-12.49199976196289,-12.49219976196289,0.03507117012739182,0.03487117012739181
16.909910678863525,-0.4883354604244232,3.1404716968536377,-11.45460033416748,0.2511138231077752,0.002549886703491211,0.0,3.433765524788507,-11.627284964551363,-0.49637865067863757,0.7123541605173211,-0.15976444629297482,-0.7999874237669139,-0.7899571333620109,-12.471575489298262,-12.476836939922377,0.31261130690707084,-0.378769264933614
16.920256853103638,-0.49569210410118103,3.120405673980713,-11.43928050994873,0.24986159385380632,0.003403902053833008,0.0,3.4257858188118404,-11.603893518249404,-0.5063786506786375,0.7124421519417748,-0.3315950322800456,-0.799517118915743,-0.7821614775366987,-12.39298630837326,-12.44936207218042,0.6017730661869267,-0.9985917083915956
16.930081844329834,-0.5029442310333252,3.100276231765747,-11.423933982849121,0.24853450266808488,0.0024268627166748047,0.0,3.4176796571286134,-11.58011105528841,-0.5163786506786375,0.7124861722011478,-0.4977536716299933,-0.7828257726513194,-0.7480712299313436,-12.135365057765895,-12.53104360679223,1.1720310104570344,-2.090766870479651
16.94019913673401,-0.510090708732605,3.0800697803497314,-11.40856647491455,0.24711459037600284,0.0016207695007324219,0.0,3.4094457799934035,-11.555929972936994,-0.5263786506786375,0.7125008969254172,-0.6595875572913323,-0.7541870560269175,-0.6874866512128943,-10.692757212853046,-13.724397838570471,2.730899544193929,-4.357594331352822
16.94978928565979,-0.5240514874458313,3.039433479309082,-11.377771377563477,0.24399139399912875,0.0017163753509521484,0.0,3.401083141967009,-11.531342536730651,-0.5363786506786375,0.712806785669884,-0.7122431482196379,-0.6964080347614425,-0.5764577307994627,-12.49199976196289,-12.49219976196289,0.03507117012739182,0.03487117012739181
16.960166454315186,-0.5308586955070496,3.0190060138702393,-11.362342834472656,0.24229257856906522,0.002040386199951172,0.0,3.3925909156802128,-11.506340885641116,-0.5463786506786376,0.7128090677079537,-0.8672172297714222,-0.6469686435733171,-0.498665948160192,-12.471575489298262,-12.476836939922377,0.31261130690707084,-0.378769264933614
16.970033645629883,-0.5375457406044006,2.9985079765319824,-11.346921920776367,0.2405092950925589,0.0017938613891601562,0.0,3.3839684954782228,-11.480917037336589,-0.5563786506786376,0.7128271180765045,-1.0,-0.5986850555232283,-0.4194631732041788,-12.39298630837326,-12.44936207218042,0.6017730661869267,-0.9985917083915956
16.980178117752075,-0.5441089868545532,2.9779398441314697,-11.331477165222168,0.2386492309289808,0.0033254623413085938,0.0,3.375215500944,-11.4550628935297,-0.5650837710423109,0.7128430971392264,-1.0,-0.5536322800405347,-0.3562134184182816,-12.135365057765895,-12.53104360679223,1.1720310104570344,-2.090766870479651
16.99002432823181,-0.5568711757659912,2.936619758605957,-11.30051326751709,0.23471814353421872,0.001710653305053711,0.0,3.366297741941373,-11.428781770798304,-0.5717636496348705,0.713107688861583,-0.8593474504658138,-0.4905700134949458,-0.28105395561464347,-10.692757212853046,-13.724397838570471,2.730899544193929,-4.357594331352822
16.999898195266724,-0.5630632042884827,2.9158666133880615,-11.284994125366211,0.23262371899784356,0.0016276836395263672,0.0,3.35716100708172,-11.40208471368194,-0.5765216844251727,0.7130733521309196,-0.7902829627399355,-0.4505797300894235,-0.2832542815823541,-12.49199976196289,-12.49219976196289,0.03507117012739182,0.03487117012739181
17.128391981124878,-0.5630632042884827,2.9158666133880615,-11.284994125366211,0.23262371899784356,0.001409292221069336,0.0,2.899310693417702,-11.260342739465548,-0.2895910960372348,0.6915924890009351,-0.058605059220915745,-0.43571626171961125,-0.3139660496815641,-12.471575489298262,-12.476836939922377,0.31261130690707084,-0.378769264933614
17.136748790740967,-0.6463156938552856,2.537584066390991,-11.015690803527832,0.19608047263536132,0.0015096664428710938,0.0,2.882539443515885,-11.235474141002351,-0.2891435628817129,0.6953418934766166,1.0,-0.09774856481819699,0.036287709331023724,-12.39298630837326,-12.44936207218042,0.6017730661869267,-0.9985917083915956
17.140228033065796,-0.6463156938552856,2.537584066390991,-11.015690803527832,0.19608047263536132,0.0014116764068603516,0.0,2.8655262535165233,-11.21040686642673,-0.28772333610515444,0.6947234553535105,1.0,0.033552590771578,-0.09489668918708898,-12.135365057765895,-12.53104360679223,1.1720310104570344,-2.090766870479651
17.149872541427612,-0.6496301889419556,2.5144126415252686,-10.99942684173584,0.19416152822474664,0.001522064208984375,0.0,2.8482463816154113,-11.185159382007804,-0.2853895115479388,0.6943950068626398,1.0,0.12417811665093374,-0.17028637063284863,-10.692757212853046,-13.724397838570471,2.730899544193929,-4.357594331352822
17.159966707229614,-0.651948869228363,2.4906692504882812,-10.983246803283691,0.19227591515206777,0.0016515254974365234,0.0,2.830676959549934,-11.159750111024527,-0.2821993890575405,0.6940329453810491,1.0,0.19493783438349516,-0.21679188025522148,-12.49199976196289,-12.49219976196289,0.03507117012739182,0.03487117012739181
17.17010736465454,-0.6560416221618652,2.442859411239624,-10.950712203979492,0.18907633983236533,0.0016410350799560547,0.0,2.8127969929932553,-11.13419744439053,-0.2782084771499013,0.6938023275817725,1.0,0.27966959673917835,-0.25349629470858814,-12.471575489298262,-12.476836939922377,0.31261130690707084,-0.378769264933614
17.180044174194336,-0.6578097939491272,2.418782949447632,-10.934356689453125,0.1874408567298278,0.0017592906951904297,0.0,2.7945873571928703,-11.108519736808505,-0.2734705031091812,0.6934640230573844,1.0,0.34807470870297597,-0.28866615066197765,-12.39298630837326,-12.44936207218042,0.6017730661869267,-0.9985917083915956
17.190199851989746,-0.6607769131660461,2.3702688217163086,-10.901432037353516,0.18358587033985696,0.0016596317291259766,0.0,2.776030787814902,-11.082735290426214,-0.2680374276711529,0.6934522969020397,1.0,0.4292639826440973,-0.32866870136239384,-12.135365057765895,-12.53104360679223,1.1720310104570344,-2.090766870479651
17.199982166290283,-0.6619753241539001,2.3458306789398193,-10.88485336303711,0.18126714639386932,0.001758575439453125,0.0,2.757111866920903,-11.056862327847906,-0.2619594635131626,0.6933717559107383,1.0,0.4934548688524571,-0.3710585955898685,-10.692757212853046,-13.724397838570471,2.730899544193929,-4.357594331352822
17.21005892753601,-0.6629826426506042,2.32127046585083,-10.86819076538086,0.17867576570660865,0.001790761947631836,0.0,2.7378170039964376,-11.030918956241573,-0.2552850968519223,0.6933685600009661,1.0,0.5482359579965913,-0.4127362497760797,-12.49199976196289,-12.49219976196289,0.03507117012739182,0.03487117012739181
17.220243453979492,-0.6638011336326599,2.2965919971466064,-10.85147476196289,0.17583042526322107,0.0028829574584960938,0.0,2.718134411964357,-11.004923124173262,-0.24806111152773996,0.6934231702654656,1.0,0.5967637709356098,-0.4528286879182759,-12.471575489298262,-12.476836939922377,0.31261130690707084,-0.378769264933614
17.23001980781555,-0.664875864982605,2.2468886375427246,-10.817784309387207,0.16946037242917006,0.0024728775024414062,0.0,2.698054078145383,-10.9788925726939,-0.2403326150288153,0.6940955710896339,1.0,0.6524202572959961,-0.4970108276400592,-12.39298630837326,-12.44936207218042,0.6017730661869267,-0.9985917083915956
17.355194330215454,-0.664875864982605,2.2468886375427246,-10.817784309387207,0.16946037242917006,0.0018744468688964844,0.0,2.228125188213384,-10.787628875180305,-0.36697328703314297,0.7068192367967728,1.0,0.6851925765062347,-0.5329730719746677,-12.135365057765895,-12.53104360679223,1.1720310104570344,-2.090766870479651
17.363089561462402,-0.6393493413925171,1.8291128873825073,-10.537139892578125,0.10327857000997957,0.001329660415649414,0.0,2.2087582544877624,-10.757444460714124,-0.35697328703314296,0.7162854306971201,1.0,0.7196348035543643,-0.6020761667889932,-10.692757212853046,-13.724397838570471,2.730899544193929,-4.357594331352822
17.369917631149292,-0.636229395866394,1.802278757095337,-10.519023895263672,0.0990052989569279,0.001547098159790039,0.0,2.188793725550424,-10.727243989935914,-0.34697328703314295,0.716503904374293,1.0,0.743744362488055,-0.6427671635155248,-12.469885008239746,-12.470085008239746,0.024851633405685424,0.024651633405685425
17.380207777023315,-0.6329836845397949,1.7754087448120117,-10.500840187072754,0.09475456411634589,0.002682209014892578,0.0,2.1682377556124104,-10.697040204106692,-0.33697328703314294,0.7169034608623155,1.0,0.7606210537416385,-0.6701036886238975,-12.427976289095904,-12.436617207761444,0.24739347403538237,-0.44130476152635334
17.390011072158813,-0.6261278390884399,1.7215769290924072,-10.46428394317627,0.08628544618813246,0.0014252662658691406,0.0,2.1470967597988055,-10.66684565588041,-0.32697328703314293,0.7176217528700868,1.0,0.7721721459174513,-0.6855729716693798,-12.324357136658396,-12.397578658707353,0.48539249223301795,-1.1157002797029918
17.399994611740112,-0.6210076808929443,1.6938424110412598,-10.446159362792969,0.08204080506021125,0.0012102127075195312,0.0,2.125377409896452,-10.636672703478247,-0.3169732870331429,0.7175818794219645,1.0,0.7756548061638691,-0.6946046805113537,-12.024762592794046,-12.485212636238009,1.020769659250212,-2.2760955627984236
17.40990710258484,-0.6157809495925903,1.6661021709442139,-10.427990913391113,0.0782419740520296,0.0011394023895263672,0.0,2.103086629963971,-10.60653350496186,-0.3069732870331429,0.7174958929866904,1.0,0.7737023266378328,-0.6982491889781871,-10.401982914720602,-13.820867415470426,2.6018717932787045,-4.664592454586706
17.420069217681885,-0.6104755401611328,1.6383713483810425,-10.409812927246094,0.07442664807814282,0.0011518001556396484,0.0,2.080231591806365,-10.576440012609389,-0.2969732870331429,0.7173802766567051,1.0,0.7675381745051548,-0.697053184857709,-12.469885008239746,-12.470085008239746,0.024851633405685424,0.024651633405685425
17.429994583129883,-0.5995654463768005,1.58291757106781,-10.373353004455566,0.06670058077286989,0.0010902881622314453,0.0,2.0568197103166144,-10.546403967397923,-0.2869732870331429,0.7176191884280027,1.0,0.7502976140629513,-0.6872168047568975,-12.427976289095904,-12.436617207761444,0.24739347403538237,-0.44130476152635334
17.440192937850952,-0.5939676761627197,1.5552033185958862,-10.355076789855957,0.0628229967401325,0.0011172294616699219,0.0,2.032858638686773,-10.516436893596039,-0.2769732870331429,0.7174815280407897,1.0,0.7329230950229416,-0.6730590798618222,-12.324357136658396,-12.397578658707353,0.48539249223301795,-1.1157002797029918
17.449779272079468,-0.5882798433303833,1.5275031328201294,-10.336771965026855,0.05893835543564616,0.0010118484497070312,0.0,2.008356263491205,-10.48655009346994,-0.2669732870331429,0.7173453394438739,1.0,0.714241042511356,-0.6559679722526058,-12.024762592794046,-12.485212636238009,1.020769659250212,-2.2760955627984236
17.459962844848633,-0.5825059413909912,1.499821424484253,-10.318440437316895,0.05505228369412272,0.0010945796966552734,0.0,1.9833206996446995,-10.456754642106674,-0.25697328703314287,0.7172132815425888,1.0,0.694105201190653,-0.6363763237104747,-10.401982914720602,-13.820867415470426,2.6018717932787045,-4.664592454586706
17.47025442123413,-0.5707153081893921,1.4445313215255737,-10.281757354736328,0.047299876574764366,0.0019769668579101562,0.0,1.9577602852383138,-10.427061382357733,-0.24697328703314286,0.7174844162633012,1.0,0.6622521040664635,-0.6066532779169844,-12.469885008239746,-12.470085008239746,0.024851633405685424,0.024651633405685425
17.58103346824646,-0.5707153081893921,1.4445313215255737,-10.281757354736328,0.047299876574764366,0.0015332698822021484,0.0,1.4147367007429243,-10.255524990414552,-0.0849936765971508,0.7006366875484205,1.0,0.6445875477588782,-0.5849374714274166,-12.427976289095904,-12.436617207761444,0.24739347403538237,-0.44130476152635334
17.58985710144043,-0.4782528877258301,1.0812066793441772,-10.038322448730469,0.0005380469324203583,0.0009412765502929688,0.0,1.384598478601335,-10.229467746847392,-0.07499367659715081,0.7063904253908566,1.0,0.47408080495033716,-0.3991529817216627,-12.324357136658396,-12.397578658707353,0.48539249223301795,-1.1157002797029918
17.59983539581299,-0.454286128282547,0.9978335499763489,-9.981249809265137,-0.009340987151466421,0.0010139942169189453,0.0,1.354126827367056,-10.203591917971844,-0.06499367659715082,0.707616645398661,1.0,0.3593041276514731,-0.2473371982754582,-12.024762592794046,-12.485212636238009,1.020769659250212,-2.2760955627984236
17.609988689422607,-0.454286128282547,0.9978335499763489,-9.981249809265137,-0.009340987151466421,0.001093149185180664,0.0,1.3233320378314937,-10.177903520208053,-0.05499367659715081,0.7069793312119543,1.0,0.30963281973384216,-0.18091121462153079,-10.401982914720602,-13.820867415470426,2.6018717932787045,-4.664592454586706
17.620189905166626,-0.43831488490104675,0.9428761601448059,-9.943150520324707,-0.01578261471082995,0.0011513233184814453,0.0,1.2922245129640413,-10.152408289780814,-0.04499367659715081,0.7077213770508488,1.0,0.2621788314699221,-0.12135209220160165,-12.469885008239746,-12.470085008239746,0.024851633405685424,0.024651633405685425
17.629945993423462,-0.43831488490104675,0.9428761601448059,-9.943150520324707,-0.01578261471082995,0.0010330677032470703,0.0,1.2608147614998557,-10.127111680194155,-0.03499367659715081,0.7070858258114011,1.0,0.24340572929275314,-0.10089354091167782,-12.427976289095904,-12.436617207761444,0.24739347403538237,-0.44130476152635334
17.640583276748657,-0.4144655764102936,0.8614500164985657,-9.88590145111084,-0.025123101258490377,0.0014007091522216797,0.0,1.2291133914664412,-10.1020188598606,-0.024993676597150807,0.7086123798240478,0.958229378696115,0.20417036824971338,-0.052853700585147184,-12.324357136658396,-12.397578658707353,0.48539249223301795,-1.1157002797029918
17.649808168411255,-0.4144655764102936,0.8614500164985657,-9.88590145111084,-0.025123101258490377,0.0011034011840820312,0.0,1.1971311036529368,-10.07713470988656,-0.014993676597150807,0.7079793859878736,0.9089848429410009,0.1911676273776273,-0.04487273769145633,-12.024762592794046,-12.485212636238009,1.020769659250212,-2.2760955627984236
17.659961700439453,-0.3982979655265808,0.8070538640022278,-9.848355293273926,-0.031126202149133947,0.001094818115234375,0.0,1.1648786850260393,-10.052463822015165,-0.004993676597150807,0.7088497041860962,0.8383910074984212,0.17390891729748997,-0.02834343561230762,-10.401982914720602,-13.820867415470426,2.6018717932787045,-4.664592454586706
17.670021772384644,-0.3982979655265808,0.8070538640022278,-9.848355293273926,-0.031126202149133947,0.00107574462890625,0.0,1.1323670020965206,-10.02801049672778,0.005006323402849193,0.7082187057983735,0.7942849417258104,0.1688587369573497,-0.029337031501070615,-12.469885008239746,-12.470085008239746,0.024851633405685424,0.024651633405685425
17.679869413375854,-0.38187628984451294,0.7524887323379517,-9.811431884765625,-0.036805487227783075,0.0010266304016113281,0.0,1.099606994240326,-10.003778741505274,0.015006323402849193,0.7091516975272015,0.7221247141927243,0.1589831852870155,-0.019118322137454347,-12.427976289095904,-12.436617207761444,0.24739347403538237,-0.44130476152635334
17.69005823135376,-0.38187628984451294,0.7524887323379517,-9.811431884765625,-0.036805487227783075,0.0010671615600585938,0.0,1.0666096669782568,-9.979772269249985,0.025006323402849195,0.7085226866796266,0.6833016713486175,0.15609783061138482,-0.01999786766874928,-12.324357136658396,-12.397578658707353,0.48539249223301795,-1.1157002797029918
17.69991397857666,-0.3574697971343994,0.6719768643379211,-9.755693435668945,-0.04487367925754591,0.0010743141174316406,0.0,1.0333860852182606,-9.955994496869273,0.0350063234028492,0.710473113245925,0.5857453766439502,0.1465756647648979,-0.005418173177188873,-12.024762592794046,-12.485212636238009,1.020769659250212,-2.2760955627984236
17.802961826324463,-0.3574697971343994,0.6719768643379211,-9.755693435668945,-0.04487367925754591,0.0010335445404052734,0.0,0.6381256644235913,-9.736983247635525,0.17433676657535577,0.7074355215354381,1.0,0.1439598913657537,-0.004889175445132815,-10.401982914720602,-13.820867415470426,2.6018717932787045,-4.664592454586706
17.810973644256592,-0.2522859573364258,0.3448374271392822,-9.510232925415039,-0.07373810118446888,0.0009822845458984375,0.0,0.6042298388014868,-9.71848694870575,0.18433676657535578,0.7205098317563455,0.6584656142863113,0.11179662923325433,0.08801131467937442,-12.469885008239746,-12.470085008239746,0.024851633405685424,0.024651633405685425
17.820085287094116,-0.24396954476833344,0.3213587999343872,-9.491147994995117,-0.07555068872124218,0.0011136531829833984,0.0,0.5703000298407396,-9.700203205799731,0.19433676657535578,0.7210699285280968,0.6421248527557788,0.11354815648743928,0.07590988944108706,-12.427976289095904,-12.436617207761444,0.24739347403538237,-0.44130476152635334
17.82983422279358,-0.23571570217609406,0.2980954945087433,-9.472024917602539,-0.07731566744944977,0.0010256767272949219,0.0,0.5363468265222096,-9.682130397348157,0.2043367665753558,0.7216497476612288,0.6277517729334684,0.11201844544718821,0.07589706920452938,-12.324357136658396,-12.397578658707353,0.48539249223301795,-1.1157002797029918
17.840224027633667,-0.22752468287944794,0.2750494182109833,-9.45283317565918,-0.0790344381870549,0.0010569095611572266,0.0,0.5023807577880557,-9.664266614648714,0.2143367665753558,0.7222466034349325,0.6153198407322558,0.10999726611323983,0.0781099119423132,-12.024762592794046,-12.485212636238009,1.020769659250212,-2.2760955627984236
17.849939346313477,-0.2193935513496399,0.25220802426338196,-9.433574676513672,-0.080695303070682,0.0017650127410888672,0.0,0.46841228592404777,-9.646609663377275,0.2243367665753558,0.7228297509176972,0.6040592393507278,0.10787614581416775,0.08075536181020274,-10.401982914720602,-13.820867415470426,2.6018717932787045,-4.664592454586706
17.859957456588745,-0.203321635723114,0.2071978747844696,-9.39487361907959,-0.08387474101390009,0.0011126995086669922,0.0,0.4344517999781985,-9.629157065252654,0.23433676657535582,0.7246117453605735,0.5507332636318123,0.10397686896382648,0.08656617184200763,-12.469885008239746,-12.470085008239746,0.024851633405685424,0.024651633405685425
17.870147228240967,-0.19538100063800812,0.1850348562002182,-9.375435829162598,-0.08540184601575335,0.0010900497436523438,0.0,0.40050960921924234,-9.611906059853595,0.24433676657535583,0.7251937417061842,0.5391293726699848,0.10192405480515727,0.08864683065329859,-12.427976289095904,-12.436617207761444,0.24739347403538237,-0.44130476152635334
17.88016653060913,-0.17969003319740295,0.14140614867210388,-9.336442947387695,-0.08831484894133598,0.00252532958984375,0.0,0.3665959366384349,-9.59485360658662,0.2543367665753558,0.7335459922757658,0.2686870910024788,0.09846792767184218,0.09349518339000937,-12.324357136658396,-12.397578658707353,0.48539249223301795,-1.1157002797029918
17.89011311531067,-0.17193959653377533,0.11994536221027374,-9.31686019897461,-0.08969323885136855,0.0015935897827148438,0.0,0.3327209124980911,-9.577996386803235,0.2643367665753558,0.7337412849485164,0.24521642818793032,0.09648005578207317,0.0955720497202456,-12.024762592794046,-12.485212636238009,1.020769659250212,-2.2760955627984236
17.900099992752075,-0.16425228118896484,0.09872344136238098,-9.297219276428223,-0.09102099689617112,0.0026581287384033203,0.0,0.2988945679302209,-9.561330806064941,0.27433676657535583,0.7340118409407316,0.22697147877615054,0.09448528350590231,0.09790057887559844,-10.401982914720602,-13.820867415470426,2.6018717932787045,-4.664592454586706
17.910003423690796,-0.15662798285484314,0.0777430310845375,-9.277521133422852,-0.09230131101732442,0.002435922622680664,0.0,0.2651268285885642,-9.5448529965544,0.28433676657535584,0.7342786810887003,0.21023451421725814,0.09248785877780485,0.10029381695131331,-12.469885008239746,-12.470085008239746,0.024851633405685424,0.024651633405685425
17.920074701309204,-0.14193111658096313,0.03688088804483414,-9.237655639648438,-0.09477617138426386,0.001750946044921875,0.0,0.23142750835726236,-9.528558819631046,0.29433676657535585,0.7363175383063502,0.11836017617597028,0.08822632596732548,0.105561102222619,-12.427976289095904,-12.436617207761444,0.24739347403538237,-0.44130476152635334
18.04233717918396,-0.14193111658096313,0.03688088804483414,-9.237655639648438,-0.09477617138426386,0.0017611980438232422,0.0,0.0055906168546742616,-9.22151982738618,0.34067587650771936,0.7240834771469989,1.0,0.08805069426013164,0.10494713008222567,-12.324357136658396,-12.397578658707353,0.48539249223301795,-1.1157002797029918
18.051491022109985,-0.03271923586726189,-0.24944856762886047,-8.913803100585938,-0.10833263002595311,0.0015625953674316406,0.0,-0.025578090370796735,-9.205538501946815,0.35067587650771936,0.7507203187765754,-0.0688804009667241,0.033086303800575846,0.16328407153320168,-12.024762592794046,-12.485212636238009,1.020769659250212,-2.2760955627984236
18.0600163936615,-0.02621290646493435,-0.2641354203224182,-8.89341926574707,-0.10876441927509639,0.0016028881072998047,0.0,-0.05661601047133966,-9.189706081528701,0.3606758765077194,0.7505249109900614,-0.07727916223707143,0.03325772845427617,0.14197115904553648,-10.401982914720602,-13.820867415470426,2.6018717932787045,-4.664592454586706
18.07011651992798,-0.01977049559354782,-0.2785833179950714,-8.8729829788208,-0.10915276456891448,0.002061605453491211,0.0,-0.08751407374072893,-9.174016717101845,0.3706758765077194,0.7509475627416146,-0.06393287601461894,0.02834920448629026,0.13641110925611746,-12.469885008239746,-12.470085008239746,0.024851633405685424,0.024651633405685425
18.07995367050171,-0.007076298352330923,-0.30675849318504333,-8.83201789855957,-0.10983127558220535,0.002008199691772461,0.0,-0.1182633702940843,-9.158464296039138,0.3806758765077194,0.752863417880252,-0.13389990275409747,0.020369779883511543,0.13561323243988085,-12.427976289095904,-12.436617207761444,0.24739347403538237,-0.44130476152635334
18.090667009353638,-0.0008244756609201431,-0.3204807639122009,-8.811469078063965,-0.11012877966241347,0.001972675323486328,0.0,-0.14885515634941063,-9.143042445900567,0.3906758765077194,0.7531247221941659,-0.12049113578610804,0.015326217633352148,0.1344550201405212,-12.324357136658396,-12.397578658707353,0.48539249223301795,-1.1157002797029918
18.099966287612915,0.005363860167562962,-0.333955317735672,-8.79088306427002,-0.1104123147411632,0.001786947250366211,0.0,-0.17928086041980967,-9.127744538367857,0.4006758765077194,0.7534082136345404,-0.10263470421246002,0.011171785397720159,0.13287842390597376,-12.024762592794046,-12.485212636238009,1.020769659250212,-2.2760955627984236
18.110133409500122,0.011488880030810833,-0.34718048572540283,-8.770263671875,-0.11068525740301566,0.0017461776733398438,0.0,-0.20953208941291487,-9.112563693326926,0.4106758765077194,0.7536828360628101,-0.08068743452551308,0.007425854668772226,0.1312468333451168,-10.401982914720602,-13.820867415470426,2.6018717932787045,-4.664592454586706
18.120269060134888,0.017550894990563393,-0.36015552282333374,-8.749610900878906,-0.11094991400842869,0.0030622482299804688,0.0,-0.23960063463418876,-9.097492783095458,0.4206758765077194,0.7539568124833672,-0.05417939796999738,0.00400367456391243,0.1294720330881684,-12.469885008239746,-12.470085008239746,0.024851633405685424,0.024651633405685425
18.129822254180908,0.023508518934249878,-0.37288862466812134,-8.728952407836914,-0.11120157110865683,0.0015201568603515625,0.0,-0.2694784776908132,-9.082524436792792,0.43067587650771944,0.754223394570716,-0.023034521904559124,0.0007938482251477758,0.12751395924314624,-12.427976289095904,-12.436617207761444,0.24739347403538237,-0.44130476152635334
18.140331029891968,0.03523781895637512,-0.3976016342639923,-8.687541007995605,-0.11169335947525089,0.0016551017761230469,0.0,-0.2991577962929949,-9.067651044849283,0.44067587650771944,0.7558020848576785,-0.07169579388308134,-0.004139062310994679,0.1264166522348724,-12.324357136658396,-12.397578658707353,0.48539249223301795,-1.1157002797029918
18.14983558654785,0.041010353714227676,-0.40958112478256226,-8.666790962219238,-0.11190689714108737,0.001531362533569336,0.0,-0.3286309699496034,-9.052864763652202,0.45067587650771945,0.7560054441173838,-0.032170425874601616,-0.007263806288319574,0.12569527558211346,-12.024762592794046,-12.485212636238009,1.020769659250212,-2.2760955627984236
18.159999132156372,0.05276106670498848,-0.4315781593322754,-8.624680519104004,-0.11226735582298325,0.0018532276153564453,0.0,-0.3578905855551528,-9.038157520325173,0.46067587650771946,0.7575230890151343,-0.07811103599166591,-0.011302300990227453,0.12410352084750648,-10.401982914720602,-13.820867415470426,2.6018717932787045,-4.664592454586706
18.273489713668823,0.05276106670498848,-0.4315781593322754,-8.624680519104004,-0.11226735582298325,0.0015513896942138672,0.0,-0.4551203977574473,-8.605323077677621,0.3799917586729997,0.7475192265048217,1.0,-0.011917173040991047,0.12248235486026512,-12.469885008239746,-12.470085008239746,0.024851633405685424,0.024651633405685425
18.281004428863525,0.13536910712718964,-0.5581499338150024,-8.304201126098633,-0.11129976922272919,0.0014452934265136719,0.0,-0.47852556006373487,-8.586070928690253,0.38999175867299973,0.7647032172921366,-0.2358161642900798,-0.01460657528371001,0.04436188790832776,-12.427976289095904,-12.436617207761444,0.24739347403538237,-0.44130476152635334
18.290087461471558,0.1399102509021759,-0.5631367564201355,-8.283068656921387,-0.11107906927379865,0.0015804767608642578,0.0,-0.5017851309259085,-8.566916808189697,0.39999175867299974,0.7643200078139211,-0.21160053191027806,-0.037081908250189456,0.09885870236853934,-12.324357136658396,-12.397578658707353,0.48539249223301795,-1.1157002797029918
18.299994707107544,0.14440205693244934,-0.5679295063018799,-8.261922836303711,-0.11076164509965063,0.002217531204223633,0.0,-0.5248907943497289,-8.547853202627783,0.40999175867299975,0.7644378858805337,-0.17523656967307732,-0.03641955369754011,0.10627717111093174,-12.024762592794046,-12.485212636238009,1.020769659250212,-2.2760955627984236
18.310128688812256,0.14884451031684875,-0.5725271105766296,-8.240764617919922,-0.11043264850700324,0.0016825199127197266,0.0,-0.5478344395279349,-8.528872353648028,0.41999175867299976,0.7645049087785478,-0.13886723831673198,-0.03623451401473995,0.10787506982672153,-10.401982914720602,-13.820867415470426,2.6018717932787045,-4.664592454586706
18.320058822631836,0.15758079290390015,-0.5811263918876648,-8.198464393615723,-0.10978111869549152,0.0017025470733642578,0.0,-0.5706081665834829,-8.509966263008845,0.42999175867299977,0.7653447816016606,-0.21229912702087117,-0.03747559065882683,0.10663118093804695,-12.469885008239746,-12.470085008239746,0.024851633405685424,0.024651633405685425
18.32991099357605,0.16187115013599396,-0.5851102471351624,-8.177330017089844,-0.10945383591766132,0.0016052722930908203,0.0,-0.5932042921970923,-8.49112669763917,0.4399917586729998,0.7653121423107477,-0.17377429569617875,-0.03840254110021872,0.10768555611818553,-12.427976289095904,-12.436617207761444,0.24739347403538237,-0.44130476152635334
18.340335369110107,0.16611286997795105,-0.5888916850090027,-8.156196594238281,-0.10912906114934484,0.0017616748809814453,0.0,-0.6156153551162509,-8.472345194823301,0.4499917586729998,0.7653208796983816,-0.12980858271148277,-0.03892710873807711,0.10571899203149342,-12.324357136658396,-12.397578658707353,0.48539249223301795,-1.1157002797029918
18.349854707717896,0.17030641436576843,-0.5924705862998962,-8.135062217712402,-0.10879623765442045,0.0033876895904541016,0.0,-0.6378341215429363,-8.453613067511673,0.4599917586729998,0.7653448061112208,-0.08073224324339301,-0.03975461859824608,0.10272385618794254,-12.024762592794046,-12.485212636238009,1.020769659250212,-2.2760955627984236
18.36001491546631,0.17855042219161987,-0.5990212559700012,-8.092791557312012,-0.10810054388322142,0.0027360916137695312,0.0,-0.6598535903974077,-8.43492140975426,0.4699917586729998,0.7661623717075501,-0.13009066281006154,-0.0411043953578479,0.09858019655001868,-10.401982914720602,-13.820867415470426,2.6018717932787045,-4.664592454586706
18.369940996170044,0.18260137736797333,-0.6019930839538574,-8.071656227111816,-0.10773859341477056,0.0017139911651611328,0.0,-0.6816669984555286,-8.416261102253204,0.4799917586729998,0.7661666169415244,-0.0702271148508391,-0.04236149147739743,0.09799505452610692,-12.469885008239746,-12.470085008239746,0.024851633405685424,0.024651633405685425
18.379989862442017,0.18660537898540497,-0.6047625541687012,-8.050554275512695,-0.10736841337577235,0.0016543865203857422,0.0,-0.703267825357184,-8.397622818031262,0.4899917586729998,0.7662030552645516,-0.005671686867731562,-0.043004425098409835,0.09427971994344653,-12.427976289095904,-12.436617207761444,0.24739347403538237,-0.44130476152635334
18.390323400497437,0.1905626654624939,-0.6073299646377563,-8.029452323913574,-0.10698879743015499,0.003648519515991211,0.0,-0.7246497984834575,-8.378997028212595,0.49999175867299983,0.7662441114985242,0.06274100785861148,-0.04398723041779938,0.0898751101301381,-12.324357136658396,-12.397578658707353,0.48539249223301795,-1.1157002797029918
18.518009424209595,0.1905626654624939,-0.6073299646377563,-8.029452323913574,-0.10698879743015499,0.001596212387084961,0.0,-0.6217943482564606,-8.00625797596688,0.3506848366930562,0.756924314632546,1.0,-0.044382508095003464,0.08519322238038149,-12.024762592794046,-12.485212636238009,1.020769659250212,-2.2760955627984236
18.526399850845337,0.26466280221939087,-0.6010253429412842,-7.650472640991211,-0.09838594162104378,0.0014529228210449219,0.0,-0.6361741410223354,-7.983119004439078,0.36068483669305623,0.7681228096158733,-0.8889365302065786,-0.020396247697812692,-0.02326632556219375,-10.401982914720602,-13.820867415470426,2.6018717932787045,-4.664592454586706
18.529709100723267,0.26466280221939087,-0.6010253429412842,-7.650472640991211,-0.09838594162104378,0.0013654232025146484,0.0,-0.6504609024562418,-7.960028625015735,0.37068483669305624,0.767065247356977,-0.7364448530463428,-0.04865364330365354,0.047447674210744174,-12.326775686645508,-12.326975686645508,-0.2718908058643341,-0.2720908058643341
18.54034662246704,0.2676407992839813,-0.5974671840667725,-7.629421234130859,-0.09788102517774835,0.001748800277709961,0.0,-0.6646463852789688,-7.93697980072289,0.38068483669305625,0.7669188894290547,-0.704306882666037,-0.04277801002112511,0.07427314823334186,-12.21239837798995,-12.232223697545834,-0.24726994144656952,-0.9098201989147623
18.54982018470764,0.2705839276313782,-0.5937498807907104,-7.608379364013672,-0.09728689859154982,0.0017173290252685547,0.0,-0.6787225413254485,-7.913965246623072,0.39068483669305626,0.7667386628561467,-0.6697303336026716,-0.03640142984680751,0.0876306372166485,-12.018913980331828,-12.150045050494684,-0.1949325631875149,-1.7580979574425637
18.56000280380249,0.2763659954071045,-0.5858287215232849,-7.5663371086120605,-0.09610651934104598,0.0017561912536621094,0.0,-0.6926815273481987,-7.890977434646886,0.40068483669305627,0.7668656857812295,-0.768998700721875,-0.03196156597182173,0.09384356057887662,-11.563420429752396,-12.252507273401143,0.21734855351830268,-3.1411985328661527
18.57010793685913,0.27920499444007874,-0.581616997718811,-7.54534912109375,-0.0955260843266613,0.0016956329345703125,0.0,-0.7065157107070501,-7.868008598557111,0.4106848366930563,0.7665552858636324,-0.7302683554394787,-0.028924593487695098,0.10032442038260397,-9.25203044544884,-14.120201496738744,1.8796873635629527,-5.932827301768369
18.57994270324707,0.2820095121860504,-0.5772343277931213,-7.524418354034424,-0.0949453971515116,0.0017173290252685547,0.0,-0.7202176749423134,-7.845050739042199,0.4206848366930563,0.7662869871720438,-0.6826221890713773,-0.02664645947329622,0.10304036511295846,-12.326775686645508,-12.326975686645508,-0.2718908058643341,-0.2720908058643341
18.59029197692871,0.28477993607521057,-0.5726808905601501,-7.503509044647217,-0.09435795232318768,0.001592874526977539,0.0,-0.733780225228635,-7.822095628935973,0.4306848366930563,0.7660634146297949,-0.6249977950768166,-0.025377291112540827,0.10349910068480828,-12.21239837798995,-12.232223697545834,-0.24726994144656952,-0.9098201989147623
18.599981546401978,0.2902199923992157,-0.5630652904510498,-7.461745262145996,-0.0931475184046099,0.0016903877258300781,0.0,-0.747196393706893,-7.799134818560302,0.4406848366930563,0.7662932927766181,-0.6639667904019566,-0.02492314354854043,0.10190298336591401,-12.018913980331828,-12.150045050494684,-0.1949325631875149,-1.7580979574425637
18.61003088951111,0.2928757965564728,-0.5579959154129028,-7.440890312194824,-0.09252663977499428,0.0016303062438964844,0.0,-0.7604594446915797,-7.77615964118744,0.4506848366930563,0.7661377828406383,-0.5807735201821969,-0.02513514700543619,0.10209408154661892,-11.563420429752396,-12.252507273401143,0.21734855351830268,-3.1411985328661527
18.620124578475952,0.29549887776374817,-0.5527607202529907,-7.420053482055664,-0.09191330975010217,0.0017476081848144531,0.0,-0.7735628797512221,-7.7531612186186845,0.4606848366930563,0.7660174252781912,-0.4893370995439996,-0.02545995019047466,0.09961003769611797,-9.25203044544884,-14.120201496738744,1.8796873635629527,-5.932827301768369
18.63001847267151,0.29808923602104187,-0.5473613739013672,-7.399269104003906,-0.09129370778447371,0.001592397689819336,0.0,-0.7865004426594894,-7.730130466875962,0.47068483669305633,0.7659131114148009,-0.3905716844301754,-0.026400665997470266,0.09547110117105342,-12.326775686645508,-12.326975686645508,-0.2718908058643341,-0.2720908058643341
18.746137142181396,0.29808923602104187,-0.5473613739013672,-7.399269104003906,-0.09129370778447371,0.0014705657958984375,0.0,-0.5521353943962513,-7.373398471494256,0.3089041126642722,0.7593731099822525,0.416831070500187,-0.027234951101973107,0.0900114873632555,-12.21239837798995,-12.232223697545834,-0.24726994144656952,-0.9098201989147623
18.754197120666504,0.3308411240577698,-0.43634676933288574,-7.089438438415527,-0.080671201424542,0.0009489059448242188,0.0,-0.5567277956169774,-7.3474870884331,0.31202736181758395,0.7642207831529292,-0.9118208239658898,-0.033989035985008825,0.050525176805747266,-12.018913980331828,-12.150045050494684,-0.1949325631875149,-1.7580979574425637
18.75982403755188,0.3308411240577698,-0.43634676933288574,-7.089438438415527,-0.080671201424542,0.0010387897491455078,0.0,-0.5611080558720891,-7.321527556349244,0.3141593694115741,0.7636068433404215,-0.8838849943021878,-0.044769113159153946,0.06969525787349977,-11.563420429752396,-12.252507273401143,0.21734855351830268,-3.1411985328661527
18.770127534866333,0.336370587348938,-0.41001784801483154,-7.028204917907715,-0.07844089667887925,0.00115966796875,0.0,-0.5652478495312836,-7.295513637506134,0.31535259451056524,0.7639031661835017,-1.0,-0.043945730983715056,0.07739180273796195,-9.25203044544884,-14.120201496738744,1.8796873635629527,-5.932827301768369
18.7799813747406,0.336370587348938,-0.41001784801483154,-7.028204917907715,-0.07844089667887925,0.0011162757873535156,0.0,-0.5691209446718463,-7.2694402866929595,0.31565811961462137,0.7632936741251448,-1.0,-0.041842034244167714,0.0839539505987525,-12.326775686645508,-12.326975686645508,-0.2718908058643341,-0.2720908058643341
18.79028868675232,0.3396080732345581,-0.39102834463119507,-6.9872565269470215,-0.07697176392233374,0.0011761188507080078,0.0,-0.5727031112440083,-7.243303662459835,0.31512564058875875,0.7631468974269087,-1.0,-0.04136655737291874,0.08662275135723065,-12.21239837798995,-12.232223697545834,-0.24726994144656952,-0.9098201989147623
18.800010204315186,0.3396080732345581,-0.39102834463119507,-6.9872565269470215,-0.07697176392233374,0.001149892807006836,0.0,-0.5759720388119604,-7.217101120612685,0.3138034616075177,0.7625413600852908,-1.0,-0.04074001432350244,0.08818718970218159,-12.018913980331828,-12.150045050494684,-0.1949325631875149,-1.7580979574425637
18.810152292251587,0.34380602836608887,-0.3604958951473236,-6.925654888153076,-0.07459708491866975,0.0011844635009765625,0.0,-0.5789072628376103,-7.190831192487683,0.31173849457356856,0.7625205961755666,-1.0,-0.042065859526444226,0.08725264543742535,-11.563420429752396,-12.252507273401143,0.21734855351830268,-3.1411985328661527
18.820088863372803,0.34380602836608887,-0.3604958951473236,-6.925654888153076,-0.07459708491866975,0.0011410713195800781,0.0,-0.5814900984320622,-7.164493550261217,0.3089762624866593,0.7619191597216262,-1.0,-0.04235656065554061,0.08672828873818407,-9.25203044544884,-14.120201496738744,1.8796873635629527,-5.932827301768369
18.82995295524597,0.3465088903903961,-0.33970722556114197,-6.884868621826172,-0.07301287206988974,0.0011570453643798828,0.0,-0.5837035804954763,-7.138088961317253,0.3055609062636714,0.7617851563725677,-1.0,-0.043334325994904235,0.08535818662452814,-12.326775686645508,-12.326975686645508,-0.2718908058643341,-0.2720908058643341
18.8402316570282,0.3465088903903961,-0.33970722556114197,-6.884868621826172,-0.07301287206988974,0.0012922286987304688,0.0,-0.5855324091912203,-7.111619233486877,0.3015351945400396,0.7611879609066033,-1.0,-0.04366132327411429,0.08460039866818111,-12.21239837798995,-12.232223697545834,-0.24726994144656952,-0.9098201989147623
18.850038290023804,0.3465088903903961,-0.33970722556114197,-6.884868621826172,-0.07301287206988974,0.001569509506225586,0.0,-0.5869628997481112,-7.085087152791977,0.29694053601579506,0.7605928445107584,-1.0,-0.04380732138014223,0.08417413156164001,-12.018913980331828,-12.150045050494684,-0.1949325631875149,-1.7580979574425637
18.860005140304565,0.3490945100784302,-0.31860074400901794,-6.844295024871826,-0.07139944605364076,0.00107574462890625,0.0,-0.5879829356492835,-7.058496415163412,0.2918169939447129,0.7604841376493979,-1.0,-0.04489620856828768,0.08287259196787432,-11.563420429752396,-12.252507273401143,0.21734855351830268,-3.1411985328661527
18.870049715042114,0.35275062918663025,-0.2864077091217041,-6.7837605476379395,-0.06898488976535075,0.0011038780212402344,0.0,-0.5885819243429813,-7.0318515534608625,0.2862033024014153,0.7606260073898448,-1.0,-0.04662783923580894,0.08063371778421788,-9.25203044544884,-14.120201496738744,1.8796873635629527,-5.932827301768369
18.977143049240112,0.35275062918663025,-0.2864077091217041,-6.7837605476379395,-0.06898488976535075,0.0010251998901367188,0.0,-0.2805099052561748,-6.757627924301792,0.14844385500815183,0.7597564463145752,-1.0,-0.046768354289988864,0.0797032512628667,-12.326775686645508,-12.326975686645508,-0.2718908058643341,-0.2720908058643341
18.98485279083252,0.367247074842453,-0.11764856427907944,-6.510587692260742,-0.05738033945785223,0.0009090900421142578,0.0,-0.2741933097442283,-6.7315643922060024,0.13845113470271228,0.762198596256406,-1.0,-0.053980166337098,0.06845744793867244,-12.21239837798995,-12.232223697545834,-0.24726994144656952,-0.9098201989147623
18.990099906921387,0.367247074842453,-0.11764856427907944,-6.510587692260742,-0.05738033945785223,0.0011324882507324219,0.0,-0.26746846022934423,-6.705577410901585,0.1285434577712165,0.7616598143452029,-1.0,-0.05448645663361984,0.06745351332369846,-12.018913980331828,-12.150045050494684,-0.1949325631875149,-1.7580979574425637
18.999884366989136,0.3680611848831177,-0.10510434210300446,-6.491532802581787,-0.05653277570857121,0.0015053749084472656,0.0,-0.2603480397188087,-6.679673573563976,0.11873477663470862,0.7613198924083621,-1.0,-0.0548645565806147,0.06663888019029508,-11.563420429752396,-12.252507273401143,0.21734855351830268,-3.1411985328661527
