time,x,y,z,yaw,ctrl_comp_time,rollout_comptime,y_ref,z_ref,yaw_ref,throttle,roll_rate,pitch_rate,yaw_rate,save_tube_pyH,save_tube_pyL,save_tube_pzH,save_tube_pzL,wy,wz
15.007768392562866,0.0717303603887558,3.8611795902252197,-12.532489776611328,9.261983888755583e-05,0.1608879566192627,0.11926031112670898,3.861413649403405,-12.505546823417765,-0.11028118601420613,0.5859449376642575,-1.0,0.01855620511656955,0.017194857210919984,3.877423215151751,3.844922008289514,-12.507190616710862,-12.511922834725397,0.04668939009940754,0.061975585548025305
15.533493041992188,0.0717303603887558,3.8611795902252197,-12.532489776611328,9.261983888755583e-05,0.1571500301361084,0.1072695255279541,3.8621462915046805,-12.486053653851227,-0.15028118601420615,0.5858739172014714,-1.0,0.04489791567986589,0.07754140281063637,3.8960181670518743,3.8279902018832943,-12.484717576792102,-12.498167445072658,0.04668939009940754,0.061975585548025305
15.771815299987793,0.022888824343681335,3.933058261871338,-12.528169631958008,-0.0011318246510719845,0.0026242733001708984,0.10038161277770996,3.862354747361482,-12.46108263530518,-0.19028118601420618,0.5854320715451743,-1.0,0.09569233805185928,0.23857294786265149,3.9242598067447894,3.800466557209028,-12.450928479473744,-12.484745097276239,0.04619509529158642,-7.418369157175049
15.778668403625488,0.022888824343681335,3.933058261871338,-12.528169631958008,-0.0011318246510719845,0.001764059066772461,0.10038161277770996,3.861829377112123,-12.430657566736858,-0.23028118601420622,0.5840902833853142,-1.0,0.30582836566226057,0.5192864739313258,3.9686282254772896,3.755453907882085,-12.399677371001312,-12.477874071950787,-0.03740798308241593,-7.494078689719514
15.786336660385132,0.02217629738152027,3.9335153102874756,-12.528440475463867,-0.001106576680822935,0.004364967346191406,0.10038161277770996,3.860359677481957,-12.394752338560272,-0.27028118601420625,0.5827168107148176,-1.0,0.4540798559635824,0.659643236965663,4.044281319098125,3.6773727135987087,-12.317205467224307,-12.49128598371219,-0.03740798308241593,-7.494078689719514
15.917150974273682,0.020319228991866112,3.9395720958709717,-12.523453712463379,0.005702373298812385,0.0028269290924072266,0.11713862419128418,3.8577400092661662,-12.353290690319968,-0.3102811860142063,0.603824629017456,-0.6366188567766067,0.5578558991745077,0.7298216184828316,4.186716011202122,3.5303112623056334,-12.170883960908277,-12.557482169857485,-0.0357197902511566,-7.608602817450846
15.926015615463257,0.020106332376599312,3.939805507659912,-12.521758079528809,0.006726430732850654,0.002166271209716797,0.11713862419128418,3.853775340945258,-12.306146606226271,-0.3502811860142063,0.6042621686384964,-0.6529314128325915,0.6304991294221555,0.7649108092414157,4.47249084071117,3.2373145746403904,-11.877666778918266,-12.759281406090176,-0.0357197902511566,-7.608602817450846
15.935965538024902,0.019817780703306198,3.9410417079925537,-12.516976356506348,0.008939169911404352,0.0027213096618652344,0.11713862419128418,3.8482869407263616,-12.253145341147384,-0.39028118601420636,0.6065538089594944,-0.6169326641352377,0.6813493905955088,0.7824554046207078,5.053583916837795,2.646037871280572,-11.25139575190629,-13.282516475828222,-0.0357197902511566,-7.608602817450846
15.94590973854065,0.019631074741482735,3.941594123840332,-12.514312744140625,0.010120109088879808,0.0020751953125,0.11713862419128418,3.841117951882075,-12.194065062065095,-0.4302811860142064,0.6070779558898188,-0.6333491599682496,0.7169445734168561,0.7912277023103539,6.273790709699355,1.4123600032236598,-9.953891534635972,-14.464946228651934,-0.0357197902511566,-7.608602817450846
15.95614242553711,0.01941431313753128,3.942099094390869,-12.511466979980469,0.011354517034858541,0.002334117889404297,0.11713862419128418,3.864527629879446,-12.507546309719958,-0.10970997456207053,0.6076138975247377,-0.6501156664469308,0.7418612013917992,0.795613851155177,3.880515284903207,3.8480071265943736,-12.509232256778022,-12.513939122273753,-0.0357197902511566,-7.608602817450846
15.96603274345398,0.019166087731719017,3.9425530433654785,-12.508440971374512,0.012644552859842083,0.002596139907836914,0.11713862419128418,3.865368138415276,-12.48793980603269,-0.14970997456207055,0.6080965554888331,-0.6674580705767851,0.7593028409742595,0.7978069255775885,3.899222313609111,3.8311739429910783,-12.486653276092994,-12.500059289171672,-0.0357197902511566,-7.608602817450846
15.975995302200317,0.01856871321797371,3.943291425704956,-12.501893997192383,0.015388779425022585,0.002173185348510742,0.11713862419128418,3.8656942762135738,-12.462863434679326,-0.1897099745620706,0.6101579497150812,-0.6248207205451469,0.7715119886819817,0.7989034627887942,3.9275911926393303,3.80375359534066,-12.452760417835993,-12.486525842164136,-0.0357197902511566,-7.608602817450846
15.986082553863525,0.018216107040643692,3.9435677528381348,-12.498384475708008,0.016833168715239225,0.0028600692749023438,0.11713862419128418,3.865295942701638,-12.432341860553562,-0.22970997456207062,0.6104923349306998,-0.6456977994625415,0.7800583920773871,0.7994517313943971,3.972102424482311,3.7588476239616613,-12.401395279557017,-12.479571251882554,-0.0357197902511566,-7.608602817450846
15.995896339416504,0.01782534085214138,3.943777561187744,-12.494717597961426,0.018314278483288808,0.0020437240600585938,0.11713862419128418,3.863962095562607,-12.396349816116,-0.26970997456207063,0.6108158349595881,-0.6690151544598169,0.786040874454171,0.7997258656971985,4.047916116008913,3.680873238435444,-12.318771385099849,-12.4929565224819,-0.11207582993134158,-1.7466266571884157
16.006267786026,0.017370037734508514,3.9439218044281006,-12.49089241027832,0.01982056343457808,0.0023844242095947266,0.11713862419128418,3.8614864794966564,-12.354811851134995,-0.30970997456207067,0.6111393163112386,-0.6947599012403163,0.7902286121179197,0.7998629328485992,4.190543940435533,3.5339027830923815,-12.172318217976093,-12.559126338345923,-0.11207582993134158,-1.7466266571884157
16.016042470932007,0.01633218117058277,3.9439892768859863,-12.482775688171387,0.022909918189809933,0.0024042129516601562,0.11713862419128418,3.857673371942851,-12.307602720443995,-0.3497099745620707,0.6130911847224702,-0.6609961535935731,0.7931600284825439,0.7999314664242997,4.476602286505714,3.2409220836553727,-11.878894737310276,-12.76099600539952,-0.11207582993134158,-1.7466266571884157
16.025999784469604,0.015745295211672783,3.9439072608947754,-12.478499412536621,0.024491734212484767,0.0022115707397460938,0.11713862419128418,3.8523432780228717,-12.254548402403598,-0.38970997456207074,0.6134224580875428,-0.6912126366770874,0.7952120199377807,0.7999657332121498,5.058228569039676,2.6494255644171423,-11.252137257756193,-13.284605294987227,-0.11207582993134158,-1.7466266571884157
16.03622269630432,0.015110041946172714,3.94374418258667,-12.474066734313965,0.026100477234573413,0.002827882766723633,0.11713862419128418,3.8453385095362247,-12.19542773316031,-0.4297099745620708,0.6137604526065923,-0.7235360888414153,0.7966484139564465,0.799982866606075,6.279606276298409,1.4149024287148328,-9.953538156113328,-14.468042701453825,-0.11207582993134158,-1.7466266571884157
16.16735053062439,0.015110041946172714,3.94374418258667,-12.474066734313965,0.026100477234573413,0.003922700881958008,0.12317323684692383,3.8645276298794276,-12.507546309719958,-0.10970997456207053,0.6228546591048144,-1.0,0.7976538897695126,0.7999914333030375,3.8805152849031916,3.8480071265943585,-12.509232256778022,-12.51393912227375,-0.11207582993134158,-1.7466266571884157
16.17781639099121,0.0007200625259429216,3.9278573989868164,-12.360886573791504,0.06179934221464205,0.0018677711486816406,0.12317323684692383,3.8653681384152403,-12.487939806032688,-0.14970997456207055,0.6536092514848111,0.26684824524634365,0.6697081999958704,0.7999957166515187,3.89922231360908,3.8311739429910476,-12.486653276092994,-12.50005928917167,-0.10363299565026907,-1.4096421881635406
16.18621063232422,0.0007200625259429216,3.9278573989868164,-12.360886573791504,0.06179934221464205,0.0024497509002685547,0.12317323684692383,3.8656942762135147,-12.462863434679324,-0.1897099745620706,0.6525048151621062,0.15599227963191664,0.44825745512814086,0.7999978583257594,3.927591192639278,3.8037535953406065,-12.452760417835993,-12.486525842164127,-0.10363299565026907,-1.4096421881635406
16.195961952209473,-0.0008519326220266521,3.9257869720458984,-12.353999137878418,0.06393625747804133,0.00199127197265625,0.12317323684692383,3.865295942701549,-12.432341860553557,-0.22970997456207062,0.6531304051681462,0.12832394298211391,0.3097243535341678,0.7999989291628797,3.972102424482233,3.7588476239615782,-12.401395279557022,-12.479571251882534,0.1711262729012395,-0.16521973009976065
16.206275939941406,-0.0025363757740706205,3.9235799312591553,-12.346919059753418,0.06609814476335799,0.002496480941772461,0.12317323684692383,3.863962095562482,-12.396349816115988,-0.26970997456207063,0.6537758847707077,0.09913903311660666,0.21250331186459276,0.7999994645814399,4.047916116008807,3.680873238435321,-12.318771385099865,-12.492956522481864,0.1711262729012395,-0.16521973009976065
16.21590280532837,-0.006259044632315636,3.9187378883361816,-12.33217716217041,0.07047989900603285,0.002329111099243164,0.12317323684692383,3.861486479496487,-12.354811851134976,-0.30970997456207067,0.6561268324396914,0.16076474619615122,0.11262158120148741,0.6875033434676084,4.190543940435392,3.5339027830922083,-12.172318217976107,-12.559126338345878,0.1711262729012395,-0.16521973009976065
16.22608780860901,-0.00830234494060278,3.9160945415496826,-12.324542999267578,0.07273446310979477,0.002276897430419922,0.12317323684692383,3.8576733719426293,-12.307602720443965,-0.3497099745620707,0.6565737515016012,0.13181355644041037,-0.013457501272599362,0.4907222422729923,4.476602286505505,3.2409220836551667,-11.878894737310285,-12.760996005399468,0.1711262729012395,-0.16521973009976065
16.236042022705078,-0.010475133545696735,3.9132914543151855,-12.31674575805664,0.07511032630215699,0.002855539321899414,0.12317323684692383,3.8523432780225884,-12.254548402403556,-0.38970997456207074,0.6569238724185927,0.09828063331510206,-0.19391011636887068,0.2200166951990748,5.058228569039084,2.6494255644172,-11.252137257756498,-13.284605294986854,0.1711262729012395,-0.16521973009976065
16.24595594406128,-0.012782412581145763,3.910323143005371,-12.308794021606445,0.07769061569114324,0.0021386146545410156,0.12317323684692383,3.8453385095358685,-12.195427733160251,-0.4297099745620708,0.6572427224770343,0.058005988119361085,-0.3757370814582095,-0.2314766275602838,6.279606276290411,1.414902428722156,-9.953538156120944,-14.46804270144611,0.1711262729012395,-0.16521973009976065
16.256239652633667,-0.017812762409448624,3.903877019882202,-12.292435646057129,0.08360104983556185,0.002617359161376953,0.12317323684692383,3.864774684695285,-12.503160688787105,-0.11970997456207053,0.6589374293135806,0.09142272131791263,-0.5030159570207466,-0.515738313780142,3.8805152849031916,3.8480071265943585,-12.509232256778022,-12.51393912227375,0.1711262729012395,-0.16521973009976065
16.266022443771362,-0.020540576428174973,3.900395154953003,-12.28403091430664,0.08693880241985014,0.0021097660064697266,0.12317323684692383,3.8655060326088577,-12.482181702584676,-0.15970997456207056,0.6592483391013674,0.032816338378735876,-0.5921111699145226,-0.657869156890071,3.89922231360908,3.8311739429910476,-12.486653276092994,-12.50005928917167,0.1711262729012395,-0.16521973009976065
16.27604055404663,-0.023413386195898056,3.896737575531006,-12.275481224060059,0.09050100668454489,0.003429889678955078,0.12317323684692383,3.865670883633817,-12.455743658405245,-0.1997099745620706,0.6606411825946881,-0.055747135102368395,-0.6544778189401659,-0.7289345784450355,3.927591192639278,3.8037535953406065,-12.452760417835993,-12.486525842164127,0.1711262729012395,-0.16521973009976065
16.405524730682373,-0.023413386195898056,3.896737575531006,-12.275481224060059,0.09050100668454489,0.0033292770385742188,0.12094759941101074,3.865058368216094,-12.423858796435244,-0.23970997456207063,0.660043170489642,-1.0,-0.6981344732581162,-0.7644672892225178,3.972102424482233,3.7588476239615782,-12.401395279557022,-12.479571251882534,0.1711262729012395,-0.16521973009976065
16.41455388069153,-0.09562313556671143,3.794140338897705,-12.105768203735352,0.15859100743547816,0.0024008750915527344,0.12094759941101074,3.8634581018827703,-12.386489301951453,-0.27970997456207064,0.6794732271814942,0.3934897392031451,-0.7286941312806814,-0.7822336446112589,4.047916116008807,3.680873238435321,-12.318771385099865,-12.492956522481864,-0.3875936530143749,-1.6729471682215094
16.42055082321167,-0.09562313556671143,3.794140338897705,-12.105768203735352,0.15859100743547816,0.0034835338592529297,0.12094759941101074,3.860665924699793,-12.34354721481381,-0.3197099745620707,0.6781551114908896,0.23464089119426124,-0.750085891896477,-0.7911168223056294,4.190543940435392,3.5339027830922083,-12.172318217976107,-12.559126338345878,-0.3875936530143749,-1.6729471682215094
16.42843270301819,-0.10671702027320862,3.777146100997925,-12.083523750305176,0.16376821731004237,0.0025780200958251953,0.12094759941101074,3.856489640564797,-12.294894975891593,-0.3597099745620707,0.6795327776578448,0.27118042181085666,-0.7650601243275339,-0.7955584111528148,4.476602286505505,3.2409220836551667,-11.878894737310285,-12.760996005399468,-0.3875936530143749,-1.6729471682215094
16.436060667037964,-0.10671702027320862,3.777146100997925,-12.083523750305176,0.16376821731004237,0.003612518310546875,0.12094759941101074,3.8507546891539595,-12.240346601155132,-0.39970997456207075,0.678653851390929,0.10113679488065275,-0.7755420870292737,-0.7977792055764074,5.058228569039084,2.6494255644172,-11.252137257756498,-13.284605294986854,-0.3875936530143749,-1.6729471682215094
16.44595503807068,-0.11242741346359253,3.7684061527252197,-12.072247505187988,0.166129830229154,0.0027115345001220703,0.12094759941101074,3.843309686128651,-12.179669466726065,-0.4397099745620708,0.678900478902765,0.03122191521507256,-0.7828794609204917,-0.7988896027882038,6.279606276290411,1.414902428722156,-9.953538156120944,-14.46804270144611,-0.3875936530143749,-1.6729471682215094
16.45640778541565,-0.12416232377290726,3.750431537628174,-12.049409866333008,0.1705254712935929,0.0039806365966796875,0.12094759941101074,3.8649992411736576,-12.498430263436722,-0.12970997456207053,0.6799933384295556,0.07539377919140677,-0.7880156226443442,-0.7994448013941019,3.8805152849031916,3.8480071265943585,-12.509232256778022,-12.51393912227375,-0.3875936530143749,-1.6729471682215094
16.466891288757324,-0.12416232377290726,3.750431537628174,-12.049409866333008,0.1705254712935929,0.005679607391357422,0.12094759941101074,3.8656085461556873,-12.476082649269069,-0.16970997456207057,0.6791532557193314,-0.10534716105344044,-0.7916109358510409,-0.799722400697051,3.89922231360908,3.8311739429910476,-12.486653276092994,-12.50005928917167,-0.3875936530143749,-1.6729471682215094
16.47857093811035,-0.14250624179840088,3.722186326980591,-12.014545440673828,0.17619286734558684,0.0024976730346679688,0.12094759941101074,3.865598903326949,-12.44828370083785,-0.2097099745620706,0.6809669771727676,0.048586500861649284,-0.7941276550957286,-0.7998612003485255,3.927591192639278,3.8037535953406065,-12.452760417835993,-12.486525842164127,-0.3875936530143749,-1.6729471682215094
16.486350297927856,-0.14250624179840088,3.722186326980591,-12.014545440673828,0.17619286734558684,0.005597591400146484,0.12094759941101074,3.864759028904859,-12.415033188044502,-0.24970997456207064,0.680138500805037,-0.13942628041816607,-0.79588935856701,-0.7999306001742628,3.972102424482233,3.7588476239615782,-12.401395279557022,-12.479571251882534,-0.3875936530143749,-1.6729471682215094
16.49738049507141,-0.14250624179840088,3.722186326980591,-12.014545440673828,0.17619286734558684,0.002593994140625,0.12094759941101074,3.862879555314361,-12.37628074333164,-0.28970997456207065,0.6793748159932542,-0.33121502554338633,-0.7971225509969071,-0.7999653000871314,4.047916116008807,3.680873238435321,-12.318771385099865,-12.492956522481864,-0.3875936530143749,-1.6729471682215094
16.506807565689087,-0.16166479885578156,3.692380428314209,-11.978981018066406,0.1808103703358257,0.0028662681579589844,0.12094759941101074,3.8597587770216015,-12.331925930848048,-0.3297099745620707,0.6812194495577322,-0.19731015093666626,-0.797985785697835,-0.7999826500435657,4.190543940435392,3.5339027830922083,-12.172318217976107,-12.559126338345878,-0.3486612917922871,-1.9742981261309138
16.515949249267578,-0.16820964217185974,3.6820991039276123,-11.966962814331055,0.18213006048581154,0.002721548080444336,0.12094759941101074,3.855208379194396,-12.28181895096159,-0.3697099745620707,0.6812833455633688,-0.28739546202495847,-0.7985900499884845,-0.7999913250217829,4.476602286505505,3.2409220836551667,-11.878894737310285,-12.760996005399468,-0.3486612917922871,-1.9742981261309138
16.64726448059082,-0.16820964217185974,3.6820991039276123,-11.966962814331055,0.18213006048581154,0.0030183792114257812,0.12205910682678223,3.849059082623705,-12.225761968933014,-0.40970997456207076,0.6790544242688645,-1.0,-0.7990130349919392,-0.7999956625108915,5.058228569039084,2.6494255644172,-11.252137257756498,-13.284605294986854,-0.3486612917922871,-1.9742981261309138
16.65872597694397,-0.3140837550163269,3.4435248374938965,-11.725386619567871,0.189078323502718,0.0025892257690429688,0.12205910682678223,3.8411661413375886,-12.163511049287639,-0.4497099745620708,0.693268964295785,1.0,-0.7993091244943574,-0.7999978312554458,6.279606276290411,1.414902428722156,-9.953538156120944,-14.46804270144611,-0.3040099386504522,-1.9401363546482893
16.66587543487549,-0.3140837550163269,3.4435248374938965,-11.725386619567871,0.189078323502718,0.0026886463165283203,0.12205910682678223,3.935725694670056,-12.504537126963058,-0.11959995996625399,0.6921160268144633,0.9985387610759395,-0.7995163871460502,-0.7453970584892555,3.9518492519972117,3.9193474178334062,-12.505844520679885,-12.511130322579804,-0.3040099386504522,-1.9401363546482893
16.676087379455566,-0.322005033493042,3.429199695587158,-11.711858749389648,0.1886182603235587,0.002716064453125,0.12205910682678223,3.935938651952568,-12.485265297045183,-0.159599959966254,0.6921654260788628,0.9388233720416916,-0.7996614710022352,-0.7434855431539197,3.969964095929184,3.901908277660438,-12.483329895678684,-12.497873685250221,-0.3040099386504522,-1.9401363546482893
16.686095237731934,-0.3306848704814911,3.413834810256958,-11.698291778564453,0.18809336612853916,0.0035331249237060547,0.12205910682678223,3.935524382590221,-12.460478465954996,-0.19959995996625404,0.6921592158765748,0.8803262228900837,-0.7997630297015647,-0.7600068246085764,3.9976712864176047,3.8737248245336535,-12.449397157344789,-12.48498438720374,-0.3040099386504522,-1.9401363546482893
16.695870399475098,-0.34790968894958496,3.3826537132263184,-11.670899391174316,0.1868319118502466,0.002525806427001953,0.12205910682678223,3.93427554896997,-12.43018732597684,-0.23959995996625408,0.6926576005271723,0.9634276753632085,-0.7998341207910953,-0.7664562969796569,4.041537511701967,3.827817233063005,-12.397851292999047,-12.478703557636353,0.14136043440446944,-1.1730449535658658
16.706470012664795,-0.3564457595348358,3.3668267726898193,-11.657089233398438,0.18610160016413246,0.0032341480255126953,0.12205910682678223,3.931985288507756,-12.394352744298644,-0.2795999599662541,0.6924952758209504,0.8928425291979012,-0.7998838845537667,-0.7300608585023043,4.1168907671908155,3.748442474884904,-12.314821627481443,-12.492848587139616,0.14136043440446944,-1.1730449535658658
16.715919017791748,-0.36492615938186646,3.350841760635376,-11.643207550048828,0.18529087021079038,0.003337383270263672,0.12205910682678223,3.928452938265665,-12.352885663652271,-0.3195999599662541,0.6923904626730163,0.8107794796438821,-0.7999187191876367,-0.743338728371264,4.259508015101981,3.5994180862736798,-12.16732449984454,-12.560249933207112,0.14136043440446944,-1.1730449535658658
16.72596287727356,-0.373347669839859,3.3346993923187256,-11.629254341125488,0.18439301207083975,0.0028045177459716797,0.12205910682678223,3.9234897605865684,-12.305647639156232,-0.35959995996625416,0.6923326863035759,0.716718630353919,-0.7999431034313457,-0.7590090597346723,4.546178324394533,3.303570491746527,-11.872334286855644,-12.76368085341174,0.14136043440446944,-1.1730449535658658
16.736226797103882,-0.39000204205513,3.3019471168518066,-11.60116195678711,0.18233217267634005,0.0038917064666748047,0.12205910682678223,3.916924602550777,-12.252452002266647,-0.3995999599662542,0.6928842067635992,0.7205700704089972,-0.799960172401942,-0.7655543742812905,5.129443474566946,2.7080057645937385,-11.242682740832505,-13.289960084460448,0.14136043440446944,-1.1730449535658658
16.745935201644897,-0.3982292115688324,3.285341262817383,-11.587006568908691,0.18117294645871035,0.002682924270629883,0.12205910682678223,3.908609424823154,-12.193065635285988,-0.43959995996625423,0.6928969857822141,0.5983779544106853,-0.7999721206813594,-0.7559774851193487,6.354925183384511,1.4667935338664848,-9.938517491609568,-14.478496587835686,0.14136043440446944,-1.1730449535658658
16.756620407104492,-0.4063861072063446,3.268585681915283,-11.572779655456543,0.17992525935846027,0.0030498504638671875,0.12205910682678223,3.935826539991543,-12.500238641837132,-0.12959995996625398,0.6929557516637963,0.4673583058472226,-0.7999804844769516,-0.7690141679620806,3.9518492519972117,3.9193474178334062,-12.505844520679885,-12.511130322579804,0.14136043440446944,-1.1730449535658658
16.87891387939453,-0.4063861072063446,3.268585681915283,-11.572779655456543,0.17992525935846027,0.002997159957885742,0.11460065841674805,3.935901940825405,-12.479584356147026,-0.16959995996625402,0.6935022778652619,-1.0,-0.7999863391338661,-0.7845070839810403,3.969964095929184,3.901908277660438,-12.483329895678684,-12.497873685250221,0.14136043440446944,-1.1730449535658658
16.89020013809204,-0.5366479158401489,2.9307432174682617,-11.30790901184082,0.1462435486762638,0.0027022361755371094,0.11460065841674805,3.9352985471640283,-12.453422384026103,-0.20959995996625405,0.7044499401862397,0.3214754259476751,-0.46703473363684234,-0.16575420910742938,3.9976712864176047,3.8737248245336535,-12.449397157344789,-12.48498438720374,-0.030436501867611376,-1.605591651249071
16.895910024642944,-0.5366479158401489,2.9307432174682617,-11.30790901184082,0.1462435486762638,0.002288818359375,0.11460065841674805,3.9338086061085837,-12.421751005710037,-0.2495999599662541,0.7036241240540074,0.09696314765894476,-0.373703433026397,-0.2733829168027379,4.041537511701967,3.827817233063005,-12.397851292999047,-12.478703557636353,-0.030436501867611376,-1.605591651249071
16.90640091896057,-0.5427658557891846,2.9107728004455566,-11.29257583618164,0.14363853649155897,0.0029206275939941406,0.11460065841674805,3.931226267094804,-12.384518591654366,-0.2895999599662541,0.7038100960192841,-0.05421311677056595,-0.31536278381605126,-0.29432108013684616,4.1168907671908155,3.748442474884904,-12.314821627481443,-12.492848587139616,-0.030436501867611376,-1.605591651249071
16.916045904159546,-0.5487462878227234,2.890730381011963,-11.27717113494873,0.14093451479267677,0.002685546875,0.11460065841674805,3.927353313181641,-12.341623662647198,-0.32959995996625413,0.703926959999548,-0.16443371157830988,-0.26643334564283483,-0.2817423438268893,4.259508015101981,3.5994180862736798,-12.16732449984454,-12.560249933207112,-0.030436501867611376,-1.605591651249071
16.926056623458862,-0.5599196553230286,2.8495166301727295,-11.245559692382812,0.13534864735848903,0.002811908721923828,0.11460065841674805,3.922004876347866,-12.29291558458364,-0.36959995996625417,0.7045754766429295,-0.03984976398834705,-0.1959690688124144,-0.24043524688018053,4.546178324394533,3.303570491746527,-11.872334286855644,-12.76368085341174,-0.030436501867611376,-1.605591651249071
16.935996055603027,-0.5651019811630249,2.828361988067627,-11.229376792907715,0.13278321358770334,0.0029754638671875,0.11460065841674805,3.915015070210304,-12.238195886884766,-0.4095999599662542,0.7045153607307654,0.008151666591810658,-0.13781708032427503,-0.21657992484908878,5.129443474566946,2.7080057645937385,-11.242682740832505,-13.289960084460448,-0.030436501867611376,-1.605591651249071
16.945984601974487,-0.5701254606246948,2.807152271270752,-11.213162422180176,0.13013506499255975,0.002727985382080078,0.11460065841674805,3.906242476552834,-12.177220186249654,-0.44959995996625424,0.7044431041498878,0.060771143982041975,-0.08615423107647573,-0.19572148928329544,6.354925183384511,1.4667935338664848,-9.938517491609568,-14.478496587835686,-0.030436501867611376,-1.605591651249071
16.956369400024414,-0.5749861001968384,2.7858872413635254,-11.196915626525879,0.127380347585941,0.003049612045288086,0.11460065841674805,3.9358977548878777,-12.49559318590493,-0.139599959966254,0.7043832282252697,0.11573329982010905,-0.03895431913384536,-0.1772814817205927,3.9518492519972117,3.9193474178334062,-12.505844520679885,-12.511130322579804,-0.030436501867611376,-1.605591651249071
16.965993881225586,-0.5796812176704407,2.764566421508789,-11.180633544921875,0.12451668283890449,0.0028162002563476562,0.11460065841674805,3.9358228235596,-12.473559426132669,-0.17959995996625402,0.7043460736060243,0.1716775395894763,0.004584795770669807,-0.16091083331860737,3.969964095929184,3.901908277660438,-12.483329895678684,-12.497873685250221,-0.030436501867611376,-1.605591651249071
16.97619390487671,-0.5885710716247559,2.721738338470459,-11.14797306060791,0.11847729970097387,0.002977132797241211,0.11460065841674805,3.9350172932706107,-12.446022208319704,-0.21959995996625406,0.704902321297872,0.3387414897611456,0.06268606131316563,-0.14027720799691604,3.9976712864176047,3.8737248245336535,-12.449397157344789,-12.48498438720374,-0.030436501867611376,-1.605591651249071
16.986700773239136,-0.5927625298500061,2.700230598449707,-11.131589889526367,0.11534205529730049,0.004075050354003906,0.11460065841674805,3.933273351090787,-12.412967364523634,-0.25959995996625407,0.7049247858245783,0.392404106451232,0.10727431194300639,-0.12679907190564593,4.041537511701967,3.827817233063005,-12.397851292999047,-12.478703557636353,-0.030436501867611376,-1.605591651249071
17.130194902420044,-0.6315086483955383,2.321739912033081,-10.847618103027344,0.06157021808837641,0.00222015380859375,0.13167786598205566,3.9303865170171397,-12.37433077224017,-0.2995999599662541,0.7015228452071255,1.0,0.3150920183601045,-0.1006716502467803,4.1168907671908155,3.748442474884904,-12.314821627481443,-12.492848587139616,0.3800134810680804,-1.5345775813416291
17.135966777801514,-0.6315086483955383,2.321739912033081,-10.847618103027344,0.06157021808837641,0.0024313926696777344,0.13167786598205566,3.926161377637226,-12.329998573791249,-0.33959995996625414,0.7007755584144213,1.0,0.4178803833912165,-0.09774166281922851,4.259508015101981,3.5994180862736798,-12.16732449984454,-12.560249933207112,0.3800134810680804,-1.5345775813416291
17.14594078063965,-0.6326878070831299,2.2531840801239014,-10.796243667602539,0.053071058439301204,0.001984119415283203,0.13167786598205566,3.920417286921698,-12.27980802833963,-0.3795999599662542,0.7020949753872784,1.0,0.48873699594056785,-0.08379212160299522,4.546178324394533,3.303570491746527,-11.872334286855644,-12.76368085341174,0.3800134810680804,-1.5345775813416291
17.156288862228394,-0.6326878070831299,2.2531840801239014,-10.796243667602539,0.053071058439301204,0.0024421215057373047,0.13167786598205566,3.9129939682246992,-12.223548983627937,-0.4195999599662542,0.7013474441260712,1.0,0.5161754320106068,-0.059746086069179874,5.129443474566946,2.7080057645937385,-11.242682740832505,-13.289960084460448,0.3800134810680804,-1.5345775813416291
17.165921211242676,-0.6327055096626282,2.207350492477417,-10.761733055114746,0.0475731283823521,0.0018725395202636719,0.13167786598205566,3.903756954749744,-12.160965947413695,-0.45959995996625425,0.7019784184522945,1.0,0.546253014004339,-0.051685458110817165,6.354925183384511,1.4667935338664848,-9.938517491609568,-14.478496587835686,0.3800134810680804,-1.5345775813416291
17.176175117492676,-0.6327055096626282,2.207350492477417,-10.761733055114746,0.0475731283823521,0.0021982192993164062,0.13167786598205566,3.93593618679481,-12.49060179046445,-0.149599959966254,0.7012306468617081,1.0,0.5577181390114694,-0.04050250582918877,3.9518492519972117,3.9193474178334062,-12.505844520679885,-12.511130322579804,0.3800134810680804,-1.5345775813416291
17.186166763305664,-0.6301416754722595,2.1386799812316895,-10.711999893188477,0.03959287038153299,0.002888917922973633,0.13167786598205566,3.9356980554756285,-12.467190772274263,-0.18959995996625403,0.702402529096357,1.0,0.5869276691740093,-0.044493600389513735,3.969964095929184,3.901908277660438,-12.483329895678684,-12.497873685250221,0.3800134810680804,-1.5345775813416291
17.1959125995636,-0.6301416754722595,2.1386799812316895,-10.711999893188477,0.03959287038153299,0.002027273178100586,0.13167786598205566,3.9346773723824855,-12.438277425317695,-0.22959995996625407,0.7016558463304204,1.0,0.5977878946954273,-0.03857460045358273,3.9976712864176047,3.8737248245336535,-12.449397157344789,-12.48498438720374,0.4579343047375142,-1.4566834403444204
17.206308364868164,-0.6272428035736084,2.0928916931152344,-10.679278373718262,0.03452364643354058,0.0026433467864990234,0.13167786598205566,3.932666621037859,-12.403835107310524,-0.2695999599662541,0.7022171834433334,1.0,0.6113080688428226,-0.036419674019561546,4.041537511701967,3.827817233063005,-12.397851292999047,-12.478703557636353,0.4579343047375142,-1.4566834403444204
17.215988874435425,-0.6272428035736084,2.0928916931152344,-10.679278373718262,0.03452364643354058,0.002187013626098633,0.13167786598205566,3.9294630506878305,-12.363787216525823,-0.3095999599662541,0.7014717046810534,1.0,0.6162165186595614,-0.03173886362103308,4.1168907671908155,3.748442474884904,-12.314821627481443,-12.492848587139616,0.4579343047375142,-1.4566834403444204
17.32818865776062,-0.5868352055549622,1.7474358081817627,-10.424675941467285,0.0041027687677456445,0.002046346664428711,0.10328006744384766,3.92487440807053,-12.31800757013369,-0.34959995996625415,0.7100056874566163,1.0,0.5580927141283967,0.05441765904704094,4.259508015101981,3.5994180862736798,-12.16732449984454,-12.560249933207112,0.4579343047375142,-1.4566834403444204
17.33587670326233,-0.5868352055549622,1.7474358081817627,-10.424675941467285,0.0041027687677456445,0.0022592544555664062,0.10328006744384766,3.918724619580343,-12.266321412646473,-0.3895999599662542,0.7092802906410011,1.0,0.5467407966592533,0.04570842985324936,4.546178324394533,3.303570491746527,-11.872334286855644,-12.76368085341174,0.5748689867402339,-0.8229651847126833
17.346153736114502,-0.5781723856925964,1.7004493474960327,-10.38955307006836,0.001967953758739,0.0020904541015625,0.10328006744384766,3.910859358625499,-12.208507039722623,-0.4295999599662542,0.71016311088991,1.0,0.528211571424233,0.05362401194461836,5.129443474566946,2.7080057645937385,-11.242682740832505,-13.289960084460448,0.5748689867402339,-0.8229651847126833
17.35627794265747,-0.5737246870994568,1.6770906448364258,-10.371898651123047,0.0010206113168649104,0.0025496482849121094,0.10328006744384766,3.9011514363509048,-12.144298015628648,-0.46959995996625425,0.710264485958226,1.0,0.5154743311712993,0.05380418077888833,6.354925183384511,1.4667935338664848,-9.938517491609568,-14.478496587835686,0.5748689867402339,-0.8229651847126833
17.36596131324768,-0.5692038536071777,1.6538276672363281,-10.3541841506958,0.00015197250770386528,0.0020253658294677734,0.10328006744384766,3.935938651952568,-12.485265297045183,-0.159599959966254,0.710382125105654,1.0,0.5035208466475194,0.05550426248461999,3.9518492519972117,3.9193474178334062,-12.505844520679885,-12.511130322579804,0.5748689867402339,-0.8229651847126833
17.376356601715088,-0.564612865447998,1.6306647062301636,-10.336410522460938,-0.0006271193895408325,0.002201080322265625,0.10328006744384766,3.935524382590221,-12.460478465954996,-0.19959995996625404,0.7104890951016861,1.0,0.49167328370548297,0.05810468754933453,3.969964095929184,3.901908277660438,-12.483329895678684,-12.497873685250221,0.5748689867402339,-0.8229651847126833
17.386228799819946,-0.5552313327789307,1.5846573114395142,-10.300719261169434,-0.0019395399705202307,0.002230405807495117,0.10328006744384766,3.93427554896997,-12.43018732597684,-0.23959995996625408,0.7113822316990129,0.9705961225396518,0.47114865968614206,0.0708573473163167,3.9976712864176047,3.8737248245336535,-12.449397157344789,-12.48498438720374,0.5748689867402339,-0.8229651847126833
17.395936250686646,-0.5504466891288757,1.5618224143981934,-10.282806396484375,-0.00247759100829531,0.0020051002502441406,0.10328006744384766,3.931985288507756,-12.394352744298644,-0.2795999599662541,0.7114801911028203,0.9186198102766017,0.45838497290104807,0.0684378467058286,4.041537511701967,3.827817233063005,-12.397851292999047,-12.478703557636353,0.6038014666921883,-1.0131293505426662
17.406262159347534,-0.5456034541130066,1.5391062498092651,-10.264843940734863,-0.002937955403052875,0.0024805068969726562,0.10328006744384766,3.928452938265665,-12.352885663652271,-0.3195999599662541,0.7115929065019997,0.8665166501418468,0.44628243788204586,0.06791188295033862,4.1168907671908155,3.748442474884904,-12.314821627481443,-12.492848587139616,0.6038014666921883,-1.0131293505426662
17.41594886779785,-0.5357508063316345,1.4940743446350098,-10.228777885437012,-0.0036446759551176516,0.0020067691802978516,0.10328006744384766,3.9234897605865684,-12.305647639156232,-0.35959995996625416,0.7125712340306323,0.7911584522691031,0.4264359884855981,0.07741499984114236,4.259508015101981,3.5994180862736798,-12.16732449984454,-12.560249933207112,0.6038014666921883,-1.0131293505426662
17.426203966140747,-0.5307489037513733,1.4717540740966797,-10.210672378540039,-0.00389204632733256,0.0021538734436035156,0.10328006744384766,3.916924602550777,-12.252452002266647,-0.3995999599662542,0.712733821811542,0.7365692723942863,0.41392354033804635,0.0735751124805558,4.546178324394533,3.303570491746527,-11.872334286855644,-12.76368085341174,0.6038014666921883,-1.0131293505426662
17.43593740463257,-0.5242519974708557,1.4495497941970825,-10.192465782165527,-0.004068317806872973,0.0021140575408935547,0.10328006744384766,3.908609424823154,-12.193065635285988,-0.43959995996625423,0.7129227485304142,0.6817816725959017,0.40376614349422196,0.07102613704290169,5.129443474566946,2.7080057645937385,-11.242682740832505,-13.289960084460448,0.6038014666921883,-1.0131293505426662
17.446284770965576,-0.5177301168441772,1.4274890422821045,-10.174211502075195,-0.0038477160918163472,0.0021321773529052734,0.10328006744384766,3.8984246390204063,-12.127211333103235,-0.47959995996625426,0.7131262108882348,0.627053497746692,0.39453801867199806,0.06981378746059864,6.354925183384511,1.4667935338664848,-9.938517491609568,-14.478496587835686,0.6038014666921883,-1.0131293505426662
17.56183171272278,-0.5177301168441772,1.4274890422821045,-10.174211502075195,-0.0038477160918163472,0.0022575855255126953,0.10907983779907227,3.935901940825405,-12.479584356147026,-0.16959995996625402,0.7084518785392777,0.8669420003518524,0.39144234404302625,0.06242139234806499,3.9518492519972117,3.9193474178334062,-12.505844520679885,-12.511130322579804,0.6038014666921883,-1.0131293505426662
17.57007884979248,-0.41125234961509705,1.0992710590362549,-9.876444816589355,0.006194635233142953,0.0024003982543945312,0.10907983779907227,3.9352985471640283,-12.453422384026103,-0.20959995996625405,0.7243981309724773,0.2112952515912887,0.27943781654038546,0.21673598339301905,3.969964095929184,3.901908277660438,-12.483329895678684,-12.497873685250221,0.64758170143095,-1.221463959832351
17.57588005065918,-0.41125234961509705,1.0992710590362549,-9.876444816589355,0.006194635233142953,0.0022187232971191406,0.10907983779907227,3.9338086061085837,-12.421751005710037,-0.2495999599662541,0.7237284285546995,0.17583015034333904,0.2825029903477053,0.11707767193687087,3.9976712864176047,3.8737248245336535,-12.449397157344789,-12.48498438720374,0.64758170143095,-1.221463959832351
17.586084842681885,-0.39751875400543213,1.063103199005127,-9.838750839233398,0.008387377034997479,0.0023272037506103516,0.10907983779907227,3.931226267094804,-12.384518591654366,-0.2895999599662541,0.7254545677449716,0.041365411054458345,0.25894160608133293,0.10131389400688012,4.041537511701967,3.827817233063005,-12.397851292999047,-12.478703557636353,0.64758170143095,-1.221463959832351
17.595921754837036,-0.39067837595939636,1.0453071594238281,-9.819820404052734,0.009532982122624656,0.001926422119140625,0.10907983779907227,3.927353313181641,-12.341623662647198,-0.32959995996625413,0.7260100806741907,-0.04487042232883587,0.24238485812617,0.08571675837321088,4.1168907671908155,3.748442474884904,-12.314821627481443,-12.492848587139616,0.4553870148368917,-0.40236406343910414
17.60628080368042,-0.38385891914367676,1.0277066230773926,-9.800826072692871,0.01070462022823121,0.0023169517517089844,0.10907983779907227,3.922004876347866,-12.29291558458364,-0.36959995996625417,0.7265845166076492,-0.13224317845452116,0.2280730516588147,0.07474433666386197,4.259508015101981,3.5994180862736798,-12.16732449984454,-12.560249933207112,0.4553870148368917,-0.40236406343910414
17.615936994552612,-0.3702957034111023,0.9931051731109619,-9.762663841247559,0.013132091061596546,0.0019309520721435547,0.10907983779907227,3.915015070210304,-12.238195886884766,-0.4095999599662542,0.728305193788987,-0.27754903741395553,0.2084480268233598,0.07040243412743405,4.546178324394533,3.303570491746527,-11.872334286855644,-12.76368085341174,0.4553870148368917,-0.40236406343910414
17.626420497894287,-0.3635568618774414,0.9761147499084473,-9.743507385253906,0.014331393208910886,0.0022509098052978516,0.10907983779907227,3.906242476552834,-12.177220186249654,-0.44959995996625424,0.7287946647494374,-0.366814233866952,0.19433703245500167,0.05908848417713006,5.129443474566946,2.7080057645937385,-11.242682740832505,-13.289960084460448,0.4553870148368917,-0.40236406343910414
17.635956048965454,-0.35684868693351746,0.9593371748924255,-9.724323272705078,0.015496404986905077,0.002126455307006836,0.10907983779907227,3.8955754257952466,-12.109700690835437,-0.4882432576951918,0.7292913859483564,-0.45363581049540413,0.18175063028431276,0.049175792508548914,6.354925183384511,1.4667935338664848,-9.938517491609568,-14.478496587835686,0.4553870148368917,-0.40236406343910414
17.646249532699585,-0.35017335414886475,0.9427748322486877,-9.705092430114746,0.016617219317642207,0.0020644664764404297,0.10907983779907227,3.9358228235596,-12.473559426132669,-0.17959995996625402,0.7297994126238665,-0.5375139209192339,0.17029165434834384,0.04010405422914944,3.9518492519972117,3.9193474178334062,-12.505844520679885,-12.511130322579804,0.4553870148368917,-0.40236406343910414
17.656280040740967,-0.3435327410697937,0.9264298677444458,-9.68581485748291,0.017689668893575317,0.0022575855255126953,0.10907983779907227,3.9350172932706107,-12.446022208319704,-0.21959995996625406,0.7303169182283449,-0.6179617580893104,0.15971580248999676,0.03157738451482602,3.969964095929184,3.901908277660438,-12.483329895678684,-12.497873685250221,0.4553870148368917,-0.40236406343910414
17.665957927703857,-0.33036306500434875,0.8943976759910583,-9.647122383117676,0.01971292748276418,0.0019335746765136719,0.10907983779907227,3.933273351090787,-12.412967364523634,-0.25959995996625407,0.7320275124670793,-0.7347962531367096,0.14529867815401182,0.024694522207141037,3.9976712864176047,3.8737248245336535,-12.449397157344789,-12.48498438720374,0.4553870148368917,-0.40236406343910414
17.67618179321289,-0.32383739948272705,0.8787130117416382,-9.627707481384277,0.020672118462007727,0.0021982192993164062,0.10907983779907227,3.9303865170171397,-12.37433077224017,-0.2995999599662541,0.7325526906520698,-0.8036962271432875,0.13448329221754285,0.014686422554347146,4.041537511701967,3.827817233063005,-12.397851292999047,-12.478703557636353,0.4553870148368917,-0.40236406343910414
17.785717010498047,-0.32383739948272705,0.8787130117416382,-9.627707481384277,0.020672118462007727,0.002440929412841797,0.10288166999816895,3.926161377637226,-12.329998573791249,-0.33959995996625414,0.7200750099331927,-0.9158039670812022,0.12937020736659852,0.005557809139239668,4.1168907671908155,3.748442474884904,-12.314821627481443,-12.492848587139616,0.4553870148368917,-0.40236406343910414
17.794950246810913,-0.2328464388847351,0.6822733283042908,-9.33059310913086,0.031542711045624644,0.0022096633911132812,0.10288166999816895,3.920417286921698,-12.27980802833963,-0.3795999599662542,0.7370299949532211,-1.0,0.06694207175477009,-0.01902304930776059,4.259508015101981,3.5994180862736798,-12.16732449984454,-12.560249933207112,0.7872952310527266,-1.3028466450099212
17.800269842147827,-0.2328464388847351,0.6822733283042908,-9.33059310913086,0.031542711045624644,0.0019805431365966797,0.10288166999816895,3.9129939682246992,-12.223548983627937,-0.4195999599662542,0.736344952139123,-1.0,0.04873052723812042,-0.03167234451715005,4.546178324394533,3.303570491746527,-11.872334286855644,-12.76368085341174,0.7872952310527266,-1.3028466450099212
17.806819915771484,-0.22718572616577148,0.6707267761230469,-9.310575485229492,0.032037134358645594,0.0023832321166992188,0.10288166999816895,3.903756954749744,-12.160965947413695,-0.45959995996625425,0.7367352292320293,-1.0,0.03919634798202671,-0.037600462598727076,5.129443474566946,2.7080057645937385,-11.242682740832505,-13.289960084460448,0.7872952310527266,-1.3028466450099212
17.816033124923706,-0.22214004397392273,0.6611257791519165,-9.290596008300781,0.03251057765869485,0.0021479129791259766,0.10288166999816895,3.892578473209488,-12.09176478162885,-0.4953073067671238,0.7371518240197106,-1.0,0.03248325933416182,-0.04063773422418286,6.354925183384511,1.4667935338664848,-9.938517491609568,-14.478496587835686,0.7872952310527266,-1.3028466450099212
17.8264000415802,-0.21215766668319702,0.6422997713088989,-9.250565528869629,0.033861156782811486,0.0023369789123535156,0.10288166999816895,3.9356980554756285,-12.467190772274263,-0.18959995996625403,0.7386694890357156,-1.0,0.02265310609843381,-0.043851687070460756,3.9518492519972117,3.9193474178334062,-12.505844520679885,-12.511130322579804,0.7872952310527266,-1.3028466450099212
17.835936307907104,-0.20722337067127228,0.6330679655075073,-9.230533599853516,0.034487290938378753,0.002428293228149414,0.10288166999816895,3.9346773723824855,-12.438277425317695,-0.22959995996625407,0.739035217162193,-1.0,0.016154550060380454,-0.04509181030389443,3.969964095929184,3.901908277660438,-12.483329895678684,-12.497873685250221,0.7872952310527266,-1.3028466450099212
17.84613537788391,-0.20233160257339478,0.6239598393440247,-9.21048355102539,0.03506544211064026,0.0022094249725341797,0.10288166999816895,3.932666621037859,-12.403835107310524,-0.2695999599662541,0.739362852556139,-1.0,0.01100073843451473,-0.04563275330313775,3.9976712864176047,3.8737248245336535,-12.449397157344789,-12.48498438720374,0.7872952310527266,-1.3028466450099212
17.856258392333984,-0.19748350977897644,0.6149721145629883,-9.19041919708252,0.03558532456811925,0.002282857894897461,0.10288166999816895,3.9294630506878305,-12.363787216525823,-0.3095999599662541,0.7396590962314685,-1.0,0.006744229607976979,-0.04580670782505393,4.041537511701967,3.827817233063005,-12.397851292999047,-12.478703557636353,0.7872952310527266,-1.3028466450099212
17.86602473258972,-0.1879223883152008,0.5973430275917053,-9.150253295898438,0.03645607328850618,0.002026081085205078,0.10288166999816895,3.92487440807053,-12.31800757013369,-0.34959995996625415,0.7408875948623115,-1.0,0.0011245932680301355,-0.046383615064285275,4.1168907671908155,3.748442474884904,-12.314821627481443,-12.492848587139616,0.7872952310527266,-1.3028466450099212
17.87634587287903,-0.1832108199596405,0.5886935591697693,-9.130157470703125,0.03682538764819458,0.0022568702697753906,0.10288166999816895,3.918724619580343,-12.266321412646473,-0.3895999599662542,0.7411003272225376,-1.0,-0.001982234606350178,-0.045721350010015864,4.259508015101981,3.5994180862736798,-12.16732449984454,-12.560249933207112,0.7872952310527266,-1.3028466450099212
17.886255502700806,-0.17854587733745575,0.580148458480835,-9.11005687713623,0.03715838530279954,0.0023958683013916016,0.10288166999816895,3.910859358625499,-12.208507039722623,-0.4295999599662542,0.7412896676976167,-1.0,-0.004195359966607895,-0.044923136451838146,4.546178324394533,3.303570491746527,-11.872334286855644,-12.76368085341174,0.7872952310527266,-1.3028466450099212
17.89596652984619,-0.17392802238464355,0.5717034935951233,-9.089974403381348,0.03745676130151311,0.002044200897216797,0.10288166999816895,3.9011514363509048,-12.144298015628648,-0.46959995996625425,0.7414557629815124,-1.0,-0.0059623934087313845,-0.044155269412035514,5.129443474566946,2.7080057645937385,-11.242682740832505,-13.289960084460448,0.48178077795787555,-0.6962819282698793
17.90619707107544,-0.16484902799129486,0.5550959706306458,-9.04980182647705,0.037938329626705375,0.0023839473724365234,0.10288166999816895,3.8894038794560246,-12.073403893237732,-0.5008761722011923,0.7424554392774484,-1.0,-0.008326742773471955,-0.04347248316505671,6.354925183384511,1.4667935338664848,-9.938517491609568,-14.478496587835686,0.48178077795787555,-0.6962819282698793
18.0173978805542,-0.16484902799129486,0.5550959706306458,-9.04980182647705,0.037938329626705375,0.0022957324981689453,0.10417675971984863,3.935524382590221,-12.460478465954996,-0.19959995996625404,0.7300291209812891,-0.9755510398334979,-0.008588931325797659,-0.04225524228913773,3.9518492519972117,3.9193474178334062,-12.505844520679885,-12.511130322579804,0.48178077795787555,-0.6962819282698793
18.027045249938965,-0.10869605094194412,0.45126521587371826,-8.750813484191895,0.03999695026352559,0.002260446548461914,0.10417675971984863,3.93427554896997,-12.43018732597684,-0.23959995996625408,0.7404104114120506,-0.09286845630633711,-0.016397399902663045,-0.039171448966112375,3.969964095929184,3.901908277660438,-12.483329895678684,-12.497873685250221,0.5694009044196777,-1.3169655255039836
18.03597855567932,-0.10538333654403687,0.4447215497493744,-8.731008529663086,0.0400404386703028,0.002210855484008789,0.10417675971984863,3.931985288507756,-12.394352744298644,-0.2795999599662541,0.7402853155252497,-0.04268147656553278,-0.01882037177238659,-0.04244854236185222,3.9976712864176047,3.8737248245336535,-12.449397157344789,-12.48498438720374,0.5694009044196777,-1.3169655255039836
18.046250820159912,-0.1021074578166008,0.43816739320755005,-8.711215019226074,0.04005809150836212,0.0022864341735839844,0.10417675971984863,3.928452938265665,-12.352885663652271,-0.3195999599662541,0.7401455446816573,0.009896372976505363,-0.019534837712898646,-0.04378330381693737,4.041537511701967,3.827817233063005,-12.397851292999047,-12.478703557636353,0.5694009044196777,-1.3169655255039836
18.05595088005066,-0.09886813908815384,0.43159788846969604,-8.691431999206543,0.04006493414701602,0.002371549606323242,0.10417675971984863,3.9234897605865684,-12.305647639156232,-0.35959995996625416,0.740015610379009,0.06503683199721244,-0.019859759170450946,-0.04440815394045595,4.1168907671908155,3.748442474884904,-12.314821627481443,-12.492848587139616,0.5694009044196777,-1.3169655255039836
18.066185235977173,-0.09172920882701874,0.42073118686676025,-8.652321815490723,0.04019126665306852,0.002169370651245117,0.10417675971984863,3.916924602550777,-12.252452002266647,-0.3995999599662542,0.7404858688701529,0.1944149026045463,-0.01979898834983593,-0.04451314244174841,4.259508015101981,3.5994180862736798,-12.16732449984454,-12.560249933207112,0.5694009044196777,-1.3169655255039836
18.076046228408813,-0.088228240609169,0.4152260720729828,-8.632781982421875,0.04030716866782798,0.002437591552734375,0.10417675971984863,3.908609424823154,-12.193065635285988,-0.43959995996625423,0.7402706928346162,0.24299186517400706,-0.019759375658912746,-0.04532636239277823,4.546178324394533,3.303570491746527,-11.872334286855644,-12.76368085341174,0.5694009044196777,-1.3169655255039836
18.08632755279541,-0.08477243036031723,0.40966737270355225,-8.613256454467773,0.040414595222485174,0.002167224884033203,0.10417675971984863,3.8984246390204063,-12.127211333103235,-0.47959995996625426,0.7400507786100422,0.2876898726512992,-0.019675522357588352,-0.045904949708446136,5.129443474566946,2.7080057645937385,-11.242682740832505,-13.289960084460448,0.5694009044196777,-1.3169655255039836
18.0962553024292,-0.07799386978149414,0.3983761966228485,-8.574285507202148,0.04060399074175889,0.002204418182373047,0.10417675971984863,3.8860226831928206,-12.05461926409758,-0.5050309882033398,0.7403855883861632,0.39068841493267203,-0.019474247852725942,-0.04626454577255758,6.354925183384511,1.4667935338664848,-9.938517491609568,-14.478496587835686,0.3090820035294103,-1.1770416009297862
18.106210708618164,-0.07468146830797195,0.39263468980789185,-8.554814338684082,0.04068488759868711,0.0022401809692382812,0.10417675971984863,3.9352985471640283,-12.453422384026103,-0.20959995996625405,0.7401869699293312,0.42149179130432146,-0.019255323553208005,-0.04700560175368315,3.9518492519972117,3.9193474178334062,-12.505844520679885,-12.511130322579804,0.3090820035294103,-1.1770416009297862
18.116055965423584,-0.07141157984733582,0.38682952523231506,-8.53535270690918,0.040748051377231954,0.0020520687103271484,0.10417675971984863,3.9338086061085837,-12.421751005710037,-0.2495999599662541,0.7399895950577334,0.4477836964103342,-0.01902637282183961,-0.04751262713154196,3.969964095929184,3.901908277660438,-12.483329895678684,-12.497873685250221,0.3090820035294103,-1.1770416009297862
18.12617802619934,-0.06818386912345886,0.380959689617157,-8.515899658203125,0.040799751336395004,0.0022661685943603516,0.10417675971984863,3.931226267094804,-12.384518591654366,-0.2895999599662541,0.7397923043433677,0.4698540489412897,-0.018797221520322545,-0.04788369730867564,3.9976712864176047,3.8737248245336535,-12.449397157344789,-12.48498438720374,0.3090820035294103,-1.1770416009297862
18.136040210723877,-0.0649978294968605,0.3750244677066803,-8.496456146240234,0.040842118416075775,0.0024864673614501953,0.10417675971984863,3.927353313181641,-12.341623662647198,-0.32959995996625413,0.739598202194341,0.48786463070854347,-0.01857206322601937,-0.04817052228118041,4.041537511701967,3.827817233063005,-12.397851292999047,-12.478703557636353,0.3090820035294103,-1.1770416009297862
18.2515549659729,-0.02729772962629795,0.2848479449748993,-8.20645523071289,0.04064498156731314,0.0026106834411621094,0.10736775398254395,3.922004876347866,-12.29291558458364,-0.36959995996625417,0.7430148867970973,0.5980664139188614,-0.020555932748849277,-0.04795416833876567,4.1168907671908155,3.748442474884904,-12.314821627481443,-12.492848587139616,0.3090820035294103,-1.1770416009297862
18.26048731803894,-0.02729772962629795,0.2848479449748993,-8.20645523071289,0.04064498156731314,0.001996278762817383,0.10736775398254395,3.915015070210304,-12.238195886884766,-0.4095999599662542,0.7423245546908674,0.5728633191540288,-0.02090539317122862,-0.04827956510060456,4.259508015101981,3.5994180862736798,-12.16732449984454,-12.560249933207112,0.2632920308971533,-0.7507083592313417
18.26636815071106,-0.023226438090205193,0.27245813608169556,-8.167987823486328,0.040490005397613424,0.0018587112426757812,0.10736775398254395,3.906242476552834,-12.177220186249654,-0.44959995996625424,0.7428425560674432,0.5456691424987565,-0.021451772705955628,-0.048286190014565966,4.546178324394533,3.303570491746527,-11.872334286855644,-12.76368085341174,0.2632920308971533,-0.7507083592313417
18.276155471801758,-0.021225808188319206,0.26620227098464966,-8.14876651763916,0.04039767169876042,0.002162933349609375,0.10736775398254395,3.8955754257952466,-12.109700690835437,-0.4882432576951918,0.742762928185988,0.5178290007501848,-0.021759722343245996,-0.0482869328823413,5.129443474566946,2.7080057645937385,-11.242682740832505,-13.289960084460448,0.2632920308971533,-0.7507083592313417
18.286148071289062,-0.019248532131314278,0.25991010665893555,-8.129554748535156,0.040294111034201205,0.0024318695068359375,0.10736775398254395,3.882406847591298,-12.035413165301714,-0.5078499754021562,0.7426759630366094,0.4889037761401783,-0.02201361526437699,-0.04822550407591593,6.354925183384511,1.4667935338664848,-9.938517491609568,-14.478496587835686,0.2632920308971533,-0.7507083592313417
18.295950412750244,-0.017294518649578094,0.2535848915576935,-8.110376358032227,0.04018031370177329,0.0020034313201904297,0.10736775398254395,3.9350172932706107,-12.446022208319704,-0.21959995996625406,0.7425785462872421,0.4585128099008845,-0.02223299886317089,-0.04811930901423873,3.9518492519972117,3.9193474178334062,-12.505844520679885,-12.511130322579804,0.26540774593573546,-0.8162731812074958
18.30634117126465,-0.01345602422952652,0.24084796011447906,-8.072057723999023,0.03992391489760441,0.0027549266815185547,0.10736775398254395,3.933273351090787,-12.412967364523634,-0.25959995996625407,0.7430655796481493,0.41752209576718147,-0.02262652997015684,-0.04789633059395111,3.969964095929184,3.901908277660438,-12.483329895678684,-12.497873685250221,0.26540774593573546,-0.8162731812074958
18.316103219985962,-0.01173939649015665,0.23482176661491394,-8.052851676940918,0.039781447671670474,0.002089977264404297,0.10736775398254395,3.9303865170171397,-12.37433077224017,-0.2995999599662541,0.7429712663863013,0.38107579426080723,-0.022976604809275936,-0.047669429132041044,3.9976712864176047,3.8737248245336535,-12.449397157344789,-12.48498438720374,0.26540774593573546,-0.8162731812074958
18.326247692108154,-0.010043244808912277,0.22876614332199097,-8.033661842346191,0.03964039858358874,0.002444028854370117,0.10736775398254395,3.926161377637226,-12.329998573791249,-0.33959995996625414,0.7428780255295802,0.343599951626665,-0.02328759884920443,-0.04744143546005952,4.041537511701967,3.827817233063005,-12.397851292999047,-12.478703557636353,0.26540774593573546,-0.8162731812074958
18.335983276367188,-0.008367744274437428,0.22268497943878174,-8.01448917388916,0.03948799631259433,0.002327442169189453,0.10736775398254395,3.920417286921698,-12.27980802833963,-0.3795999599662542,0.7427903221497691,0.3052427159868003,-0.023559138119500448,-0.04719459253809441,4.1168907671908155,3.748442474884904,-12.314821627481443,-12.492848587139616,0.26540774593573546,-0.8162731812074958
18.34614634513855,-0.005078186746686697,0.21046125888824463,-7.976240158081055,0.0391573885934909,0.002171039581298828,0.10736775398254395,3.9129939682246992,-12.223548983627937,-0.4195999599662542,0.7433085834833247,0.25121175635649484,-0.024036925162630885,-0.04686255998419029,4.259508015101981,3.5994180862736798,-12.16732449984454,-12.560249933207112,0.26540774593573546,-0.8162731812074958
18.356337308883667,-0.0034642801620066166,0.20432576537132263,-7.95713996887207,0.03897835093057205,0.0026128292083740234,0.10736775398254395,3.903756954749744,-12.160965947413695,-0.45959995996625425,0.7432305852580021,0.21166955432218257,-0.024318180841186105,-0.04648652987165807,4.546178324394533,3.303570491746527,-11.872334286855644,-12.76368085341174,0.26540774593573546,-0.8162731812074958
18.366050481796265,-0.0034642801620066166,0.20432576537132263,-7.95713996887207,0.03897835093057205,0.0023827552795410156,0.10736775398254395,3.892578473209488,-12.09176478162885,-0.4953073067671238,0.7425478945418027,0.18733039939362883,-0.024368643057743302,-0.04612027934903681,5.129443474566946,2.7080057645937385,-11.242682740832505,-13.289960084460448,0.26540774593573546,-0.8162731812074958
18.47639274597168,-0.0034642801620066166,0.20432576537132263,-7.95713996887207,0.03897835093057205,0.0026922225952148438,0.10252571105957031,3.8785292548619483,-12.01578895916006,-0.5094084702791546,0.738123308812115,0.09075053056742108,-0.024223945677778882,-0.04581607810409213,6.354925183384511,1.4667935338664848,-9.938517491609568,-14.478496587835686,0.26540774593573546,-0.8162731812074958
18.486027479171753,0.017482789233326912,0.11083836853504181,-7.672695159912109,0.03537424495906875,0.002676725387573242,0.10252571105957031,3.9346773723824855,-12.438277425317695,-0.22959995996625407,0.7469765127704722,-0.09919301181794979,-0.025821428589224867,-0.04409731074715107,3.9518492519972117,3.9193474178334062,-12.505844520679885,-12.511130322579804,0.2892234067356927,-1.1528459503528095
18.49591302871704,0.01980241760611534,0.09837401658296585,-7.635043144226074,0.034768381352089414,0.0022554397583007812,0.10252571105957031,3.932666621037859,-12.403835107310524,-0.2695999599662541,0.747611118794929,-0.13758079918023475,-0.026123012234619148,-0.04190169154355917,3.969964095929184,3.901908277660438,-12.483329895678684,-12.497873685250221,0.2840861521131812,-0.6363401355104861
18.50620460510254,0.01980241760611534,0.09837401658296585,-7.635043144226074,0.034768381352089414,0.0023632049560546875,0.10252571105957031,3.9294630506878305,-12.363787216525823,-0.3095999599662541,0.7469434825906831,-0.16049535298918893,-0.026162674850255904,-0.0404492837412496,3.9976712864176047,3.8737248245336535,-12.449397157344789,-12.48498438720374,0.2840861521131812,-0.6363401355104861
18.516036987304688,0.023155560716986656,0.07993274927139282,-7.578708171844482,0.033824906100323265,0.002038240432739258,0.10252571105957031,3.92487440807053,-12.31800757013369,-0.34959995996625415,0.7482648390910781,-0.20760311439217138,-0.026307193831413615,-0.03920738487599741,4.041537511701967,3.827817233063005,-12.397851292999047,-12.478703557636353,0.2840861521131812,-0.6363401355104861
18.526117086410522,0.023155560716986656,0.07993274927139282,-7.578708171844482,0.033824906100323265,0.0021452903747558594,0.10252571105957031,3.918724619580343,-12.266321412646473,-0.3895999599662542,0.7475993339124876,-0.23029914856752098,-0.026307697471611078,-0.03811980352914427,4.1168907671908155,3.748442474884904,-12.314821627481443,-12.492848587139616,0.2840861521131812,-0.6363401355104861
18.536086559295654,0.025303175672888756,0.06781809777021408,-7.541219711303711,0.03317695351496688,0.002398252487182617,0.10252571105957031,3.910859358625499,-12.208507039722623,-0.4295999599662542,0.7482213024089372,-0.26709580989525666,-0.02636780211164606,-0.037116383262915005,4.259508015101981,3.5994180862736798,-12.16732449984454,-12.560249933207112,0.2840861521131812,-0.6363401355104861
18.546129941940308,0.025303175672888756,0.06781809777021408,-7.541219711303711,0.03317695351496688,0.0021283626556396484,0.10252571105957031,3.9011514363509048,-12.144298015628648,-0.46959995996625425,0.7475572541485891,-0.28957219396851264,-0.02635599859483539,-0.03622307333189185,4.546178324394533,3.303570491746527,-11.872334286855644,-12.76368085341174,0.2840861521131812,-0.6363401355104861
18.556037664413452,0.028392169624567032,0.04994802922010422,-7.485203266143799,0.03218058835637226,0.0022711753845214844,0.10252571105957031,3.8894038794560246,-12.073403893237732,-0.5008761722011923,0.7487298594550293,-0.3200974198379127,-0.0263427986376595,-0.03505981566483117,5.129443474566946,2.7080057645937385,-11.242682740832505,-13.289960084460448,0.2840861521131812,-0.6363401355104861
18.566102027893066,0.028392169624567032,0.04994802922010422,-7.485203266143799,0.03218058835637226,0.002127408981323242,0.10252571105957031,3.8743637102497046,-11.995751137287847,-0.5097789652483683,0.7480676963822971,-0.3423529219086474,-0.026323162797387705,-0.03415346564320269,6.354925183384511,1.4667935338664848,-9.938517491609568,-14.478496587835686,0.2840861521131812,-0.6363401355104861
