time,x,y,z,yaw,ctrl_comp_time,rollout_comptime,x_ref,y_ref,z_ref,yaw_ref,throttle,roll_rate,pitch_rate,yaw_rate,save_tube_pyH,save_tube_pyL,save_tube_pzH,save_tube_pzL,wy,wz
15.003098249435425,-0.02945767529308796,3.940081834793091,-12.341095924377441,-5.654768910483992e-05,0.12032580375671387,6.0,0.0,3.935181356701163,-12.314860453152669,-0.007388332070039402,0.5786914317672199,-1.0,0.0038647240425307822,0.017458377978846775,3.9360478286743166,3.9350478286743162,-12.312483512878417,-12.313483512878419,-0.0756181759747803,0.004664950860429483
15.477199792861938,-0.02945767529308796,3.940081834793091,-12.341095924377441,-5.654768910483992e-05,0.15327858924865723,6.0,0.0,3.939740556057363,-12.342855513762737,-0.007239428739126365,0.5793756763468196,-1.0,0.003310000303101309,0.033614390951407065,3.936535631570764,3.931451376002924,-12.317575964600204,-12.318744423544356,-0.0756181759747803,0.004664950860429483
15.72233772277832,-0.004881417378783226,3.928344964981079,-12.36697769165039,0.0005079701823068662,0.0009326934814453125,6.0,0.0,3.939740556057363,-12.342855513762737,-0.007239428739126365,0.5832331157370685,-0.978874277139986,0.0451926886379751,0.08135982184475118,3.9421629916711027,3.9220762843429426,-12.31589591348225,-12.318552131958175,-0.05691925951118222,-7.449262934145279
15.732637405395508,-0.004866008181124926,3.9280576705932617,-12.366156578063965,0.0005585891437413473,0.0009653568267822266,6.0,0.0,3.9393872052274617,-12.344224926897777,-0.017239428739126365,0.5818950912214813,-1.0,0.13345043131840625,0.2589456012238225,3.9533930316485706,3.906144958165868,-12.30636622547004,-12.314279653005261,-0.03370995959628134,-7.790201512555559
15.855853080749512,-0.004866008181124926,3.9280576705932617,-12.366156578063965,0.0005585891437413473,0.0008728504180908203,6.0,0.0,3.9277206992953784,-12.367249100907918,-0.004800231889656606,0.5816190740408159,-1.0,0.3334153019228844,0.5294728006119113,3.9717861114062574,3.881750092349862,-12.28693297036181,-12.308187947875432,-0.03573106949192354,-7.854555885971018
15.863322257995605,0.00035638135159388185,3.924994945526123,-12.36175537109375,0.0008364860525933109,0.00124359130859375,6.0,0.0,3.927379753116621,-12.367956056561091,-0.014800231889656606,0.5807287341591671,-1.0,0.4733907113460191,0.6647364003059556,4.001214871441027,3.844650042466071,-12.25353677919943,-12.304450478761499,-0.03573106949192354,-7.854555885971018
15.87177300453186,0.000877445621881634,3.9247612953186035,-12.361682891845703,0.0008339315619423848,0.0008058547973632812,6.0,0.0,3.9270326561084294,-12.368280603303095,-0.024800231889656604,0.579340102521865,-1.0,0.5713734979422134,0.7323682001529778,4.05082655204508,3.7853173551621513,-12.197588898248881,-12.311674279650168,-0.03573106949192354,-7.854555885971018
15.883227109909058,0.0013845434878021479,3.924511671066284,-12.36164665222168,0.0008318378891319774,0.0017762184143066406,6.0,0.0,3.926677138878745,-12.368225740333235,-0.034800231889656606,0.5779417409577884,-1.0,0.6399614485595494,0.766184100076489,3.940581834793091,3.9395818347930907,-12.34059592437744,-12.341595924377442,-0.03573106949192354,-7.854555885971018
15.894001483917236,0.0023700993042439222,3.9239935874938965,-12.361648559570312,0.000981878036222943,0.0025937557220458984,6.0,0.0,3.926310843134175,-12.36779430471035,-0.04480023188965661,0.5770061834034995,-1.0,0.6879730139916846,0.7830920500382444,3.9411773219185933,3.9360943320870034,-12.345221554930895,-12.346389108956117,-0.03573106949192354,-7.854555885971018
15.901878356933594,0.00285028712823987,3.9237265586853027,-12.36161994934082,0.0012038712614230959,0.0008902549743652344,6.0,0.0,3.925931326312009,-12.366988968423863,-0.05480023188965661,0.5764190854945425,-1.0,0.7215811097941793,0.7915460250191223,3.9469372782578604,3.9268431842268283,-12.34308370658017,-12.345732713032113,-0.03573106949192354,-7.854555885971018
15.914618968963623,0.003322809934616089,3.9234542846679688,-12.361533164978027,0.001534490843766742,0.0020706653594970703,6.0,0.0,3.925536066298295,-12.365812235598554,-0.06480023188965661,0.5760939368213875,-1.0,0.7451067768559255,0.7957730125095611,3.958334532896239,3.911040430504373,-12.33310804133747,-12.340999131751856,-0.03573106949192354,-7.854555885971018
15.921650648117065,0.003358737798407674,3.9235804080963135,-12.36131763458252,0.0019733458593969677,0.0008268356323242188,6.0,0.0,3.9251224662281032,-12.364266439835411,-0.07480023188965661,0.5759718283151168,-1.0,0.7615747437991479,0.7978865062547805,3.9769408256251277,3.8867665935181663,-12.313241773419538,-12.3344503086123,-0.03573106949192354,-7.854555885971018
15.932786703109741,0.0034293688368052244,3.9237797260284424,-12.360560417175293,0.0032080120273036425,0.0009739398956298828,6.0,0.0,3.9246878593640546,-12.36235374169082,-0.0848002318896566,0.5774709991493882,-1.0,0.7731023206594035,0.7989432531273902,4.006649386855411,3.849758517334986,-12.279419633715278,-12.330267672371647,-0.03573106949192354,-7.854555885971018
15.94201135635376,0.0034605737309902906,3.9238500595092773,-12.359994888305664,0.003972637495925406,0.002123117446899414,6.0,0.0,3.924229514049137,-12.360076126296159,-0.0948002318896566,0.5776759114960427,-1.0,0.7811716244615825,0.7994716265636953,4.05664589250189,3.790449267588032,-12.223025420835079,-12.337087700675752,-0.024891195561860258,-3.1644745856389704
15.953003644943237,0.0034840835724025965,3.923902750015259,-12.359293937683105,0.004827315331946859,0.0010595321655273438,6.0,0.0,3.923744638729776,-12.357435401119808,-0.10480023188965659,0.5779434647633788,-1.0,0.7868201371231078,0.7997358132818478,3.940581834793091,3.9395818347930907,-12.34059592437744,-12.341595924377442,-0.024891195561860258,-3.1644745856389704
15.963258981704712,0.0034997768234461546,3.923931837081909,-12.358460426330566,0.005768376692742685,0.00168609619140625,6.0,0.0,3.923230387045081,-12.354433193873355,-0.11480023188965659,0.578259582596537,-1.0,0.7907740959861755,0.7998679066409241,3.9411773219185893,3.936094332087,-12.345221554930895,-12.346389108956117,-0.024891195561860258,-3.1644745856389704
15.972259998321533,0.0034983039367944,3.923910140991211,-12.356355667114258,0.007879142658196777,0.0011539459228515625,6.0,0.0,3.922683862978156,-12.351070950563717,-0.12480023188965658,0.580354806583258,-1.0,0.7935418671903229,0.799933953320462,3.946937278257843,3.9268431842268114,-12.34308370658017,-12.345732713032113,-0.024891195561860258,-3.1644745856389704
16.101601123809814,0.0034983039367944,3.923910140991211,-12.356355667114258,0.007879142658196777,0.0009591579437255859,6.0,0.0,3.923496219091102,-12.355608759015324,-0.0490556581186851,0.593026859106038,-1.0,0.7954793070332261,0.799966976660231,3.958334532896199,3.9110404305043334,-12.33310804133747,-12.340999131751856,-0.024891195561860258,-3.1644745856389704
16.106875896453857,0.0015763761475682259,3.921415090560913,-12.309840202331543,0.03228343603930047,0.0009145736694335938,6.0,0.0,3.923069129103646,-12.354497700182351,-0.0590556581186851,0.6212558818116921,-0.07389315596913848,0.7968355149232583,0.7999834883301155,3.976940825625056,3.886766593518095,-12.31324177341953,-12.334450308612304,-0.06450528732879368,-1.8540700512441939
16.115235090255737,0.0011793714947998524,3.9209327697753906,-12.305183410644531,0.03411995830132501,0.0019500255584716797,6.0,0.0,3.922626143716808,-12.353024849520919,-0.0690556581186851,0.6219972090334068,-0.07682447981223528,0.7977848604462808,0.7999917441650577,4.0066493868553,3.849758517334871,-12.279419633715259,-12.330267672371654,-0.06450528732879368,-1.8540700512441939
16.122106552124023,0.000715890375431627,3.9203593730926514,-12.300368309020996,0.03598433999015102,0.000827789306640625,6.0,0.0,3.9221644653471013,-12.35119239113531,-0.07905565811868509,0.6227507444637117,-0.08048727033421654,0.7984494023123966,0.7999958720825289,4.056645892501732,3.7904492675878596,-12.223025420835036,-12.337087700675774,-0.06450528732879368,-1.8540700512441939
16.133540868759155,-0.00042045782902278006,3.91892671585083,-12.290262222290039,0.03978654169731115,0.0012292861938476562,6.0,0.0,3.9216812311070934,-12.349002331942712,-0.08905565811868509,0.6254431497616165,-0.004281419001231579,0.7768243162825096,0.7999979360412645,3.940581834793091,3.9395818347930907,-12.34059592437744,-12.341595924377442,-0.06450528732879368,-1.8540700512441939
16.142584323883057,-0.0011010442394763231,3.9180569648742676,-12.28498363494873,0.04173128904519857,0.0017435550689697266,6.0,0.0,3.9211735178433815,-12.346456499429365,-0.09905565811868508,0.6259858104296262,-0.008397257752494447,0.7328934594577504,0.7999989680206322,3.9411773219185893,3.936094332087,-12.345221554930895,-12.346389108956117,-0.06239289035087481,-0.6182618448750752
16.152410745620728,-0.001863443641923368,3.9170761108398438,-12.279572486877441,0.04371789869665933,0.0009484291076660156,6.0,0.0,3.9206383472409847,-12.343556539550532,-0.10905565811868508,0.6264338266655192,-0.016982019953784455,0.6844621872000722,0.7999994840103161,3.946937278257843,3.9268431842268114,-12.34308370658017,-12.345732713032113,-0.06239289035087481,-0.6182618448750752
16.162289142608643,-0.002703628735616803,3.915989875793457,-12.274044036865234,0.04575441381676841,0.001455068588256836,6.0,0.0,3.920072690990063,-12.340303914775994,-0.11905565811868507,0.6268395184905359,-0.03156018660089943,0.6344825982389172,0.7999997420051581,3.958334532896199,3.9110404305043334,-12.33310804133747,-12.340999131751856,-0.06239289035087481,-0.6182618448750752
16.172043323516846,-0.002703628735616803,3.915989875793457,-12.274044036865234,0.04575441381676841,0.0009129047393798828,6.0,0.0,3.9194734760108307,-12.336699902282682,-0.12905565811868508,0.6256155570327303,-0.12506451131859586,0.6065787015945798,0.7999998710025791,3.976940825625056,3.886766593518095,-12.31324177341953,-12.334450308612304,-0.06239289035087481,-0.6182618448750752
16.183284759521484,-0.004591047763824463,3.9133520126342773,-12.255996704101562,0.052162696420086585,0.0009932518005371094,6.0,0.0,3.9188375897325023,-12.332745592295865,-0.1390556581186851,0.6292771708397261,-0.02195031607175313,0.5330871355638782,0.7999999355012896,4.0066493868553,3.849758517334871,-12.279419633715259,-12.330267672371654,-0.06239289035087481,-0.6182618448750752
16.192331790924072,-0.0052362894639372826,3.9124293327331543,-12.249628067016602,0.054450488187181095,0.0013821125030517578,6.0,0.0,3.918161885422081,-12.32844188658022,-0.1490556581186851,0.6296914738400814,-0.06220159916233148,0.46486475199835864,0.7999999677506449,4.056645892501732,3.7904492675878596,-12.223025420835036,-12.337087700675774,-0.06239289035087481,-0.6182618448750752
16.202580451965332,-0.005995785817503929,3.9113669395446777,-12.243143081665039,0.056830650573994806,0.0009629726409912109,6.0,0.0,3.917443187558773,-12.323789497081972,-0.1590556581186851,0.6301111458944648,-0.10768524277381497,0.408113323279669,0.7999999838753225,3.928557670593262,3.9275576705932616,-12.365656578063964,-12.366656578063965,-0.06239289035087481,-0.6182618448750752
16.21433162689209,-0.007866215892136097,3.908820152282715,-12.229841232299805,0.06188589773943051,0.0015149116516113281,6.0,0.0,3.916678297249796,-12.318788944723098,-0.16905565811868511,0.6321758244303777,-0.10442575741850724,0.3390011367287582,0.7999999919376612,3.929215396330068,3.9241388814274223,-12.367646970497724,-12.368804510168749,-0.06239289035087481,-0.6182618448750752
16.33733320236206,-0.007866215892136097,3.908820152282715,-12.229841232299805,0.06188589773943051,0.0009832382202148438,6.0,0.0,3.9075142428776912,-12.222121937731877,-0.23959993926221249,0.639197908746604,-1.0,0.30256580800495014,0.7999999959688306,3.9351952859548196,3.915049646501387,-12.362977630108412,-12.365555249562412,-0.06239289035087481,-0.6182618448750752
16.343581914901733,-0.0449981689453125,3.866433620452881,-12.105762481689453,0.11878420469609946,0.0024192333221435547,6.0,0.0,3.9061288816283954,-12.214091038572493,-0.2495999392622125,0.6652945935513266,-0.3559304102318752,0.04125196976541986,0.7999999979844153,3.947009176615038,3.8994515974751227,-12.350581946806301,-12.358284440940412,-0.2960382517628499,-1.328666836570478
16.352697134017944,-0.0449981689453125,3.866433620452881,-12.105762481689453,0.11878420469609946,0.0025358200073242188,6.0,0.0,3.904660223352438,-12.205746674137398,-0.2595999392622125,0.664031957755485,-0.4846504162590697,-0.12284451253691729,0.5337258802739495,3.966288884869494,3.8753532376112196,-12.328401680899576,-12.349269723079095,-0.2960382517628499,-1.328666836570478
16.36187982559204,-0.052574049681425095,3.858388900756836,-12.087908744812012,0.12737924755510974,0.002210855484008789,6.0,0.0,3.903104472217687,-12.19708677797501,-0.2695999392622125,0.6664198895842017,-0.5195581506328767,-0.3259911587758421,0.12662654538288637,3.99703205817943,3.8383745512464436,-12.292321478035637,-12.34275208518385,-0.2960382517628499,-1.328666836570478
16.37184739112854,-0.052574049681425095,3.858388900756836,-12.087908744812012,0.12737924755510974,0.00150299072265625,6.0,0.0,3.9014578874922883,-12.18810907883778,-0.2795999392622125,0.6653744824702836,-0.6595373898450462,-0.46819381114308944,-0.598261243618758,4.04862974414278,3.7787303348286856,-12.23355270800831,-12.34754911470443,-0.2960382517628499,-1.328666836570478
16.3824782371521,-0.0649360790848732,3.845263719558716,-12.06013298034668,0.1408235067837298,0.0021767616271972656,6.0,0.0,3.8997167892730813,-12.17881110180926,-0.2895999392622125,0.6690613483258354,-0.637953924284536,-0.5677356678001627,-0.6991306218093791,3.928557670593262,3.9275576705932616,-12.365656578063964,-12.366656578063965,-0.2960382517628499,-1.328666836570478
16.391981601715088,-0.0649360790848732,3.845263719558716,-12.06013298034668,0.1408235067837298,0.0025720596313476562,6.0,0.0,3.8978775641883403,-12.169190169585919,-0.2995999392622125,0.6680192018510265,-0.7844921074618061,-0.6374149674601138,-0.7495653109046896,3.929215396330068,3.9241388814274223,-12.367646970497724,-12.368804510168749,-0.2960382517628499,-1.328666836570478
16.401926040649414,-0.07390093058347702,3.8357746601104736,-12.04106330871582,0.15024130911366418,0.0015163421630859375,6.0,0.0,3.895936671070814,-12.159243403912695,-0.3095999392622125,0.6695598650777017,-0.80237328437765,-0.6861904772220797,-0.7747826554523449,3.9351952859548196,3.915049646501387,-12.362977630108412,-12.365555249562412,-0.2960382517628499,-1.328666836570478
16.41180396080017,-0.07390093058347702,3.8357746601104736,-12.04106330871582,0.15024130911366418,0.002073049545288086,6.0,0.0,3.893890646597088,-12.148967727171087,-0.31959993926221253,0.6685450118215459,-0.955938011112937,-0.7203333340554559,-0.7873913277261724,3.947009176615038,3.8994515974751227,-12.350581946806301,-12.358284440940412,-0.2960382517628499,-1.328666836570478
16.421854496002197,-0.0886741653084755,3.8198165893554688,-12.011428833007812,0.16464088058257081,0.0014865398406982422,6.0,0.0,3.891736110889349,-12.13835986411856,-0.32959993926221254,0.670426567075994,-0.8567111437404474,-0.7442333338388192,-0.7936956638630863,3.966288884869494,3.8753532376112196,-12.328401680899576,-12.349269723079095,-0.2960382517628499,-1.328666836570478
16.432663202285767,-0.0886741653084755,3.8198165893554688,-12.011428833007812,0.16464088058257081,0.0019826889038085938,6.0,0.0,3.8894697730756733,-12.127416343777867,-0.33959993926221255,0.6694202645603685,-1.0,-0.7609633336871734,-0.7968478319315433,3.99703205817943,3.8383745512464436,-12.292321478035637,-12.34275208518385,-0.2960382517628499,-1.328666836570478
16.44202184677124,-0.09950381517410278,3.8076627254486084,-11.990741729736328,0.17404286538969316,0.0034646987915039062,6.0,0.0,3.887088436805037,-12.116133501474813,-0.34959993926221256,0.6702914311289904,-0.9769029999778444,-0.7726743335810213,-0.7984239159657718,4.04862974414278,3.7787303348286856,-12.23355270800831,-12.34754911470443,-0.6504627915701855,-3.0152776486666273
16.452333211898804,-0.09950381517410278,3.8076627254486084,-11.990741729736328,0.17404286538969316,0.00251007080078125,6.0,0.0,3.884589005713295,-12.10450748102288,-0.35959993926221256,0.6693015487756585,-1.0,-0.7808720335067149,-0.799211957982886,3.928557670593262,3.9275576705932616,-12.365656578063964,-12.366656578063965,-0.6504627915701855,-3.0152776486666273
16.462873935699463,-0.11094969511032104,3.794851064682007,-11.969870567321777,0.18308961569054752,0.003452777862548828,6.0,0.0,3.8819684888364394,-12.092534237053018,-0.3695999392622126,0.6702334926656884,-1.0,-0.7866104234547003,-0.7996059789914431,3.929215396330068,3.9241388814274223,-12.367646970497724,-12.368804510168749,-0.6504627915701855,-3.0152776486666273
16.587835788726807,-0.11094969511032104,3.794851064682007,-11.969870567321777,0.18308961569054752,0.0016298294067382812,6.0,0.0,3.790009640183521,-11.956152558324595,-0.2557975650023972,0.6609497812998072,-1.0,-0.7906272964182902,-0.7998029894957215,3.9351952859548196,3.915049646501387,-12.362977630108412,-12.365555249562412,-0.6504627915701855,-3.0152776486666273
16.595864295959473,-0.22956816852092743,3.6667301654815674,-11.792069435119629,0.2377510867913719,0.0025000572204589844,6.0,0.0,3.785126555141964,-11.942128515409067,-0.2657975650023972,0.6762158126969705,1.0,-0.7934391074928031,-0.7999014947478609,3.947009176615038,3.8994515974751227,-12.350581946806301,-12.358284440940412,-0.7133296912482194,-3.1203471079622087
16.60193395614624,-0.23894181847572327,3.6570441722869873,-11.780062675476074,0.24007074381693339,0.0014371871948242188,6.0,0.0,3.7801976138339,-11.927796278414633,-0.2757975650023972,0.6758752143511042,1.0,-0.7954073752449622,-0.7999507473739305,3.966288884869494,3.8753532376112196,-12.328401680899576,-12.349269723079095,-0.7133296912482194,-3.1203471079622087
16.611780881881714,-0.24833901226520538,3.647141695022583,-11.767979621887207,0.24228699837406503,0.0016531944274902344,6.0,0.0,3.7752186855141825,-11.913153477420327,-0.2857975650023972,0.6759585082742536,1.0,-0.7967851626714736,-0.7999753736869653,3.99703205817943,3.8383745512464436,-12.292321478035637,-12.34275208518385,-0.7133296912482194,-3.1203471079622087
16.621936798095703,-0.26718685030937195,3.626675844192505,-11.743593215942383,0.24645781395952301,0.0015439987182617188,6.0,0.0,3.770185710160969,-11.898197534128439,-0.29579756500239723,0.6769787167689679,1.0,-0.7977496138700315,-0.7999876868434826,4.04862974414278,3.7787303348286856,-12.23355270800831,-12.34754911470443,-0.7133296912482194,-3.1203471079622087
16.632604837417603,-0.276629239320755,3.616102457046509,-11.731282234191895,0.24837633202711584,0.0021555423736572266,6.0,0.0,3.76509470419024,-11.882925663399522,-0.30579756500239724,0.6768918282729588,1.0,-0.7984247297090221,-0.7999938434217413,3.928557670593262,3.9275576705932616,-12.365656578063964,-12.366656578063965,-0.7133296912482194,-3.1203471079622087
16.64177966117859,-0.2860787510871887,3.6052894592285156,-11.718903541564941,0.25012059570441497,0.0019567012786865234,6.0,0.0,3.759941766135979,-11.867334874937647,-0.31579756500239725,0.6767910246350166,1.0,-0.7988973107963155,-0.7999969217108707,3.929215396330068,3.9241388814274223,-12.367646970497724,-12.368804510168749,-0.6669222641318626,-2.275378191444145
16.652430772781372,-0.2955315113067627,3.5942325592041016,-11.706459045410156,0.25167729762382585,0.001735687255859375,6.0,0.0,3.7547230822922115,-11.851421975124715,-0.32579756500239726,0.6767161514168087,1.0,-0.7992281175574208,-0.7999984608554354,3.9351952859548196,3.915049646501387,-12.362977630108412,-12.365555249562412,-0.6669222641318626,-2.275378191444145
16.6618595123291,-0.31443262100219727,3.5713932514190674,-11.68135929107666,0.25429346658408625,0.001987457275390625,6.0,0.0,3.7494349323131484,-11.835183569002538,-0.33579756500239727,0.6774950528056103,1.0,-0.7994596822901946,-0.7999992304277177,3.947009176615038,3.8994515974751227,-12.350581946806301,-12.358284440940412,-0.6669222641318626,-2.275378191444145
16.6722252368927,-0.3238750994205475,3.559612512588501,-11.668709754943848,0.25540422286218967,0.002530813217163086,6.0,0.0,3.7440736947677444,-11.818616062401286,-0.3457975650023973,0.6774894240277096,1.0,-0.7996217776031362,-0.7999996152138589,3.966288884869494,3.8753532376112196,-12.328401680899576,-12.349269723079095,-0.6669222641318626,-2.275378191444145
16.683472156524658,-0.33443373441696167,3.54758358001709,-11.655810356140137,0.25641319402725754,0.0029478073120117188,6.0,0.0,3.7386358526450274,-11.801715664212802,-0.3557975650023973,0.677554715596117,1.0,-0.7997352443221953,-0.7999998076069295,3.99703205817943,3.8383745512464436,-12.292321478035637,-12.34275208518385,-0.6669222641318626,-2.275378191444145
16.69269895553589,-0.34496524930000305,3.5353212356567383,-11.642837524414062,0.2570448071068772,0.0021622180938720703,6.0,0.0,3.7331179988066165,-11.784478388807182,-0.3657975650023973,0.6776433667766024,1.0,-0.7998146710255367,-0.7999999038034648,4.04862974414278,3.7787303348286856,-12.23355270800831,-12.34754911470443,-0.6669222641318626,-2.275378191444145
16.703208446502686,-0.36594146490097046,3.5101094245910645,-11.616668701171875,0.2580368559551399,0.001837015151977539,6.0,0.0,3.7275168413829127,-11.766900058590963,-0.3757975650023973,0.678625934804485,1.0,-0.7998702697178757,-0.7999999519017323,3.928557670593262,3.9275576705932616,-12.365656578063964,-12.366656578063965,-0.6669222641318626,-2.275378191444145
16.827898025512695,-0.36594146490097046,3.5101094245910645,-11.616668701171875,0.2580368559551399,0.002048969268798828,6.0,0.0,3.5016646331884256,-11.596018237981424,-0.4175144427191304,0.6936991176644637,-1.0,-0.7999091888025129,-0.7999999759508662,3.929215396330068,3.9241388814274223,-12.367646970497724,-12.368804510168749,-0.6669222641318626,-2.275378191444145
16.836246490478516,-0.5284642577171326,3.2751646041870117,-11.392687797546387,0.249271600704682,0.001455545425415039,6.0,0.0,3.493121381431332,-11.575014345116063,-0.4275144427191304,0.7067248353661607,-0.02897328160684176,-0.799936432161759,-0.7999999879754331,3.9351952859548196,3.915049646501387,-12.362977630108412,-12.365555249562412,-0.19133159280302525,-1.2080606644097243
16.841740608215332,-0.5382835268974304,3.258298397064209,-11.377386093139648,0.24769990966580874,0.0015137195587158203,6.0,0.0,3.4844769578906085,-11.553651027079448,-0.4375144427191304,0.706818505708168,-0.1990056592748276,-0.7999555025132313,-0.7999999939877166,3.947009176615038,3.8994515974751227,-12.350581946806301,-12.358284440940412,-0.19133159280302525,-1.2080606644097243
16.852425813674927,-0.5480444431304932,3.2413084506988525,-11.362041473388672,0.24600596873295952,0.001668691635131836,6.0,0.0,3.4757288220429903,-11.53192211831926,-0.44751444271913043,0.7072535539938506,-0.3771293539533209,-0.7999688517592619,-0.7999999969938583,3.966288884869494,3.8753532376112196,-12.328401680899576,-12.349269723079095,-0.19133159280302525,-1.2080606644097243
16.8619282245636,-0.5673825144767761,3.206975221633911,-11.331243515014648,0.24227380628445333,0.002159595489501953,6.0,0.0,3.466874608973841,-11.50982128733,-0.45751444271913044,0.7083601464220838,-0.5023336657720587,-0.7999781962314834,-0.7999999984969292,3.99703205817943,3.8383745512464436,-12.292321478035637,-12.34275208518385,-0.19133159280302525,-1.2080606644097243
16.871878147125244,-0.5769366025924683,3.1896395683288574,-11.315834999084473,0.24025834131322912,0.0017256736755371094,6.0,0.0,3.4579121339838523,-11.487342040873013,-0.46751444271913045,0.7085082964457071,-0.6771190649305041,-0.7999847373620383,-0.7999999992484645,4.04862974414278,3.7787303348286856,-12.23355270800831,-12.34754911470443,-0.19133159280302525,-1.2080606644097243
16.882407903671265,-0.5864222645759583,3.1721932888031006,-11.30041790008545,0.23813321532709542,0.0020711421966552734,6.0,0.0,3.4488393970971107,-11.464477728311016,-0.47751444271913046,0.7086399007292257,-0.8483975117485332,-0.7999893161534268,-0.7999999996242323,3.928557670593262,3.9275576705932616,-12.365656578063964,-12.366656578063965,-0.19133159280302525,-1.2080606644097243
16.891937017440796,-0.5958364009857178,3.1546390056610107,-11.284994125366211,0.2359159077610055,0.0029098987579345703,6.0,0.0,3.439654587468,-11.441221546054386,-0.48751444271913047,0.7087485091675156,-1.0,-0.7999925213073988,-0.7999999998121162,3.929215396330068,3.9241388814274223,-12.367646970497724,-12.368804510168749,-0.19133159280302525,-1.2080606644097243
16.90190291404724,-0.6144369840621948,3.119218349456787,-11.254129409790039,0.23122887688016266,0.0014455318450927734,6.0,0.0,3.4303560876844985,-11.417566542116406,-0.4975144427191305,0.7093422419114254,-1.0,-0.7999947649151792,-0.7999999999060581,3.9351952859548196,3.915049646501387,-12.362977630108412,-12.365555249562412,-0.19133159280302525,-1.2080606644097243
16.912795543670654,-0.6236165165901184,3.10135555267334,-11.238689422607422,0.22877373264253914,0.002322673797607422,6.0,0.0,3.4209424779655144,-11.393505620774565,-0.5075144427191305,0.7093904977336613,-1.0,-0.7999963354406254,-0.7999999999530291,3.947009176615038,3.8994515974751227,-12.350581946806301,-12.358284440940412,-0.19133159280302525,-1.2080606644097243
16.921828985214233,-0.6327106356620789,3.083393096923828,-11.223261833190918,0.22625260052693685,0.0014905929565429688,6.0,0.0,3.411412540249999,-11.369031547335057,-0.5175144427191305,0.7094353563385055,-1.0,-0.7999974348084378,-0.7999999999765146,3.966288884869494,3.8753532376112196,-12.328401680899576,-12.349269723079095,-0.19133159280302525,-1.2080606644097243
16.932678937911987,-0.6419345736503601,3.064746618270874,-11.20731258392334,0.2236732244200496,0.00199127197265625,6.0,0.0,3.4017652621756667,-11.344136952997472,-0.5255593404039375,0.7094887778735929,-1.0,-0.7999982043659064,-0.7979678154427755,3.99703205817943,3.8383745512464436,-12.292321478035637,-12.34275208518385,-0.19133159280302525,-1.2080606644097243
16.942068815231323,-0.6601082682609558,3.0271806716918945,-11.17542552947998,0.21811506692919175,0.0026731491088867188,6.0,0.0,3.3919503513409115,-11.31883348059909,-0.5317081744212389,0.7099548255082667,-1.0,-0.7999987430561345,-0.7051859717925024,4.04862974414278,3.7787303348286856,-12.23355270800831,-12.34754911470443,0.2928725596287549,-1.3916251273795166
16.95214819908142,-0.6690497398376465,3.008258581161499,-11.15948486328125,0.215286204713303,0.0020101070404052734,6.0,0.0,3.3819182897222344,-11.29313379652601,-0.5360587672471899,0.7099573874467965,-1.0,-0.7999991201392942,-0.6342018327170393,3.928557670593262,3.9275576705932616,-12.365656578063964,-12.366656578063965,0.2928725596287549,-1.3916251273795166
17.085119485855103,-0.6690497398376465,3.008258581161499,-11.15948486328125,0.215286204713303,0.00197601318359375,6.0,0.0,2.9912104224567297,-11.136373360992168,-0.24630912404464228,0.6878133661482791,-0.25403980058566544,-0.7999993840975059,-0.626590684936068,3.929215396330068,3.9241388814274223,-12.367646970497724,-12.368804510168749,0.2928725596287549,-1.3916251273795166
17.09179973602295,-0.8055675625801086,2.671368360519409,-10.882903099060059,0.16751980991571883,0.0015597343444824219,6.0,0.0,2.9740265298681416,-11.113021564857362,-0.2478046058246517,0.6939671395098269,1.0,-0.4273818338361157,-0.0518784217137873,3.9351952859548196,3.915049646501387,-12.362977630108412,-12.365555249562412,0.08744590558740484,-2.425597729581735
17.102205514907837,-0.8197335004806519,2.6296005249023438,-10.848780632019043,0.16204836327286692,0.0017478466033935547,6.0,0.0,2.9566806277577586,-11.089447741606383,-0.24831367105316268,0.6937891701385105,1.0,-0.2811872708967311,-0.12803217134554104,3.947009176615038,3.8994515974751227,-12.350581946806301,-12.358284440940412,0.08744590558740484,-2.425597729581735
17.1118221282959,-0.8265418410301208,2.6084771156311035,-10.831669807434082,0.15938212780176342,0.0016717910766601562,6.0,0.0,2.939148108099083,-11.065669829198601,-0.2478931874421744,0.6935306761742103,1.0,-0.18828637501805692,-0.15872773175477542,3.966288884869494,3.8753532376112196,-12.328401680899576,-12.349269723079095,0.08744590558740484,-2.425597729581735
17.12197470664978,-0.8331615924835205,2.5871877670288086,-10.814545631408691,0.15681491642691747,0.0015041828155517578,6.0,0.0,2.9214060403063535,-11.041705494605774,-0.24659837782553756,0.69323518826195,1.0,-0.11853872565946913,-0.16967438255179493,3.99703205817943,3.8383745512464436,-12.292321478035637,-12.34275208518385,0.08744590558740484,-2.425597729581735
17.133856534957886,-0.8395867347717285,2.5657243728637695,-10.797389030456543,0.15431081041423658,0.0021867752075195312,6.0,0.0,2.9034331754804232,-11.017572174510315,-0.2444828140996351,0.6929253820041729,1.0,-0.058944160944799644,-0.17385846249435244,4.04862974414278,3.7787303348286856,-12.23355270800831,-12.34754911470443,0.08744590558740484,-2.425597729581735
17.14182734489441,-0.8518359065055847,2.5222578048706055,-10.762968063354492,0.14912640619382003,0.0030977725982666016,6.0,0.0,2.8852099454855327,-10.993287100873733,-0.2415984171905641,0.6929643234190924,1.0,0.02382394546003063,-0.17427940046223533,3.928557670593262,3.9275576705932616,-12.365656578063964,-12.366656578063965,-0.17462324879699498,-2.3662334792571595
17.153202533721924,-0.8576533794403076,2.500246286392212,-10.745691299438477,0.14626732795465586,0.0018284320831298828,6.0,0.0,2.8667184571420563,-10.968867313222967,-0.2379954622661169,0.6928853341288942,1.0,0.08620863392914103,-0.1827997638422737,3.929215396330068,3.9241388814274223,-12.367646970497724,-12.368804510168749,-0.17462324879699498,-2.3662334792571595
17.162043571472168,-0.8632658123970032,2.478053569793701,-10.728363037109375,0.1431671217780462,0.001973867416381836,6.0,0.0,2.8479424817292203,-10.944329659396207,-0.23372258846520522,0.6929032171469628,1.0,0.13921993762777224,-0.19557313543525254,3.9351952859548196,3.915049646501387,-12.362977630108412,-12.365555249562412,-0.17462324879699498,-2.3662334792571595
17.171892881393433,-0.8686725497245789,2.455681562423706,-10.710999488830566,0.13983184561601528,0.001443624496459961,6.0,0.0,2.828867439932064,-10.919690786385294,-0.22882681247546463,0.6929946788632498,1.0,0.18705338947114544,-0.2108403821872534,3.947009176615038,3.8994515974751227,-12.350581946806301,-12.358284440940412,-0.17462324879699498,-2.3662334792571595
17.18258261680603,-0.8793208599090576,2.410843849182129,-10.676167488098145,0.13257382159023634,0.0021255016326904297,6.0,0.0,2.809480382332642,-10.894967122809582,-0.22335354534970026,0.693798631608416,1.0,0.25080429137474536,-0.228538269582707,3.966288884869494,3.8753532376112196,-12.328401680899576,-12.349269723079095,-0.17462324879699498,-2.3662334792571595
17.31243658065796,-0.8793208599090576,2.410843849182129,-10.676167488098145,0.13257382159023634,0.002059459686279297,6.0,0.0,2.3927167060697014,-10.646627189311673,-0.37262036877479243,0.7088871234958757,1.0,0.2792257076561261,-0.24926022097116207,3.99703205817943,3.8383745512464436,-12.292321478035637,-12.34275208518385,-0.17462324879699498,-2.3662334792571595
17.321796417236328,-0.940605640411377,2.0035390853881836,-10.367074966430664,0.05598301482524326,0.0008912086486816406,6.0,0.0,2.3739868524436343,-10.61705252220548,-0.3626203687747924,0.7190681280288558,1.0,0.4354579953592883,-0.2934194983064683,4.04862974414278,3.7787303348286856,-12.23355270800831,-12.34754911470443,0.2733878161240355,-1.0125941519747563
17.332671642303467,-0.9423715472221375,1.9772273302078247,-10.347491264343262,0.05183408548700104,0.0013279914855957031,6.0,0.0,2.3546601040298007,-10.587456467494311,-0.3526203687747924,0.719346735966708,1.0,0.5448205967515019,-0.333603793003004,3.928557670593262,3.9275576705932616,-12.365656578063964,-12.366656578063965,0.2733878161240355,-1.0125941519747563
17.342140913009644,-0.9453375339508057,1.924399971961975,-10.308221817016602,0.04369654995507942,0.0024383068084716797,6.0,0.0,2.3347425434997446,-10.557851824134428,-0.3426203687747924,0.7201531492378414,1.0,0.6090965721808468,-0.3687772091577398,3.929215396330068,3.9241388814274223,-12.367646970497724,-12.368804510168749,0.620091515946616,-0.1626866813729495
17.352856636047363,-0.9465363621711731,1.897890329360962,-10.28855037689209,0.03967948553471583,0.001646280288696289,6.0,0.0,2.314240516368686,-10.528251203368015,-0.3326203687747924,0.7202643255771151,1.0,0.6454662051903566,-0.3939553211594118,3.9351952859548196,3.915049646501387,-12.362977630108412,-12.365555249562412,0.620091515946616,-0.1626866813729495
17.36254334449768,-0.9465363621711731,1.897890329360962,-10.28855037689209,0.03967948553471583,0.002402782440185547,6.0,0.0,2.2931606267532145,-10.498667022862499,-0.3226203687747924,0.7199312801032799,1.0,0.6639526152981581,-0.41134776420856317,3.947009176615038,3.8994515974751227,-12.350581946806301,-12.358284440940412,0.620091515946616,-0.1626866813729495
17.372425317764282,-0.948371946811676,1.8447062969207764,-10.249198913574219,0.03164858170241268,0.0017344951629638672,6.0,0.0,2.271509732990821,-10.469111500948634,-0.3126203687747924,0.720332679197649,1.0,0.6796891542204618,-0.4195055441728554,3.966288884869494,3.8753532376112196,-12.328401680899576,-12.349269723079095,0.620091515946616,-0.1626866813729495
17.383265256881714,-0.948371946811676,1.8447062969207764,-10.249198913574219,0.03164858170241268,0.0022017955780029297,6.0,0.0,2.2492949431235325,-10.439596650961134,-0.30262036877479237,0.7200041078354706,1.0,0.6869702298218859,-0.4249771008386583,3.99703205817943,3.8383745512464436,-12.292321478035637,-12.34275208518385,0.620091515946616,-0.1626866813729495
17.392040967941284,-0.9497050642967224,1.7645493745803833,-10.190180778503418,0.019518184891523946,0.002330303192138672,6.0,0.0,2.2265236102480483,-10.410134275685568,-0.29262036877479236,0.7206115062613404,1.0,0.6868015166801011,-0.41673006177522737,4.04862974414278,3.7787303348286856,-12.23355270800831,-12.34754911470443,0.620091515946616,-0.1626866813729495
17.402323246002197,-0.9497050642967224,1.7645493745803833,-10.190180778503418,0.019518184891523946,0.0012438297271728516,6.0,0.0,2.2032033277348795,-10.38073596191514,-0.28262036877479235,0.7202882660500652,1.0,0.6854100454416621,-0.4116892178346255,3.928557670593262,3.9275576705932616,-12.365656578063964,-12.366656578063965,0.620091515946616,-0.1626866813729495
17.41188955307007,-0.9496740698814392,1.7109110355377197,-10.150835037231445,0.011502008555571763,0.001039743423461914,6.0,0.0,2.1793419243191168,-10.351413075120886,-0.27262036877479234,0.720561322436192,1.0,0.6747547620960335,-0.39659074429759916,3.929215396330068,3.9241388814274223,-12.367646970497724,-12.368804510168749,0.620091515946616,-0.1626866813729495
17.421924829483032,-0.9496740698814392,1.7109110355377197,-10.150835037231445,0.011502008555571763,0.00091552734375,6.0,0.0,2.1549474590655584,-10.322176754238757,-0.26262036877479233,0.7202439384355855,1.0,0.6686202741216934,-0.3877473972955757,3.9351952859548196,3.915049646501387,-12.362977630108412,-12.365555249562412,0.620091515946616,-0.1626866813729495
17.53204584121704,-0.9496740698814392,1.7109110355377197,-10.150835037231445,0.011502008555571763,0.0013434886932373047,6.0,0.0,1.6817482986867065,-10.12404238475258,-0.10518869772718574,0.7188344387878185,1.0,0.6641699196239679,-0.3826361323547285,3.947009176615038,3.8994515974751227,-12.350581946806301,-12.358284440940412,0.620091515946616,-0.1626866813729495
17.54183340072632,-0.9190188050270081,1.288100004196167,-9.848345756530762,-0.03971549872447161,0.00118255615234375,6.0,0.0,1.652214567630539,-10.09745933884494,-0.09518869772718574,0.7232745668810403,1.0,0.5152034070811361,-0.1927876971734259,3.966288884869494,3.8753532376112196,-12.328401680899576,-12.349269723079095,0.5063586876057973,-1.2446543822412268
17.551974534988403,-0.9125469923019409,1.2321487665176392,-9.808100700378418,-0.045371085695883426,0.0011591911315917969,6.0,0.0,1.6223207548287149,-10.071092372529991,-0.08518869772718575,0.7237255808962914,1.0,0.4337901510071683,-0.10030528467734995,3.99703205817943,3.8383745512464436,-12.292321478035637,-12.34275208518385,0.5063586876057973,-1.2446543822412268
17.562036752700806,-0.9091506004333496,1.20429265499115,-9.78799057006836,-0.04810321482333131,0.001087188720703125,6.0,0.0,1.5920778914362492,-10.044947663481677,-0.07518869772718575,0.7238169643196148,1.0,0.3926537270724523,-0.06402237089714953,4.04862974414278,3.7787303348286856,-12.23355270800831,-12.34754911470443,0.5063586876057973,-1.2446543822412268
17.57192611694336,-0.904668390750885,1.1756339073181152,-9.767091751098633,-0.050768374041973124,0.0009675025939941406,6.0,0.0,1.5614971205355157,-10.019031091608916,-0.06518869772718576,0.7239455706433179,1.0,0.3682599141802071,-0.04647790484276188,3.928557670593262,3.9275576705932616,-12.365656578063964,-12.366656578063965,0.5063586876057973,-1.2446543822412268
17.581968069076538,-0.9000970125198364,1.1470880508422852,-9.746251106262207,-0.05327553935716432,0.0014812946319580078,6.0,0.0,1.5305896903151741,-9.993348236800847,-0.05518869772718576,0.7240597817073947,1.0,0.3499579005259679,-0.03365011178153433,3.929215396330068,3.9241388814274223,-12.367646970497724,-12.368804510168749,0.5063586876057973,-1.2446543822412268
17.59183359146118,-0.8907235860824585,1.090343952178955,-9.70466136932373,-0.05805312320942454,0.0011701583862304688,6.0,0.0,1.4993669472002713,-9.967904376835826,-0.045188697727185756,0.7245195473394194,1.0,0.3240328825207106,-0.008745815973488906,3.9351952859548196,3.915049646501387,-12.362977630108412,-12.365555249562412,0.5063586876057973,-1.2446543822412268
17.602015733718872,-0.8859264254570007,1.0621551275253296,-9.683917045593262,-0.060325453341658244,0.0015435218811035156,6.0,0.0,1.4678403289376136,-9.942704485455069,-0.035188697727185754,0.7246017149816867,1.0,0.3076883443922644,0.0030983365104268667,3.947009176615038,3.8994515974751227,-12.350581946806301,-12.358284440940412,0.5063586876057973,-1.2446543822412268
17.612093210220337,-0.8761239051818848,1.0061668157577515,-9.642526626586914,-0.06467199434026644,0.0012447834014892578,6.0,0.0,1.4360213576405227,-9.91775323060171,-0.025188697727185752,0.7251005396013996,1.0,0.2885684095515712,0.02195102767620804,3.966288884869494,3.8753532376112196,-12.328401680899576,-12.349269723079095,0.5063586876057973,-1.2446543822412268
17.621824979782104,-0.8761239051818848,1.0061668157577515,-9.642526626586914,-0.06467199434026644,0.0011458396911621094,6.0,0.0,1.4039216327970927,-9.893054972825897,-0.015188697727185752,0.7248161319696699,1.0,0.2838491303972743,0.01981111119914373,3.99703205817943,3.8383745512464436,-12.292321478035637,-12.34275208518385,0.5063586876057973,-1.2446543822412268
17.632105112075806,-0.866058886051178,0.9507290720939636,-9.601314544677734,-0.06874305931259216,0.001172780990600586,6.0,0.0,1.3715528242460677,-9.86861376385647,-0.005188697727185752,0.7254033007289774,1.0,0.27150147137840797,0.034257308021816056,4.04862974414278,3.7787303348286856,-12.23355270800831,-12.34754911470443,0.5063586876057973,-1.2446543822412268
17.641728401184082,-0.8609329462051392,0.9232280254364014,-9.5807466506958,-0.07066665357667332,0.0011293888092041016,6.0,0.0,1.3389266651244596,-9.844433345339585,0.0048113022728142486,0.7255919485529057,0.970673623034517,0.26400385459123665,0.04055593221913626,3.928557670593262,3.9275576705932616,-12.365656578063964,-12.366656578063965,0.6362665455848249,-1.1029123829828287
17.75443983078003,-0.8609329462051392,0.9232280254364014,-9.5807466506958,-0.07066665357667332,0.0010733604431152344,6.0,0.0,0.8885118521637543,-9.561835910776427,0.16536259006786086,0.7236989663194858,1.0,0.2622487620263846,0.037203895805748365,3.929215396330068,3.9241388814274223,-12.367646970497724,-12.368804510168749,0.6362665455848249,-1.1029123829828287
17.761915922164917,-0.7788487672805786,0.5353452563285828,-9.273170471191406,-0.09136732784815331,0.001771688461303711,6.0,0.0,0.8537481810301317,-9.543189596661984,0.17536259006786087,0.7462474346587454,0.31500459130367586,0.21075098128135927,0.14983446438668135,3.9351952859548196,3.915049646501387,-12.362977630108412,-12.365555249562412,0.6503222312601311,-1.1684860636525536
17.771841526031494,-0.7730541229248047,0.5111469626426697,-9.252690315246582,-0.09220115646520877,0.0015053749084472656,6.0,0.0,0.8189484793453135,-9.524805836117181,0.18536259006786088,0.7465050692043631,0.2534501401128275,0.21465673946595848,0.11144770602365935,3.947009176615038,3.8994515974751227,-12.350581946806301,-12.358284440940412,0.6503222312601311,-1.1684860636525536
17.782338619232178,-0.7672208547592163,0.4871627688407898,-9.2322359085083,-0.09296964716218516,0.0021512508392333984,6.0,0.0,0.7841241449724764,-9.50668245727104,0.1953625900678609,0.7468302677881431,0.2023312090032774,0.21197025798471011,0.10110745899252091,3.966288884869494,3.8753532376112196,-12.328401680899576,-12.349269723079095,0.6503222312601311,-1.1684860636525536
17.79236149787903,-0.7554200291633606,0.43986251950263977,-9.191295623779297,-0.09430524141410629,0.003134012222290039,6.0,0.0,0.749286499585918,-9.488816990548498,0.2053625900678609,0.7490390003484196,0.0703951979184847,0.20598388813357763,0.10316064448119472,3.99703205817943,3.8383745512464436,-12.292321478035637,-12.34275208518385,0.6503222312601311,-1.1684860636525536
17.802898168563843,-0.7494544386863708,0.4165578782558441,-9.17081356048584,-0.09487085222558318,0.002628803253173828,6.0,0.0,0.7144467819786662,-9.471206670751867,0.2153625900678609,0.7492577149075303,0.016083619280099715,0.2019497902486749,0.10186705899046941,4.04862974414278,3.7787303348286856,-12.23355270800831,-12.34754911470443,0.6503222312601311,-1.1684860636525536
17.811843633651733,-0.7434537410736084,0.39349183440208435,-9.150334358215332,-0.09536363812820602,0.001758575439453125,6.0,0.0,0.6796161414232273,-9.453848439290397,0.2253625900678609,0.7494190203059903,-0.03393622367189697,0.198110197003536,0.10226294816952217,3.928557670593262,3.9275576705932616,-12.365656578063964,-12.366656578063965,0.6503222312601311,-1.1684860636525536
17.822028636932373,-0.737699031829834,0.3707568943500519,-9.129382133483887,-0.0957985396428461,0.001444101333618164,6.0,0.0,0.6448056310886584,-9.436738946556137,0.23536259006786092,0.7495701130255793,-0.07908513898749447,0.19415832877733813,0.1035124492170315,3.929215396330068,3.9241388814274223,-12.367646970497724,-12.368804510168749,0.6503222312601311,-1.1684860636525536
17.832217693328857,-0.7260721921920776,0.3260313868522644,-9.087596893310547,-0.09655943337530842,0.0024924278259277344,6.0,0.0,0.610026201517083,-9.419874554444204,0.24536259006786093,0.7514196017157043,-0.19568707693113474,0.18744501868763971,0.10861097354313139,3.9351952859548196,3.915049646501387,-12.362977630108412,-12.365555249562412,0.6503222312601311,-1.1684860636525536
17.841869115829468,-0.7202026844024658,0.3040478527545929,-9.066729545593262,-0.09688421919166035,0.002051830291748047,6.0,0.0,0.5752886941627007,-9.403251339015524,0.25536259006786094,0.7514962898546133,-0.2265989156394872,0.1830667304614328,0.10793104768115999,3.947009176615038,3.8994515974751227,-12.350581946806301,-12.358284440940412,0.5355996206372922,-0.6066325220533271
17.852206468582153,-0.7142975926399231,0.2823210060596466,-9.045877456665039,-0.097173174206276,0.0019745826721191406,6.0,0.0,0.5406038349962702,-9.3868650933,0.26536259006786095,0.7515768719910876,-0.24997810765949846,0.17909761775896965,0.10822100165400435,3.966288884869494,3.8753532376112196,-12.328401680899576,-12.349269723079095,0.5355996206372922,-0.6066325220533271
17.86222004890442,-0.7083503007888794,0.26085010170936584,-9.025039672851562,-0.09742183955792472,0.0018041133880615234,6.0,0.0,0.5059822281779758,-9.370711330238095,0.27536259006786096,0.7516430215417451,-0.2672076737125648,0.17532017234803424,0.1091216733135214,3.99703205817943,3.8383745512464436,-12.292321478035637,-12.34275208518385,0.5355996206372922,-0.6066325220533271
17.99437952041626,-0.7083503007888794,0.26085010170936584,-9.025039672851562,-0.09742183955792472,0.003018617630004883,6.0,0.0,0.22807386618582196,-9.011129544414175,0.38079576529430814,0.7261321145011546,1.0,0.17422442834015006,0.10768750484424057,4.04862974414278,3.7787303348286856,-12.23355270800831,-12.34754911470443,0.5355996206372922,-0.6066325220533271
18.003800630569458,-0.5965214371681213,-0.07182075828313828,-8.650251388549805,-0.09571185030641627,0.0017733573913574219,6.0,0.0,0.1954712980456062,-8.997368977811215,0.39079576529430815,0.753748357659753,0.18780704266698156,0.10668744009154384,0.18892547108188418,3.924410140991211,3.9234101409912108,-12.355855667114257,-12.356855667114258,1.0210364302887518,-1.884115709349219
18.01272439956665,-0.5901128053665161,-0.08743234723806381,-8.629447937011719,-0.09529571723986907,0.0024530887603759766,6.0,0.0,0.16305115309758014,-8.98375120394192,0.40079576529430816,0.7532902161067772,0.21820253894000963,0.11230602569773689,0.13649420670647808,3.9247112331669896,3.919617697527213,-12.3504438035707,-12.351940978699917,1.0210364302887518,-1.884115709349219
18.02222490310669,-0.5836936831474304,-0.10281211137771606,-8.608658790588379,-0.09486054382282519,0.0014543533325195312,6.0,0.0,0.13082200688362722,-8.970269198069296,0.41079576529430817,0.7535490365711952,0.27402338109316293,0.10414445248578753,0.12927766704092813,3.930255172884855,3.90989020909527,-12.338181462114532,-12.342426367437453,1.0210364302887518,-1.884115709349219
18.032366514205933,-0.5708290338516235,-0.13288211822509766,-8.56718635559082,-0.09392834864068325,0.0022649765014648438,6.0,0.0,0.09879224858823567,-8.956915684112877,0.4207957652943082,0.7550906070363689,0.2863883634625475,0.09503972316862988,0.12533866689852113,3.9417079111409676,3.893178463976577,-12.317874787704453,-12.329704206459487,1.0210364302887518,-1.884115709349219
18.041759967803955,-0.5643863677978516,-0.14757566154003143,-8.546469688415527,-0.0934427748960614,0.0016109943389892578,6.0,0.0,0.0669700750502158,-8.943683139086671,0.4307957652943082,0.7552726073849514,0.33994407701282914,0.08969567961585478,0.1194270298516152,3.961020674610543,3.8671278191479335,-12.287242782181371,-12.316158484433275,0.3354381744188286,-0.5629985573808697
18.05212116241455,-0.5579386353492737,-0.16204214096069336,-8.525768280029297,-0.09296520322371965,0.001971721649169922,6.0,0.0,0.03536348487982113,-8.930563797679385,0.4407957652943082,0.7554884461323005,0.3930797493288726,0.08540014163571946,0.11455242397547077,3.992845966821564,3.826673222282335,-12.241767976066669,-12.306311514540873,0.3354381744188286,-0.5629985573808697
18.061885118484497,-0.5514869689941406,-0.1762816160917282,-8.505084037780762,-0.09250608468600388,0.0018162727355957031,6.0,0.0,0.003980272684444817,-8.917549656973843,0.4507957652943082,0.7557012171347643,0.44519055594937806,0.08200233111536953,0.11011220000691231,4.047909170331173,3.76067890203812,-12.171835831632812,-12.309683167641841,0.3354381744188286,-0.5629985573808697
18.071865558624268,-0.5384125709533691,-0.20081037282943726,-8.462498664855957,-0.0913861281553322,0.001483917236328125,6.0,0.0,-0.027171976594037122,-8.904632481302501,0.4607957652943082,0.7571498619465185,0.40834057551948877,0.07799828715108023,0.10676467307352824,3.924410140991211,3.9234101409912108,-12.355855667114257,-12.356855667114258,0.3354381744188286,-0.5629985573808697
18.082112789154053,-0.5318740606307983,-0.21276617050170898,-8.44129467010498,-0.09071289798334126,0.00213623046875,6.0,0.0,-0.058085893227304626,-8.891803807235874,0.4707957652943082,0.7573294844789078,0.4461252742495905,0.07557439280333486,0.10460149758693683,3.9247112331669896,3.919617697527213,-12.3504438035707,-12.351940978699917,0.3354381744188286,-0.5629985573808697
18.09181046485901,-0.5253335237503052,-0.22451889514923096,-8.420122146606445,-0.09003342237998038,0.0019392967224121094,6.0,0.0,-0.08875432813114625,-8.879054948700633,0.48079576529430823,0.7575484025388998,0.48555428064075923,0.0740216118475324,0.10118777873247822,3.930255172884855,3.90989020909527,-12.338181462114532,-12.342426367437453,0.3354381744188286,-0.5629985573808697
18.102372407913208,-0.518791913986206,-0.23606735467910767,-8.398979187011719,-0.08934054535453403,0.0019969940185546875,6.0,0.0,-0.11917035817576031,-8.866377002224073,0.49079576529430824,0.7577691709925636,0.5254370300754219,0.07256240764446599,0.0982469733510997,3.9417079111409676,3.893178463976577,-12.317874787704453,-12.329704206459487,0.3354381744188286,-0.5629985573808697
18.23018217086792,-0.518791913986206,-0.23606735467910767,-8.398979187011719,-0.08934054535453403,0.0034749507904052734,6.0,0.0,-0.2601589129050375,-8.380905624977155,0.3595723752478437,0.7426299477884083,1.0,0.0721331923544385,0.09501456022350527,3.961020674610543,3.8671278191479335,-12.287242782181371,-12.316158484433275,0.3354381744188286,-0.5629985573808697
18.24095892906189,-0.4101913571357727,-0.392490029335022,-8.044867515563965,-0.07580694763059842,0.00091552734375,6.0,0.0,-0.2841196352967415,-8.362945034732977,0.3695723752478437,0.7626664507311494,-0.7357093524951945,0.07945430919492998,0.02581758655411653,3.992845966821564,3.826673222282335,-12.241767976066669,-12.306311514540873,0.5557502420410056,-1.3824324840433475
18.245407819747925,-0.40407896041870117,-0.3989526629447937,-8.024303436279297,-0.0748556279517025,0.002242565155029297,6.0,0.0,-0.3079407446390685,-8.345090671847984,0.3795723752478437,0.7629133602723219,-0.7458465464482629,0.06111350179400248,0.07652637888712732,4.047909170331173,3.76067890203812,-12.171835831632812,-12.309683167641841,0.5557502420410056,-1.3824324840433475
18.251946210861206,-0.3979705274105072,-0.40518996119499207,-8.003740310668945,-0.07390252387879417,0.0012907981872558594,6.0,0.0,-0.3316136486557681,-8.327335535113955,0.3895723752478437,0.7631672743772887,-0.7541088405435883,0.06462134384402825,0.09355632417725365,3.924410140991211,3.9234101409912108,-12.355855667114257,-12.356855667114258,0.5557502420410056,-1.3824324840433475
18.262283325195312,-0.39186668395996094,-0.41119951009750366,-7.9831767082214355,-0.07294481467531289,0.0014133453369140625,6.0,0.0,-0.3551299460528286,-8.309672370978513,0.3995723752478437,0.763441234422072,-0.7606747467863988,0.06838634234989534,0.10258556097603325,3.9247112331669896,3.919617697527213,-12.3504438035707,-12.351940978699917,0.5557502420410056,-1.3824324840433475
18.27195644378662,-0.37967514991760254,-0.42252346873283386,-7.942043304443359,-0.07103349252883784,0.0010166168212890625,6.0,0.0,-0.37848143245718313,-8.292093678119135,0.40957237524784373,0.7648889029536468,-0.9049337299608344,0.07117332483537761,0.10847262825950332,3.930255172884855,3.90989020909527,-12.338181462114532,-12.342426367437453,0.5557502420410056,-1.3824324840433475
18.28230333328247,-0.373578280210495,-0.4278281331062317,-7.9215240478515625,-0.07008182761086318,0.00138092041015625,6.0,0.0,-0.4016601062476537,-8.274591712155363,0.41957237524784374,0.7650331032258993,-0.9069229935245211,0.0731683770551265,0.1115230161710621,3.9417079111409676,3.893178463976577,-12.317874787704453,-12.329704206459487,0.5557502420410056,-1.3824324840433475
18.291805267333984,-0.36748841404914856,-0.4328826665878296,-7.901018142700195,-0.0691209371453467,0.0010535717010498047,6.0,0.0,-0.42465817427510083,-8.257158490496161,0.42957237524784375,0.7651768088288315,-0.89861560525112,0.07428944149550902,0.11379719819030651,3.961020674610543,3.8671278191479335,-12.287242782181371,-12.316158484433275,0.5557502420410056,-1.3824324840433475
18.30214548110962,-0.36140620708465576,-0.43768566846847534,-7.880523681640625,-0.0681488243407882,0.0012822151184082031,6.0,0.0,-0.4474680574688413,-8.23978579731936,0.43957237524784376,0.7653382062503424,-0.8783340814039997,0.07485921628230427,0.11541972712424896,3.992845966821564,3.826673222282335,-12.241767976066669,-12.306311514540873,0.5557502420410056,-1.3824324840433475
18.313281774520874,-0.34996160864830017,-0.44495752453804016,-7.8393144607543945,-0.06617257553116496,0.0017056465148925781,6.0,0.0,-0.47008239632649523,-8.222465188679996,0.44957237524784377,0.7666161063116602,-0.9571982287961129,0.07389155228689051,0.11658668838258604,4.047909170331173,3.76067890203812,-12.171835831632812,-12.309683167641841,0.5557502420410056,-1.3824324840433475
18.322229385375977,-0.3445846736431122,-0.44745853543281555,-7.818606853485107,-0.06506081596114666,0.0010480880737304688,6.0,0.0,-0.4924940562845234,-8.205187997744344,0.4595723752478438,0.7667534881341141,-0.9140977402495762,0.07251671413134902,0.11586775521675145,3.924410140991211,3.9234101409912108,-12.355855667114257,-12.356855667114258,0.5557502420410056,-1.3824324840433475
18.33355712890625,-0.3392028510570526,-0.44974061846733093,-7.7979536056518555,-0.0639474993223827,0.001993417739868164,6.0,0.0,-0.5146961329668156,-8.187945340146378,0.4695723752478438,0.7668773595160054,-0.8611365038914067,0.07067935879916964,0.11525258151916043,3.9247112331669896,3.919617697527213,-12.3504438035707,-12.351940978699917,0.5557502420410056,-1.3824324840433475
18.44695019721985,-0.3392028510570526,-0.44974061846733093,-7.7979536056518555,-0.0639474993223827,0.001230001449584961,6.0,0.0,-0.4661587453425896,-7.777439227119915,0.4242022422958519,0.7525613056128759,1.0,0.07036093880135981,0.11460519028210571,3.930255172884855,3.90989020909527,-12.338181462114532,-12.342426367437453,0.2737689051048804,-0.825856164916919
18.45195746421814,-0.2644422948360443,-0.45834532380104065,-7.5114970207214355,-0.04857962178146216,0.0011386871337890625,6.0,0.0,-0.48241639354111254,-7.756938962456804,0.4342022422958519,0.7649824987823084,0.18244125060264016,0.05522601548706941,0.03825789649123652,3.9417079111409676,3.893178463976577,-12.317874787704453,-12.329704206459487,0.2737689051048804,-0.825856164916919
18.461878061294556,-0.2543869614601135,-0.45340093970298767,-7.471235752105713,-0.04608328076565055,0.0011355876922607422,6.0,0.0,-0.498506528425964,-7.736444455192965,0.4442022422958519,0.7655862395663076,0.2282498851224567,0.02012663225457007,0.0868837358722176,3.961020674610543,3.8671278191479335,-12.287242782181371,-12.316158484433275,0.2737689051048804,-0.825856164916919
18.47191548347473,-0.24438317120075226,-0.4479340612888336,-7.431100845336914,-0.04360805327857131,0.0011513233184814453,6.0,0.0,-0.5144223411669363,-7.715947130700736,0.45420224229585193,0.7661015067528614,0.2855873891646987,0.021456828542928706,0.057087144911966085,3.992845966821564,3.826673222282335,-12.241767976066669,-12.306311514540873,0.2737689051048804,-0.825856164916919
18.48254418373108,-0.23940390348434448,-0.4450126588344574,-7.411124229431152,-0.04238475246868781,0.0012176036834716797,6.0,0.0,-0.5301572538895475,-7.695438201534811,0.46420224229585194,0.7658054970602893,0.4007805831028559,0.01240644950502832,0.056028735671427236,4.047909170331173,3.76067890203812,-12.171835831632812,-12.309683167641841,0.2737689051048804,-0.825856164916919
18.49175190925598,-0.23443949222564697,-0.4419616758823395,-7.391192436218262,-0.041175611827311526,0.0008673667907714844,6.0,0.0,-0.545704924701777,-7.674908672888644,0.47420224229585195,0.7654677302757507,0.5156985350192156,0.008882165379602078,0.04472202845689222,3.924410140991211,3.9234101409912108,-12.355855667114257,-12.356855667114258,0.2737689051048804,-0.825856164916919
18.502400398254395,-0.22949302196502686,-0.4387926161289215,-7.371306896209717,-0.04000207875783496,0.0012450218200683594,6.0,0.0,-0.5610592525961868,-7.654349348163558,0.48420224229585196,0.7651169592137043,0.6290892729141355,0.0037400859897763015,0.03973060733685351,3.9247112331669896,3.919617697527213,-12.3504438035707,-12.351940978699917,0.2737689051048804,-0.825856164916919
18.512214183807373,-0.21965783834457397,-0.4321126639842987,-7.331670761108398,-0.037753239052582585,0.0019729137420654297,6.0,0.0,-0.5762143822251738,-7.633750834647267,0.49420224229585197,0.7653540923130834,0.6639902752593652,-0.0009250006358348517,0.03277453043667362,3.930255172884855,3.90989020909527,-12.338181462114532,-12.342426367437453,0.2737689051048804,-0.825856164916919
18.521857023239136,-0.21477057039737701,-0.4286060333251953,-7.311916828155518,-0.0366850347405155,0.0009799003601074219,6.0,0.0,-0.5911647085471978,-7.61310354929846,0.504202242295852,0.7650098496286512,0.7666089965534073,-0.004210061256646361,0.027806076962199215,3.9417079111409676,3.893178463976577,-12.317874787704453,-12.329704206459487,0.2737689051048804,-0.825856164916919
18.53230118751526,-0.2099045366048813,-0.4249894917011261,-7.292238712310791,-0.03565220848064006,0.0015099048614501953,6.0,0.0,-0.605904881341928,-7.592397724634089,0.5128765732594537,0.7646579791386743,0.7342623078437482,-0.006269582558872814,0.022598934944659192,3.961020674610543,3.8671278191479335,-12.287242782181371,-12.316158484433275,0.2737689051048804,-0.825856164916919
18.541715145111084,-0.2050602287054062,-0.42126351594924927,-7.2726006507873535,-0.034653027787416954,0.0009124279022216797,6.0,0.0,-0.6204022569779659,-7.571604177728315,0.5199504201357172,0.7643039936562825,0.6630550245179525,-0.008431270045758318,0.02173115412697204,3.992845966821564,3.826673222282335,-12.241767976066669,-12.306311514540873,-0.03914200120073996,-0.9498998207014763
18.5519278049469,-0.19543889164924622,-0.41348057985305786,-7.2334418296813965,-0.032743715151590136,0.0010094642639160156,6.0,0.0,-0.6346192958390366,-7.550691207739724,0.5255024218190059,0.7645260977528289,0.48100649270471285,-0.008569706294378551,0.017911201193775227,4.047909170331173,3.76067890203812,-12.171835831632812,-12.309683167641841,-0.03914200120073996,-0.9498998207014763
18.561974048614502,-0.19067546725273132,-0.4094425141811371,-7.213918209075928,-0.03183159181157494,0.0014197826385498047,6.0,0.0,-0.6485208701670152,-7.529630146135717,0.5296091326583979,0.7641654731845274,0.3935853221531549,-0.009519655503638648,0.019673646968886287,3.924410140991211,3.9234101409912108,-12.355855667114257,-12.356855667114258,-0.03914200120073996,-0.9498998207014763
18.57182240486145,-0.19067546725273132,-0.4094425141811371,-7.213918209075928,-0.03183159181157494,0.0009582042694091797,6.0,0.0,-0.6620740099145669,-7.50839540143415,0.5323449881938335,0.7632220483627635,0.41674757321029854,-0.009146411482721164,0.01932225294218854,3.9247112331669896,3.919617697527213,-12.3504438035707,-12.351940978699917,-0.03914200120073996,-0.9498998207014763
18.67909049987793,-0.19067546725273132,-0.4094425141811371,-7.213918209075928,-0.03183159181157494,0.0010592937469482422,6.0,0.0,-0.41432795197825784,-7.189851178396674,0.26789990851469586,0.7572199670765977,0.9162542370986859,-0.008933826513946088,0.019306157295631794,3.930255172884855,3.90989020909527,-12.338181462114532,-12.342426367437453,-0.03914200120073996,-0.9498998207014763
18.685837745666504,-0.1187039241194725,-0.3166462182998657,-6.923048496246338,-0.019792325298367774,0.0008969306945800781,6.0,0.0,-0.4191851489834505,-7.165787543036535,0.27584034853206046,0.7655776191893494,-1.0,0.016606439256206598,-0.03368808161212102,3.9417079111409676,3.893178463976577,-12.317874787704453,-12.329704206459487,0.0007213424062371132,-1.2680318717753658
18.69176149368286,-0.1187039241194725,-0.3166462182998657,-6.923048496246338,-0.019792325298367774,0.0008046627044677734,6.0,0.0,-0.42397656422805424,-7.141717057989415,0.2826136305650704,0.7647777077849655,-1.0,0.0006112640146616174,-0.001995034047069598,3.961020674610543,3.8671278191479335,-12.287242782181371,-12.316158484433275,0.0007213424062371132,-1.2680318717753658
18.702120542526245,-0.10981977730989456,-0.30031031370162964,-6.884335994720459,-0.018537571200048397,0.0012578964233398438,6.0,0.0,-0.428667161484716,-7.117630110959688,0.28827361207547836,0.7652669448429006,-1.0,0.009055256458462297,0.011529641932918163,3.992845966821564,3.826673222282335,-12.241767976066669,-12.306311514540873,0.0007213424062371132,-1.2680318717753658
