time,x,y,z,yaw,ctrl_comp_time,rollout_comptime,y_ref,z_ref,yaw_ref,throttle,roll_rate,pitch_rate,yaw_rate,save_tube_pyH,save_tube_pyL,save_tube_pzH,save_tube_pzL,wy,wz
15.036868333816528,0.04396754875779152,3.8784267902374268,-12.504748344421387,-0.0011738536857009627,0.16539597511291504,0.15058088302612305,3.8785424496414125,-12.502123261644961,-0.0413740782597262,0.5849503322463023,-1.0,0.012613786433302649,0.01803665153000016,3.8800369026640738,3.876988110816118,-12.502795857561917,-12.50387636213024,-0.03912938534447988,0.22583879915215213
15.78317141532898,0.028815828263759613,3.8823564052581787,-12.43380355834961,0.00016695256419661797,0.19823145866394043,0.12075567245483398,3.8786007388132955,-12.493634985548601,-0.0813740782597262,0.6469551790568107,1.0,0.01599107722938656,0.05232782012739569,3.886289484983386,3.8709121010633623,-12.495239964944908,-12.497355355788667,-0.04185091073369951,-7.320068115396104
15.933547735214233,0.028815828263759613,3.8823564052581787,-12.43380355834961,0.00016695256419661797,0.003052234649658203,0.1262342929840088,3.8784268812717047,-12.479435357713072,-0.12137407825972618,0.6403986477106172,-1.0,0.03655657153533895,0.024647253996005862,3.8983975285752623,3.858607093593579,-12.480412635126646,-12.48661556604441,0.3010785216031504,0.8115891959140322
15.942148685455322,0.032000258564949036,3.676486015319824,-11.942634582519531,0.001624201677646514,0.0024466514587402344,0.1262342929840088,3.877830288705616,-12.45963044435641,-0.16137407825972622,0.7202701911362241,1.0,-0.02527284228456047,-0.07556266293458294,3.917751107155668,3.8383087669911733,-12.456567742533975,-12.47363855247856,0.3010785216031504,0.8115891959140322
15.952420234680176,0.03187834843993187,3.6664931774139404,-11.926765441894531,0.0016863942548475674,0.0026710033416748047,0.1262342929840088,3.8766098738101133,-12.434278579792013,-0.20137407825972625,0.7207073962211299,1.0,-0.04959468248178404,-0.05873118365293333,3.947772123536686,3.8061972722148893,-12.42020345736663,-12.46206697981263,0.3010785216031504,0.8115891959140322
15.96211576461792,0.031609632074832916,3.6458919048309326,-11.894618034362793,0.0017990944035120582,0.0026237964630126953,0.1262342929840088,3.8745595697245876,-12.403389024191405,-0.2413740782597263,0.7223896942775805,1.0,-0.05851826827978581,-0.06299089486282422,3.9964212962535264,3.753901194509327,-12.363854030220265,-12.45940983798372,0.3010785216031504,0.8115891959140322
15.972144365310669,0.03145792707800865,3.635274648666382,-11.878350257873535,0.001837863277389551,0.0024061203002929688,0.1262342929840088,3.871473986541589,-12.366921251524825,-0.2813740782597263,0.7227560964718833,1.0,-0.06425725419090184,-0.0694750999117032,4.082384460263523,3.6623225102958727,-12.27064702068263,-12.482483472337542,0.3010785216031504,0.8115891959140322
15.982188701629639,0.0312945619225502,3.6244447231292725,-11.861971855163574,0.0018663497155422815,0.0030503273010253906,0.1262342929840088,3.867154135078267,-12.32478487473751,-0.32137407825972636,0.7229306018074881,1.0,-0.06912239922442476,-0.07521766528447354,4.248979422750724,3.487741158311963,-12.099714931220715,-12.571999481094648,0.3010785216031504,0.8115891959140322
15.991758108139038,0.03111913613975048,3.6133930683135986,-11.84554386138916,0.0018942585877748108,0.002302885055541992,0.1262342929840088,3.878542449641409,-12.502123261644961,-0.0413740782597262,0.7228736148091326,1.0,-0.07343320960113581,-0.07999384499221182,3.8800369026640715,3.876988110816116,-12.502795857561917,-12.50387636213024,0.3010785216031504,0.8115891959140322
16.002790212631226,0.030730726197361946,3.5906028747558594,-11.812511444091797,0.0019869544168498454,0.002532482147216797,0.1262342929840088,3.878600738813279,-12.493634985548601,-0.0813740782597262,0.7231330123270715,1.0,-0.07813969784906695,-0.08307854104658494,3.886289484983373,3.87091210106335,-12.495239964944908,-12.497355355788667,0.3010785216031504,0.8115891959140322
16.01227331161499,0.03041738271713257,3.5769739151000977,-11.795870780944824,0.0020551737124174796,0.004731655120849609,0.1262342929840088,3.878426881271665,-12.479435357713072,-0.12137407825972618,0.7228221263659992,1.0,-0.08165866121322835,-0.08619877090183826,3.8983975285752295,3.858607093593546,-12.480412635126646,-12.48661556604441,0.3010785216031504,0.8115891959140322
16.023388624191284,0.03041738271713257,3.5769739151000977,-11.795870780944824,0.0020551737124174796,0.0023000240325927734,0.1262342929840088,3.877830288705543,-12.459630444356408,-0.16137407825972622,0.7221751319456873,1.0,-0.08376912660652644,-0.08963712186023931,3.9177511071556044,3.8383087669911093,-12.456567742533968,-12.47363855247856,-0.06530997915303782,-1.0272751651204834
16.032402515411377,0.0297591183334589,3.54917311668396,-11.762470245361328,0.00219181917968439,0.002943277359008789,0.1262342929840088,3.8766098738099966,-12.434278579792005,-0.20137407825972625,0.7222558442368763,1.0,-0.08664660955132002,-0.0904596042803414,3.9477721235365824,3.8061972722147823,-12.420203457366611,-12.462066979812635,-0.06530997915303782,-1.0272751651204834
16.041770935058594,0.029055150225758553,3.5206573009490967,-11.728998184204102,0.0023065403069514323,0.0025484561920166016,0.1262342929840088,3.8745595697244153,-12.40338902419139,-0.2413740782597263,0.7223761081330564,1.0,-0.08866927155099212,-0.09034440835611461,3.996421296253376,3.753901194509163,-12.363854030220224,-12.459409837983738,-0.06530997915303782,-1.0272751651204834
16.192563772201538,0.029055150225758553,3.5206573009490967,-11.728998184204102,0.0023065403069514323,0.0024230480194091797,0.14307475090026855,3.8714739865413494,-12.366921251524804,-0.2813740782597263,0.70765130475537,-1.0,-0.08957820100390546,-0.09147369902688318,4.082384460263319,3.662322510295633,-12.27064702068255,-12.482483472337583,-0.06530997915303782,-1.0272751651204834
16.207628965377808,0.016760630533099174,3.188892364501953,-11.393845558166504,0.0006339992923965754,0.003787517547607422,0.14307475090026855,3.8671541350779473,-12.324784874737475,-0.32137407825972636,0.7162858597830869,0.12313398114747343,-0.07561294567096619,-0.05623036319215967,4.248979422750456,3.4877411583116325,-12.099714931220587,-12.571999481094716,-0.3410435453491596,-1.864679423528715
16.218097925186157,0.016760630533099174,3.188892364501953,-11.393845558166504,0.0006339992923965754,0.00439453125,0.14307475090026855,3.881815863068903,-12.399176237196809,-0.2811685715189212,0.7156493235944857,-0.09952058779058581,-0.07018695701285664,-0.058680375042147376,3.8836321795113418,3.880533554669608,-12.407280154313423,-12.40929434534641,-0.3410435453491596,-1.864679423528715
16.235902309417725,0.014330178499221802,3.13364315032959,-11.3435697555542,-0.000255024538388271,0.004355430603027344,0.14307475090026855,3.879767491094974,-12.359637041416052,-0.32116857151892125,0.7168104025239438,-0.19630733072476403,-0.06536315780959323,-0.05544883525797663,3.8884852504250125,3.872382726373517,-12.36564693765005,-12.374336802253874,0.12493409462978056,-1.4360339318495823
16.24652600288391,0.014330178499221802,3.13364315032959,-11.3435697555542,-0.000255024538388271,0.00439143180847168,0.14307475090026855,3.8759790840230686,-12.314995435647377,-0.3611685715189213,0.7161611147084941,-0.42436877649660687,-0.0625515764269812,-0.05198547550829909,3.8988466564388693,3.855355757938129,-12.314711878338363,-12.338581175039689,0.12493409462978056,-1.4360339318495823
16.25989532470703,0.011910607106983662,3.0779073238372803,-11.293290138244629,-0.0012450616085363936,0.0036368370056152344,0.14307475090026855,3.8702412833047215,-12.265010375329169,-0.4011685715189213,0.7170746945729863,-0.4876124460382927,-0.05715890348975834,-0.04407622219454017,3.917667789415667,3.8260700512686894,-12.251747794297186,-12.30429742249732,0.12493409462978056,-1.4360339318495823
16.27106022834778,0.011910607106983662,3.0779073238372803,-11.293290138244629,-0.0012450616085363936,0.0043752193450927734,0.14307475090026855,3.8623731720171612,-12.209392629779952,-0.44116857151892136,0.7164181240002281,-0.7213035912624708,-0.053728308986299045,-0.038434035293076776,3.951548428958718,3.7775487481028067,-12.171347701747875,-12.276337659787497,0.12493409462978056,-1.4360339318495823
16.282946348190308,0.005051147658377886,2.997309684753418,-11.226425170898438,-0.0027757926318460607,0.003966331481933594,0.14307475090026855,3.8522276228197296,-12.14780768716386,-0.4811685715189214,0.7177242350073121,-0.6232878272625264,-0.048785593074830914,-0.027341426526972648,4.014993886702835,3.694974415856254,-12.062520094747214,-12.265046403926931,0.12493409462978056,-1.4360339318495823
16.424662590026855,0.005051147658377886,2.997309684753418,-11.226425170898438,-0.0027757926318460607,0.002211332321166992,0.13069510459899902,3.8396963436248543,-12.079879206827375,-0.5211685715189214,0.6890364826336548,-0.22886500197612802,-0.046172429203608,-0.023072173716458623,4.1392932649925145,3.546821041256102,-11.901583377198005,-12.293372779827662,0.12493409462978056,-1.4360339318495823
16.436081886291504,-0.02068108506500721,2.611128091812134,-10.909964561462402,-0.010074902319322593,0.00467371940612793,0.13069510459899902,3.824714570843666,-12.0051929793585,-0.5611685715189214,0.6953302271019941,1.0,-0.02886950639514589,0.0035555853795537907,4.388685310837367,3.2686977478841412,-11.625314468609513,-12.423729588725084,0.15454891988046082,-2.6531976870066836
16.44636344909668,-0.02068108506500721,2.611128091812134,-10.909964561462402,-0.010074902319322593,0.0030434131622314453,0.13069510459899902,3.8814545362812254,-12.389758487794921,-0.2911685715189212,0.6945342341443804,1.0,-0.02242169239654958,0.000655354065210707,3.8836321795113418,3.880533554669608,-12.407280154313423,-12.40929434534641,0.15454891988046082,-2.6531976870066836
16.455403566360474,-0.02267366647720337,2.5697453022003174,-10.876946449279785,-0.010760475906672354,0.002556324005126953,0.13069510459899902,3.8789921299204475,-12.348963559274756,-0.33116857151892126,0.6941010568477729,1.0,-0.017941119534286856,0.002500983980618793,3.8884852504250125,3.872382726373517,-12.36564693765005,-12.374336802253874,0.15454891988046082,-2.6531976870066836
16.46171474456787,-0.02267366647720337,2.5697453022003174,-10.876946449279785,-0.010760475906672354,0.0035865306854248047,0.13069510459899902,3.874734984720893,-12.303010614353695,-0.3711685715189213,0.693323515877683,1.0,-0.0162086138960578,0.004679425049857675,3.8988466564388693,3.855355757938129,-12.314711878338363,-12.338581175039689,0.15454891988046082,-2.6531976870066836
16.47126793861389,-0.023645445704460144,2.5489461421966553,-10.860370635986328,-0.01108770930295365,0.0025153160095214844,0.13069510459899902,3.868480336674231,-12.25164632088485,-0.41116857151892133,0.6927624168135049,1.0,-0.014290875951707551,0.006385185584909906,3.917667789415667,3.8260700512686894,-12.251747794297186,-12.30429742249732,0.15454891988046082,-2.6531976870066836
16.48238730430603,-0.026471318677067757,2.4860730171203613,-10.810375213623047,-0.012015574248000205,0.003017902374267578,0.13069510459899902,3.8600552257824954,-12.194569833543632,-0.45116857151892137,0.6926804510514811,1.0,-0.009730593860405827,0.008284415336998821,3.951548428958718,3.7775487481028067,-12.171347701747875,-12.276337659787497,0.15454891988046082,-2.6531976870066836
16.49268865585327,-0.02738293632864952,2.4649457931518555,-10.793627738952637,-0.012309562611522537,0.0028874874114990234,0.13069510459899902,3.849321773438596,-12.131435839086754,-0.4911685715189214,0.6922863320871909,1.0,-0.006721661846508001,0.010286905688569185,4.014993886702835,3.694974415856254,-12.062520094747214,-12.265046403926931,0.15454891988046082,-2.6531976870066836
16.50376009941101,-0.028279202058911324,2.443732261657715,-10.776823043823242,-0.012599842475585751,0.004355907440185547,0.13069510459899902,3.8361821444768824,-12.06185813951848,-0.5311685715189214,0.6919866481964424,1.0,-0.004346229728296138,0.01189270554413815,4.1392932649925145,3.546821041256102,-11.901583377198005,-12.293372779827662,0.15454891988046082,-2.6531976870066836
16.6593017578125,-0.028279202058911324,2.443732261657715,-10.776823043823242,-0.012599842475585751,0.002589702606201172,0.14373540878295898,3.8205831451327947,-11.98541373236535,-0.5711685715189214,0.698954088151382,1.0,-0.0036431194512135715,0.013160507543844168,4.388685310837367,3.2686977478841412,-11.625314468609513,-12.423729588725084,0.15454891988046082,-2.6531976870066836
16.669988870620728,-0.043511707335710526,2.033615827560425,-10.444769859313965,-0.018012890062975594,0.0026443004608154297,0.14373540878295898,3.880995137113656,-12.38003132517392,-0.30116857151892124,0.7131611321361714,1.0,0.0116395090480402,0.011049050706046745,3.8836321795113418,3.880533554669608,-12.407280154313423,-12.40929434534641,0.18438788382043914,-1.5080939632410404
16.6760573387146,-0.043511707335710526,2.033615827560425,-10.444769859313965,-0.018012890062975594,0.002393960952758789,0.14373540878295898,3.8781044789549717,-12.337967945561784,-0.34116857151892127,0.7123096773156115,1.0,0.01631524948446504,0.014930097315593183,3.8884852504250125,3.872382726373517,-12.36564693765005,-12.374336802253874,0.18438788382043914,-1.5080939632410404
16.688299655914307,-0.04405822232365608,1.9638735055923462,-10.390999794006348,-0.018657257406023843,0.004367351531982422,0.14373540878295898,3.8733658957954766,-12.290687816142025,-0.3811685715189213,0.7147766264229625,1.0,0.021181411409408695,0.016789179890838408,3.8988466564388693,3.855355757938129,-12.314711878338363,-12.338581175039689,0.18438788382043914,-1.5080939632410404
16.700217962265015,-0.04405822232365608,1.9638735055923462,-10.390999794006348,-0.018657257406023843,0.004578828811645508,0.14373540878295898,3.866583564617434,-12.23792547179725,-0.42116857151892134,0.7138839065912306,1.0,0.022775091603123656,0.01921289369269787,3.917667789415667,3.8260700512686894,-12.251747794297186,-12.30429742249732,0.18438788382043914,-1.5080939632410404
16.71429705619812,-0.0447063073515892,1.871085286140442,-10.31855297088623,-0.019386467696077915,0.004379749298095703,0.14373540878295898,3.85759281244853,-12.17936864306416,-0.4611685715189214,0.7175469692244205,1.0,0.027731916326791402,0.018804493306778972,3.951548428958718,3.7775487481028067,-12.171347701747875,-12.276337659787497,0.18438788382043914,-1.5080939632410404
16.729246139526367,-0.0447063073515892,1.871085286140442,-10.31855297088623,-0.019386467696077915,0.004091501235961914,0.14373540878295898,3.8462653197817316,-12.114661439439711,-0.5011685715189214,0.7166005056048306,1.0,0.029248259844730014,0.02059691941167994,4.014993886702835,3.694974415856254,-12.062520094747214,-12.265046403926931,0.4561243654984579,-0.6540769036082743
16.742409229278564,-0.04512377828359604,1.8017886877059937,-10.263774871826172,-0.01984536598574669,0.004058361053466797,0.14373540878295898,3.832513995956068,-12.04340806082269,-0.5411685715189214,0.7189636585660852,1.0,0.032166304507422395,0.020793654972116653,4.1392932649925145,3.546821041256102,-11.901583377198005,-12.293372779827662,0.4561243654984579,-0.6540769036082743
16.901147603988647,-0.05477011576294899,1.3718620538711548,-9.915288925170898,-0.02188227037253214,0.0030138492584228516,0.14399957656860352,3.8162974791395188,-11.965176995196405,-0.5811685715189214,0.7187521171756003,0.7255593903252442,0.026671959066450715,0.029345080352437467,4.388685310837367,3.2686977478841412,-11.625314468609513,-12.423729588725084,0.4561243654984579,-0.6540769036082743
16.911454677581787,-0.05516629293560982,1.3496127128601074,-9.89629077911377,-0.021941936017204317,0.002766132354736328,0.14399957656860352,3.8804339883992647,-12.36999186995196,-0.31116857151892124,0.718969453806391,0.6725242264540566,0.02596139539786457,0.027785763505839924,3.8836321795113418,3.880533554669608,-12.407280154313423,-12.40929434534641,0.5081861863785426,-0.9954455706701104
16.92274761199951,-0.05591849982738495,1.3055607080459595,-9.858216285705566,-0.022036732462071287,0.0024919509887695312,0.14399957656860352,3.8771012071884994,-12.326646526689025,-0.3511685715189213,0.720719067431148,0.5733164112157729,0.024583713940123816,0.027988747516541717,3.8884852504250125,3.872382726373517,-12.36564693765005,-12.374336802253874,0.5045613879568833,-0.9876573559044821
16.93242907524109,-0.05661771818995476,1.2621307373046875,-9.820032119750977,-0.022101848858992953,0.00293731689453125,0.14399957656860352,3.871868920342178,-12.278022608397254,-0.3911685715189213,0.7225333680319809,0.4655687515009226,0.023268176403965196,0.02826852449775051,3.8988466564388693,3.855355757938129,-12.314711878338363,-12.338581175039689,0.5045613879568833,-0.9876573559044821
16.941895484924316,-0.05694739520549774,1.2406598329544067,-9.800924301147461,-0.022118828707193908,0.0024728775024414062,0.14399957656860352,3.8645485885307624,-12.223842680767687,-0.43116857151892135,0.7227804210654789,0.4076905013753812,0.022437249251346693,0.028288976096598518,3.917667789415667,3.8260700512686894,-12.251747794297186,-12.30429742249732,0.5045613879568833,-0.9876573559044821
16.954050064086914,-0.05726378411054611,1.2193573713302612,-9.781787872314453,-0.02212819790912883,0.0042667388916015625,0.14399957656860352,3.854984151279545,-12.163783249337072,-0.4711685715189214,0.7230197949290739,0.35133200021927635,0.021726551974434946,0.02833726706404467,3.951548428958718,3.7775487481028067,-12.171347701747875,-12.276337659787497,0.5045613879568833,-0.9876573559044821
16.965293169021606,-0.05726378411054611,1.2193573713302612,-9.781787872314453,-0.02212819790912883,0.004431962966918945,0.14399957656860352,3.8430571531243083,-12.097478078512832,-0.5111685715189214,0.7216714470223988,0.3532780573613864,0.021498675264469084,0.028165407980726143,4.014993886702835,3.694974415856254,-12.062520094747214,-12.265046403926931,0.5045613879568833,-0.9876573559044821
16.97914481163025,-0.05811288580298424,1.1564997434616089,-9.72420597076416,-0.02209930681650149,0.004130840301513672,0.14399957656860352,3.828691529360754,-12.024522028667297,-0.5511685715189214,0.7250629274648349,0.19044019627960163,0.02030802013441425,0.028685322149979132,4.1392932649925145,3.546821041256102,-11.901583377198005,-12.293372779827662,0.5045613879568833,-0.9876573559044821
17.1330246925354,-0.05811288580298424,1.1564997434616089,-9.72420597076416,-0.02209930681650149,0.0028557777404785156,0.14367246627807617,3.811858005452114,-11.94447536836598,-0.5911685715189214,0.7073630799521641,1.0,0.019926879207120454,0.02871192979130163,4.388685310837367,3.2686977478841412,-11.625314468609513,-12.423729588725084,0.5045613879568833,-0.9876573559044821
17.144720554351807,-0.05635302513837814,0.7648994326591492,-9.313312530517578,-0.020118766665799148,0.0048732757568359375,0.14367246627807617,3.879767491094974,-12.359637041416052,-0.32116857151892125,0.7386209388723105,0.1072159831272046,0.023980171922677908,0.010404418428935507,3.8836321795113418,3.880533554669608,-12.407280154313423,-12.40929434534641,0.7140665816711813,-1.6976187655103812
17.154773235321045,-0.05635302513837814,0.7648994326591492,-9.313312530517578,-0.020118766665799148,0.003495454788208008,0.14367246627807617,3.8759790840230686,-12.314995435647377,-0.3611685715189213,0.7373650002582013,0.17272872660870275,0.019626788008113228,0.024960112634401916,3.8884852504250125,3.872382726373517,-12.36564693765005,-12.374336802253874,0.7140665816711813,-1.6976187655103812
17.163777112960815,-0.05664914846420288,0.7336069941520691,-9.272041320800781,-0.019745449629999856,0.002653360366821289,0.14367246627807617,3.8702412833047215,-12.265010375329169,-0.4011685715189213,0.739224079490079,0.13584638334246923,0.020323492227503955,0.02556660195798101,3.8988466564388693,3.855355757938129,-12.314711878338363,-12.338581175039689,0.7140665816711813,-1.6976187655103812
17.172173738479614,-0.05688359588384628,0.7031448483467102,-9.230696678161621,-0.019368317957738773,0.002564668655395508,0.14367246627807617,3.8623731720171612,-12.209392629779952,-0.44116857151892136,0.7410734761688839,0.09668784356829052,0.02045866071348691,0.0262846979339706,3.917667789415667,3.8260700512686894,-12.251747794297186,-12.30429742249732,0.7140665816711813,-1.6976187655103812
17.182426691055298,-0.056975461542606354,0.6882167458534241,-9.209999084472656,-0.019185503793815117,0.003105640411376953,0.14367246627807617,3.8522276228197296,-12.14780768716386,-0.4811685715189214,0.7413164209582797,0.11159212412798236,0.0205805701029272,0.02665704884151651,3.951548428958718,3.7775487481028067,-12.171347701747875,-12.276337659787497,0.7140665816711813,-1.6976187655103812
17.192055702209473,-0.05705058202147484,0.6734945774078369,-9.189291954040527,-0.0189984314659348,0.0025544166564941406,0.14367246627807617,3.8396963436248543,-12.079879206827375,-0.5211685715189214,0.7415224397912809,0.12775727851859864,0.020692726170980013,0.0266553008794994,4.014993886702835,3.694974415856254,-12.062520094747214,-12.265046403926931,0.7140665816711813,-1.6976187655103812
17.204262256622314,-0.057109054177999496,0.6589807868003845,-9.168612480163574,-0.01881166904554138,0.004299640655517578,0.14367246627807617,3.824714570843666,-12.0051929793585,-0.5611685715189214,0.7417075655542743,0.14622570024588466,0.020736843813411534,0.026549514457792585,4.1392932649925145,3.546821041256102,-11.901583377198005,-12.293372779827662,0.7140665816711813,-1.6976187655103812
17.212331533432007,-0.057109054177999496,0.6589807868003845,-9.168612480163574,-0.01881166904554138,0.003587484359741211,0.14367246627807617,3.807265365712904,-11.923301350446883,-0.6011685715189214,0.7404903166284015,0.23199260845177916,0.02073355478846909,0.026448350367572388,4.388685310837367,3.2686977478841412,-11.625314468609513,-12.423729588725084,0.7140665816711813,-1.6976187655103812
17.22437357902527,-0.057186976075172424,0.6167045831680298,-9.106536865234375,-0.018215878794595602,0.0034694671630859375,0.14367246627807617,3.8789921299204475,-12.348963559274756,-0.33116857151892126,0.7433966936773306,0.128017081003991,0.020730407391567177,0.02555843974552321,3.8836321795113418,3.880533554669608,-12.407280154313423,-12.40929434534641,0.3694845468520205,-0.7110613006029101
17.387794733047485,-0.057186976075172424,0.6167045831680298,-9.106536865234375,-0.018215878794595602,0.002890348434448242,0.1511368751525879,3.874734984720893,-12.303010614353695,-0.3711685715189213,0.7275354613956512,1.0,0.0205162687992684,0.026066938139558418,3.8884852504250125,3.872382726373517,-12.36564693765005,-12.374336802253874,0.3694845468520205,-0.7110613006029101
17.399229049682617,-0.05890761315822601,0.39262235164642334,-8.664558410644531,-0.013579145279842358,0.0030999183654785156,0.1511368751525879,3.868480336674231,-12.25164632088485,-0.41116857151892133,0.7535590411890666,-0.4558155884453625,0.02046815344812354,0.00815270430273311,3.8988466564388693,3.855355757938129,-12.314711878338363,-12.338581175039689,0.6073562064026135,-1.4595447368054395
17.407193660736084,-0.05890761315822601,0.39262235164642334,-8.664558410644531,-0.013579145279842358,0.0033719539642333984,0.1511368751525879,3.8600552257824954,-12.194569833543632,-0.45116857151892137,0.7525324088005836,-0.3438714716699762,0.014825393993153635,0.01995291584253012,3.917667789415667,3.8260700512686894,-12.251747794297186,-12.30429742249732,0.6073562064026135,-1.4595447368054395
17.416767597198486,-0.05654497444629669,0.3729877769947052,-8.60278606414795,-0.01275910003775177,0.002717733383178711,0.1511368751525879,3.849321773438596,-12.131435839086754,-0.4911685715189214,0.7547980231210275,-0.5051112403346794,0.016508106081366998,0.021042774968028984,3.951548428958718,3.7775487481028067,-12.171347701747875,-12.276337659787497,0.6073562064026135,-1.4595447368054395
17.425190448760986,-0.05654497444629669,0.3729877769947052,-8.60278606414795,-0.01275910003775177,0.0023546218872070312,0.1511368751525879,3.8361821444768824,-12.06185813951848,-0.5311685715189214,0.753796746637856,-0.3860538184124609,0.017275399745462616,0.022638355957422585,4.014993886702835,3.694974415856254,-12.062520094747214,-12.265046403926931,0.04314575541578414,-0.27576709623833273
17.434158086776733,-0.05497431010007858,0.36078324913978577,-8.561537742614746,-0.01218505323959096,0.00286102294921875,0.1511368751525879,3.8205831451327947,-11.98541373236535,-0.5711685715189214,0.7548950802791095,-0.45987424378841646,0.018715258098201022,0.023044542488743887,4.1392932649925145,3.546821041256102,-11.901583377198005,-12.293372779827662,0.04314575541578414,-0.27576709623833273
17.442389488220215,-0.054189760237932205,0.3549549877643585,-8.540904998779297,-0.011902089255409032,0.0024433135986328125,0.1511368751525879,3.8025204138773905,-11.90164734320648,-0.6101319075998773,0.7548489686720212,-0.4361019804159705,0.01974394079289037,0.0239360228477313,4.388685310837367,3.2686977478841412,-11.625314468609513,-12.423729588725084,0.04314575541578414,-0.27576709623833273
17.45299983024597,-0.05262362211942673,0.34385889768600464,-8.499716758728027,-0.011353121287286022,0.002775907516479492,0.1511368751525879,3.8781044789549717,-12.337967945561784,-0.34116857151892127,0.7556550878937133,-0.5040736973307121,0.02127257828179946,0.024377414327779998,3.8836321795113418,3.880533554669608,-12.407280154313423,-12.40929434534641,0.04314575541578414,-0.27576709623833273
17.46207356452942,-0.051840588450431824,0.33859872817993164,-8.479129791259766,-0.011086137325517303,0.0029447078704833984,0.1511368751525879,3.8733658957954766,-12.290687816142025,-0.3811685715189213,0.7555822416556777,-0.4627258272180439,0.02236840187670104,0.025298418889358378,3.8884852504250125,3.872382726373517,-12.36564693765005,-12.374336802253874,0.04314575541578414,-0.27576709623833273
17.622550010681152,-0.051840588450431824,0.33859872817993164,-8.479129791259766,-0.011086137325517303,0.003492116928100586,0.1515026092529297,3.866583564617434,-12.23792547179725,-0.42116857151892134,0.7418432930580716,1.0,0.02287974022511315,0.026192966360848988,3.8988466564388693,3.855355757938129,-12.314711878338363,-12.338581175039689,0.04314575541578414,-0.27576709623833273
17.63451051712036,-0.03669305890798569,0.284469336271286,-8.056556701660156,-0.005145249317965367,0.0027379989624023438,0.1515026092529297,3.85759281244853,-12.17936864306416,-0.4611685715189214,0.7577678113959555,-0.2555444453574687,0.03317505730502661,-0.005720233644311307,3.917667789415667,3.8260700512686894,-12.251747794297186,-12.30429742249732,0.4987376683505076,-1.529200877789537
17.642877340316772,-0.03598298877477646,0.28388556838035583,-8.036629676818848,-0.004860680946618096,0.0025942325592041016,0.1515026092529297,3.8462653197817316,-12.114661439439711,-0.5011685715189214,0.7576413653701398,-0.163279378184769,0.023737380100032603,0.017344011134035473,3.951548428958718,3.7775487481028067,-12.171347701747875,-12.276337659787497,0.4987376683505076,-1.529200877789537
17.652239084243774,-0.03598298877477646,0.28388556838035583,-8.036629676818848,-0.004860680946618096,0.002777099609375,0.1515026092529297,3.832513995956068,-12.04340806082269,-0.5411685715189214,0.756864848284804,-0.018358682182955333,0.026339592195113795,0.019640123714599785,4.014993886702835,3.694974415856254,-12.062520094747214,-12.265046403926931,0.4987376683505076,-1.529200877789537
17.6618812084198,-0.03497129678726196,0.28779682517051697,-7.977159023284912,-0.0039820688865759984,0.003981590270996094,0.1515026092529297,3.8162974791395188,-11.965176995196405,-0.5811685715189214,0.7578247775255188,-0.0557611543794998,0.02693582329374735,0.02188495038631255,4.1392932649925145,3.546821041256102,-11.901583377198005,-12.293372779827662,0.4987376683505076,-1.529200877789537
17.672621726989746,-0.03497129678726196,0.28779682517051697,-7.977159023284912,-0.0039820688865759984,0.0034990310668945312,0.1515026092529297,3.7976012685014298,-11.879510744427746,-0.617160500451175,0.757075721726425,0.09543574831164237,0.027605966465265138,0.022993259895799013,4.388685310837367,3.2686977478841412,-11.625314468609513,-12.423729588725084,0.4987376683505076,-1.529200877789537
17.68283748626709,-0.03423861041665077,0.29090672731399536,-7.937579154968262,-0.0033719605639257327,0.002499103546142578,0.1515026092529297,3.8771012071884994,-12.326646526689025,-0.3511685715189213,0.7573174876525982,0.09129640814285689,0.02776589064787821,0.02324534828546839,3.8836321795113418,3.880533554669608,-12.407280154313423,-12.40929434534641,0.4987376683505076,-1.529200877789537
17.692083835601807,-0.03423861041665077,0.29090672731399536,-7.937579154968262,-0.0033719605639257327,0.0022687911987304688,0.1515026092529297,3.871868920342178,-12.278022608397254,-0.3911685715189213,0.7565873885502638,0.24917807207407616,0.027864698841330502,0.023442673198239648,3.8884852504250125,3.872382726373517,-12.36564693765005,-12.374336802253874,0.4987376683505076,-1.529200877789537
17.70261526107788,-0.03307570889592171,0.2963622808456421,-7.878422260284424,-0.002463731041155423,0.0026738643646240234,0.1515026092529297,3.8645485885307624,-12.223842680767687,-0.43116857151892135,0.7572413972661742,0.15165995720156822,0.027523935746037505,0.022629875427508758,3.8988466564388693,3.855355757938129,-12.314711878338363,-12.338581175039689,0.4987376683505076,-1.529200877789537
17.84787344932556,-0.03307570889592171,0.2963622808456421,-7.878422260284424,-0.002463731041155423,0.0030417442321777344,0.1336205005645752,3.854984151279545,-12.163783249337072,-0.4711685715189214,0.7445954310507956,0.2137796325751622,0.027235249277890467,0.0228195937297846,3.917667789415667,3.8260700512686894,-12.251747794297186,-12.30429742249732,0.4987376683505076,-1.529200877789537
17.858781814575195,-0.02764159068465233,0.3576832115650177,-7.5475664138793945,0.002276026422893762,0.0023882389068603516,0.1336205005645752,3.8430571531243083,-12.097478078512832,-0.5111685715189214,0.7522959060087732,-1.0,0.022285525561430257,0.02488542524446723,3.951548428958718,3.7775487481028067,-12.171347701747875,-12.276337659787497,0.22078750354184518,-1.687237639398334
17.864720106124878,-0.02764159068465233,0.3576832115650177,-7.5475664138793945,0.002276026422893762,0.002475261688232422,0.1336205005645752,3.828691529360754,-12.024522028667297,-0.5511685715189214,0.7515535649940953,-1.0,0.021605692504734014,0.02100438044171416,4.014993886702835,3.694974415856254,-12.062520094747214,-12.265046403926931,0.22078750354184518,-1.687237639398334
17.872734308242798,-0.02672000415623188,0.37310248613357544,-7.489796161651611,0.0030277320502458682,0.0025131702423095703,0.1336205005645752,3.811858005452114,-11.94447536836598,-0.5911685715189214,0.7520849226475826,-1.0,0.019698207455478307,0.018586452876257837,4.1392932649925145,3.546821041256102,-11.901583377198005,-12.293372779827662,0.22078750354184518,-1.687237639398334
17.882121801376343,-0.026394318789243698,0.378466933965683,-7.470557689666748,0.00327723270839253,0.002811431884765625,0.1336205005645752,3.792465169236364,-11.856894405387994,-0.6223577612237766,0.7517655182200621,-1.0,0.018388136860904507,0.016558618714249455,4.388685310837367,3.2686977478841412,-11.625314468609513,-12.423729588725084,0.22078750354184518,-1.687237639398334
17.892430543899536,-0.02606108784675598,0.38394203782081604,-7.451327323913574,0.003520861722103946,0.002486705780029297,0.1336205005645752,3.8759790840230686,-12.314995435647377,-0.3611685715189213,0.7514652621736228,-1.0,0.017276434085010048,0.014925933425518251,3.8836321795113418,3.880533554669608,-12.407280154313423,-12.40929434534641,0.22078750354184518,-1.687237639398334
17.90256142616272,-0.025656869634985924,0.39606672525405884,-7.4126691818237305,0.004004983946260254,0.002820730209350586,0.1336205005645752,3.8702412833047215,-12.265010375329169,-0.4011685715189213,0.7515490855457181,-1.0,0.015807458468548172,0.013527987483227222,3.8884852504250125,3.872382726373517,-12.36564693765005,-12.374336802253874,0.22078750354184518,-1.687237639398334
17.912368774414062,-0.02558036521077156,0.4027059078216553,-7.3932576179504395,0.00425657462117085,0.0035750865936279297,0.1336205005645752,3.8623731720171612,-12.209392629779952,-0.44116857151892136,0.7511861124494924,-1.0,0.014644599243412227,0.012083973254638183,3.8988466564388693,3.855355757938129,-12.314711878338363,-12.338581175039689,0.22078750354184518,-1.687237639398334
17.92204761505127,-0.02558036521077156,0.4027059078216553,-7.3932576179504395,0.00425657462117085,0.002361297607421875,0.1336205005645752,3.8522276228197296,-12.14780768716386,-0.4811685715189214,0.7504799942031117,-1.0,0.013976587542922138,0.010791893540421666,3.917667789415667,3.8260700512686894,-12.251747794297186,-12.30429742249732,0.0865746634357496,-1.3300759065981367
17.93168544769287,-0.0253909844905138,0.4162939488887787,-7.35449743270874,0.004743842569068513,0.0025191307067871094,0.1336205005645752,3.8396963436248543,-12.079879206827375,-0.5211685715189214,0.7505685654493953,-1.0,0.012659076018519342,0.009463745720660669,3.951548428958718,3.7775487481028067,-12.171347701747875,-12.276337659787497,0.0865746634357496,-1.3300759065981367
17.942134618759155,-0.0251564159989357,0.43029075860977173,-7.3158087730407715,0.0052092250812824925,0.002273082733154297,0.1336205005645752,3.824714570843666,-12.0051929793585,-0.5611685715189214,0.7507774478450189,-1.0,0.011316040735915718,0.007757507432866189,4.014993886702835,3.694974415856254,-12.062520094747214,-12.265046403926931,0.0865746634357496,-1.3300759065981367
18.085453033447266,-0.0251564159989357,0.43029075860977173,-7.3158087730407715,0.0052092250812824925,0.0028562545776367188,0.13584518432617188,3.807265365712904,-11.923301350446883,-0.6011685715189214,0.7472302575410158,-1.0,0.01057932491783272,0.0062271214772716636,4.1392932649925145,3.546821041256102,-11.901583377198005,-12.293372779827662,0.0865746634357496,-1.3300759065981367
18.09566879272461,-0.024668535217642784,0.572960376739502,-6.971409320831299,0.009101025045672645,0.0031342506408691406,0.13584518432617188,3.7870704706979534,-11.83380254951382,-0.6258234796600248,0.7554923888689635,-1.0,0.0029032410647611617,-0.002860146643252874,4.388685310837367,3.2686977478841412,-11.625314468609513,-12.423729588725084,0.09441502264745427,-1.3146179351379255
18.10353112220764,-0.024668535217642784,0.572960376739502,-6.971409320831299,0.009101025045672645,0.003484487533569336,0.13584518432617188,3.874734984720893,-12.303010614353695,-0.3711685715189213,0.754808577592813,-1.0,0.0004792456687929932,-0.00783328811448818,3.8836321795113418,3.880533554669608,-12.407280154313423,-12.40929434534641,0.09441502264745427,-1.3146179351379255
18.11213970184326,-0.0249978918582201,0.5986542105674744,-6.914764404296875,0.009802567805871298,0.0037567615509033203,0.13584518432617188,3.868480336674231,-12.25164632088485,-0.41116857151892133,0.7558573661332949,-1.0,-0.0021437347820673783,-0.011808375749693036,3.8884852504250125,3.872382726373517,-12.36564693765005,-12.374336802253874,0.09441502264745427,-1.3146179351379255
18.123164176940918,-0.0249978918582201,0.5986542105674744,-6.914764404296875,0.009802567805871298,0.002414226531982422,0.13584518432617188,3.8600552257824954,-12.194569833543632,-0.45116857151892137,0.7551665854119411,-1.0,-0.0030436190372006133,-0.013731407870743144,3.8988466564388693,3.855355757938129,-12.314711878338363,-12.338581175039689,-0.15902712132882968,-0.5712570948545886
18.133053064346313,-0.025172168388962746,0.6158297657966614,-6.877151012420654,0.01025008485774771,0.0027856826782226562,0.13584518432617188,3.849321773438596,-12.131435839086754,-0.4911685715189214,0.7556754300511889,-1.0,-0.004146469741647331,-0.015104941994903994,3.917667789415667,3.8260700512686894,-12.251747794297186,-12.30429742249732,-0.15902712132882968,-0.5712570948545886
18.14203977584839,-0.02531299740076065,0.6329973936080933,-6.839653015136719,0.010675132880653096,0.0023794174194335938,0.13584518432617188,3.8361821444768824,-12.06185813951848,-0.5311685715189214,0.7561535642997957,-1.0,-0.004950403965426062,-0.015826348654911643,3.951548428958718,3.7775487481028067,-12.171347701747875,-12.276337659787497,-0.15902712132882968,-0.5712570948545886
18.153851985931396,-0.025205019861459732,0.6431315541267395,-6.821339130401611,0.010879659104300918,0.0028390884399414062,0.13584518432617188,3.8205831451327947,-11.98541373236535,-0.5711685715189214,0.7560084064886677,-1.0,-0.0049818284943097,-0.015849483438240053,4.014993886702835,3.694974415856254,-12.062520094747214,-12.265046403926931,-0.15902712132882968,-0.5712570948545886
18.16211223602295,-0.02509111352264881,0.6532296538352966,-6.803048133850098,0.010994991523384633,0.003378152847290039,0.13584518432617188,3.8025204138773905,-11.90164734320648,-0.6101319075998773,0.7558643250124032,-1.0,-0.004664999665478223,-0.015538639997490993,4.1392932649925145,3.546821041256102,-11.901583377198005,-12.293372779827662,-0.15902712132882968,-0.5712570948545886
18.31109094619751,-0.02509111352264881,0.6532296538352966,-6.803048133850098,0.010994991523384633,0.002334117889404297,0.1400446891784668,3.781376639889452,-11.810240908144236,-0.6276538348029559,0.7475655277447572,-1.0,-0.004585357827158102,-0.015487721760632761,4.388685310837367,3.2686977478841412,-11.625314468609513,-12.423729588725084,-0.15902712132882968,-0.5712570948545886
18.322619915008545,-0.022875141352415085,0.8443445563316345,-6.447239398956299,0.011842000403426423,0.0026438236236572266,0.1400446891784668,3.8733658957954766,-12.290687816142025,-0.3811685715189213,0.7577219655680503,-0.09035947940762123,0.0071958497896489485,0.0005995824736651409,3.8836321795113418,3.880533554669608,-12.407280154313423,-12.40929434534641,-0.14585675254322084,-1.1822214968040332
18.3319149017334,-0.022859234362840652,0.8533205389976501,-6.430154323577881,0.011815895396239812,0.002315044403076172,0.1400446891784668,3.866583564617434,-12.23792547179725,-0.42116857151892134,0.757581253830317,-0.05698361511752781,0.005668545918805975,-0.007131406736445741,3.8884852504250125,3.872382726373517,-12.36564693765005,-12.374336802253874,-0.14585675254322084,-1.1822214968040332
18.342157125473022,-0.022783204913139343,0.8707904815673828,-6.396004676818848,0.011748775469636166,0.002409219741821289,0.1400446891784668,3.85759281244853,-12.17936864306416,-0.4611685715189214,0.7581053686645626,0.060008552915753466,0.006252005888941803,-0.010511113482864175,3.8988466564388693,3.855355757938129,-12.314711878338363,-12.338581175039689,-0.14585675254322084,-1.1822214968040332
18.352293729782104,-0.022723792120814323,0.8792767524719238,-6.378956317901611,0.011709759452381022,0.0027136802673339844,0.1400446891784668,3.8462653197817316,-12.114661439439711,-0.5011685715189214,0.7580201564837864,0.0962364102797022,0.0066863175208521,-0.012089054893192813,3.917667789415667,3.8260700512686894,-12.251747794297186,-12.30429742249732,-0.14585675254322084,-1.1822214968040332
18.36191415786743,-0.02265043370425701,0.8875913023948669,-6.361910343170166,0.011670511220726196,0.0026149749755859375,0.1400446891784668,3.832513995956068,-12.04340806082269,-0.5411685715189214,0.757896031536081,0.13190879450042137,0.007157687139088928,-0.012849200677308322,3.951548428958718,3.7775487481028067,-12.171347701747875,-12.276337659787497,-0.14585675254322084,-1.1822214968040332
18.372870922088623,-0.022566501051187515,0.8957267999649048,-6.344874382019043,0.011629678787325876,0.002592325210571289,0.1400446891784668,3.8162974791395188,-11.965176995196405,-0.5811685715189214,0.7577131379509701,0.164092245977826,0.007619294456998748,-0.013212812190246922,4.014993886702835,3.694974415856254,-12.062520094747214,-12.265046403926931,-0.14585675254322084,-1.1822214968040332
18.3823025226593,-0.022359075024724007,0.9114442467689514,-6.310848712921143,0.011525307350526023,0.00290679931640625,0.1400446891784668,3.7976012685014298,-11.879510744427746,-0.617160500451175,0.7580708530796367,0.26957269088965075,0.008134312703270911,-0.013417083506949578,4.1392932649925145,3.546821041256102,-11.901583377198005,-12.293372779827662,-0.14585675254322084,-1.1822214968040332
18.392362356185913,-0.022236056625843048,0.9190195202827454,-6.293858051300049,0.011462706659242816,0.0027132034301757812,0.1400446891784668,3.7753442723541943,-11.786216821992223,-0.6279414271649217,0.7578741865337467,0.28216645683924835,0.008251764143244616,-0.013395398182609009,4.388685310837367,3.2686977478841412,-11.625314468609513,-12.423729588725084,-0.14585675254322084,-1.1822214968040332
18.545652866363525,-0.022236056625843048,0.9190195202827454,-6.293858051300049,0.011462706659242816,0.0025866031646728516,0.1430528163909912,3.871868920342178,-12.278022608397254,-0.3911685715189213,0.7560792435609707,-1.0,0.008289539192863871,-0.013351493171278329,3.8836321795113418,3.880533554669608,-12.407280154313423,-12.40929434534641,-0.14585675254322084,-1.1822214968040332
18.556825399398804,-0.006907377392053604,1.0326590538024902,-5.962663173675537,0.008240659430361091,0.0024917125701904297,0.1430528163909912,3.8645485885307624,-12.223842680767687,-0.43116857151892135,0.7660037104929588,-0.2994500065530745,0.014818651903351972,-0.001534395780842761,3.8884852504250125,3.872382726373517,-12.36564693765005,-12.374336802253874,-0.3137848575499458,-1.0097607436413165
18.562811613082886,-0.006907377392053604,1.0326590538024902,-5.962663173675537,0.008240659430361091,0.002894163131713867,0.1430528163909912,3.854984151279545,-12.163783249337072,-0.4711685715189214,0.7653973212783834,-0.4107621767073837,0.01195217588490846,-0.010231886390585958,3.8988466564388693,3.855355757938129,-12.314711878338363,-12.338581175039689,-0.3137848575499458,-1.0097607436413165
18.572429180145264,-0.0062071229331195354,1.0357203483581543,-5.9461259841918945,0.008038674514648486,0.0030417442321777344,0.1430528163909912,3.8430571531243083,-12.097478078512832,-0.5111685715189214,0.7652688835476278,-0.4949700693732195,0.012697521776559124,-0.010911208347030561,3.917667789415667,3.8260700512686894,-12.251747794297186,-12.30429742249732,-0.3137848575499458,-1.0097607436413165
18.582056999206543,-0.005504528526216745,1.038630485534668,-5.9296040534973145,0.007838699074009914,0.004048824310302734,0.1430528163909912,3.828691529360754,-12.024522028667297,-0.5511685715189214,0.7651429817539858,-0.5827092167384185,0.012672551753339556,-0.01159179285807339,3.951548428958718,3.7775487481028067,-12.171347701747875,-12.276337659787497,-0.3137848575499458,-1.0097607436413165
18.592936038970947,-0.0033984538167715073,1.0464861392974854,-5.880160808563232,0.007244412901196665,0.0026400089263916016,0.1430528163909912,3.811858005452114,-11.94447536836598,-0.5911685715189214,0.7657433738828306,-0.6029771690471275,0.012455525712620024,-0.011421795512595704,4.014993886702835,3.694974415856254,-12.062520094747214,-12.265046403926931,-0.3137848575499458,-1.0097607436413165
18.60305166244507,-0.0026939366944134235,1.0488122701644897,-5.863737106323242,0.0070502026138331425,0.002923727035522461,0.1430528163909912,3.792465169236364,-11.856894405387994,-0.6223577612237766,0.7655164241033525,-0.6826084770522614,0.01227574263200553,-0.011139385615145644,4.1392932649925145,3.546821041256102,-11.901583377198005,-12.293372779827662,-0.3137848575499458,-1.0097607436413165
18.61231756210327,-0.001988857751712203,1.0509939193725586,-5.847366809844971,0.006858331246806279,0.0032405853271484375,0.1430528163909912,3.7689351250406538,-11.761739312329496,-0.6267753293172696,0.7652893538699024,-0.7596685817864182,0.012052234382414321,-0.010761537780748745,4.388685310837367,3.2686977478841412,-11.625314468609513,-12.423729588725084,-0.3137848575499458,-1.0097607436413165
18.622455835342407,-0.001988857751712203,1.0509939193725586,-5.847366809844971,0.006858331246806279,0.0025959014892578125,0.1430528163909912,3.4917986291476732,-11.628854214030248,-0.4154933690176375,0.7647222593447833,-0.8887382937395112,0.012053372763368144,-0.010212681617453184,3.5006974089779654,3.497499939602583,-11.653092871891635,-11.655585297778856,-0.10203835292818475,-0.7647284493813777
18.6326105594635,0.00012742150283884257,1.0566717386245728,-5.798440933227539,0.006293649648943286,0.0028100013732910156,0.1430528163909912,3.461938540203857,-11.523759426603005,-0.45549336901763754,0.7651593099676915,-0.8427716733553349,0.011233374057796654,-0.010035902152831736,3.47843163544496,3.4605857980091272,-11.54431241172857,-11.556726097566461,-0.10203835292818475,-0.7647284493813777
18.79166889190674,0.00012742150283884257,1.0566717386245728,-5.798440933227539,0.006293649648943286,0.002866983413696289,0.15067577362060547,3.4308861516151246,-11.413298015663106,-0.4954933690176376,0.7581016004543154,-1.0,0.011358267741927094,-0.009061817447456835,3.4650027117005835,3.4125364866742767,-11.423726623680814,-11.459155048888617,-0.10203835292818475,-0.7647284493813777
18.803004264831543,0.000747449230402708,1.0435372591018677,-5.463771343231201,0.0035408543178777063,0.0026531219482421875,0.15067577362060547,3.3982426009998927,-11.29708683112591,-0.5232323971853448,0.7634571009315689,1.0,-0.007222426845333675,-0.02897818539040029,3.467150053406858,3.346162789959974,-11.286540816832959,-11.366812269391566,-0.15425169697675623,-1.1587473169971476
18.81210947036743,0.0005511376657523215,1.0408529043197632,-5.448051452636719,0.003450304086957401,0.0026128292083740234,0.15067577362060547,3.361444770565716,-11.17544245685934,-0.5234990634329899,0.7631431925188112,1.0,-0.0014331491511633966,-0.01675301953862792,3.497179093623439,3.245253008942643,-11.123149599017948,-11.289490201678642,-0.15425169697675623,-1.1587473169971476
18.823354244232178,0.00019561965018510818,1.0348687171936035,-5.4166579246521,0.0032603513609334722,0.002695322036743164,0.15067577362060547,3.317359942325691,-11.049269718801572,-0.5020353302432831,0.7629772906245246,1.0,-0.005695279840573821,-0.01052087351054589,3.581167446445456,3.0772548945563614,-10.912893408762104,-11.24945308190772,0.012280372056286737,-0.8552781203936913
18.83245015144348,3.550236579030752e-05,1.0315572023391724,-5.400989532470703,0.0031684715258175067,0.003676891326904297,0.15067577362060547,3.2635151490943297,-10.919866743579114,-0.4647488020867024,0.7625413550212964,1.0,-0.008052786577092555,-0.006487746397200371,3.775581136530594,2.780419299894663,-10.603889977281893,-11.30098019457676,0.012280372056286737,-0.8552781203936913
18.842480421066284,3.550236579030752e-05,1.0315572023391724,-5.400989532470703,0.0031684715258175067,0.0026998519897460938,0.15067577362060547,3.19865072303705,-10.788617607324175,-0.42474880208670235,0.7620807209667706,1.0,-0.009048813562728103,-0.00394843287754391,4.194985268579085,2.236808530567152,-10.05088610647753,-11.592206977616835,0.012280372056286737,-0.8552781203936913
18.852554082870483,-0.00025204557459801435,1.0242565870285034,-5.369745254516602,0.0029987579334067316,0.0030019283294677734,0.15067577362060547,3.484435770519428,-11.603060143264235,-0.4254933690176375,0.7616472248440701,1.0,-0.011356000382934307,-0.0019886409810682066,3.5006974089779654,3.497499939602583,-11.653092871891635,-11.655585297778856,0.012280372056286737,-0.8552781203936913
18.86219072341919,-0.00025204557459801435,1.0242565870285034,-5.369745254516602,0.0029987579334067316,0.0033807754516601562,0.15067577362060547,3.454293596783517,-11.496664387498488,-0.46549336901763755,0.7612079243671245,1.0,-0.011904547192104788,-0.00044853300751744433,3.47843163544496,3.4605857980091272,-11.54431241172857,-11.556726097566461,0.012280372056286737,-0.8552781203936913
19.014880180358887,-0.00025204557459801435,1.0242565870285034,-5.369745254516602,0.0029987579334067316,0.002593517303466797,0.14312434196472168,3.4229191587414722,-11.384791377109371,-0.505345657282437,0.7649762751924207,-0.10382794123909855,-0.01226590913396311,0.0004901131997237651,3.4650027117005835,3.4125364866742767,-11.423726623680814,-11.459155048888617,0.012280372056286737,-0.8552781203936913
19.024903059005737,-0.0010939347557723522,0.8956265449523926,-5.059540271759033,0.002524867025993388,0.0023272037506103516,0.14312434196472168,3.389565997373208,-11.267156046485676,-0.5256375615038503,0.7686671270709639,1.0,-0.014331568123541052,0.004219787546554462,3.467150053406858,3.346162789959974,-11.286540816832959,-11.366812269391566,-0.2919985938317682,-1.291758903377779
19.032240629196167,-0.0008490014588460326,0.8691490888595581,-5.013448715209961,0.0025457286875114615,0.0024042129516601562,0.14312434196472168,3.351214855817731,-11.144279974808825,-0.5199623573683506,0.7690593207709936,1.0,-0.013972303828163425,0.0009048095496144071,3.497179093623439,3.245253008942643,-11.123149599017948,-11.289490201678642,-0.2919985938317682,-1.291758903377779
19.042657613754272,-0.0008490014588460326,0.8691490888595581,-5.013448715209961,0.0025457286875114615,0.002438783645629883,0.14312434196472168,3.304895252412741,-11.017162510608998,-0.493877000390729,0.7687227098467467,1.0,-0.0134753779161766,-0.0007640898181473644,3.581167446445456,3.0772548945563614,-10.912893408762104,-11.24945308190772,-0.2919985938317682,-1.291758903377779
19.052614212036133,-0.00047204826842062175,0.8497065901756287,-4.982385158538818,0.0025395549203076906,0.0030012130737304688,0.14312434196472168,3.248333542149463,-10.887185895862611,-0.4547488020867024,0.7687254931981254,1.0,-0.012555915994771984,-0.002100336425047617,3.775581136530594,2.780419299894663,-10.603889977281893,-11.30098019457676,-0.2919985938317682,-1.291758903377779
19.062069416046143,-0.00047204826842062175,0.8497065901756287,-4.982385158538818,0.0025395549203076906,0.002778291702270508,0.14312434196472168,3.1807257204056603,-10.755635296511313,-0.41474880208670234,0.7683862347256819,1.0,-0.012439960168127389,-0.0025153908765467134,4.194985268579085,2.236808530567152,-10.05088610647753,-11.592206977616835,-0.2919985938317682,-1.291758903377779
19.072329998016357,-9.481025335844606e-05,0.8299153447151184,-4.9516215324401855,0.002536086686684133,0.002665996551513672,0.14312434196472168,3.4770068281885806,-11.576950629854812,-0.4354933690176375,0.7682853987523877,1.0,-0.011655759093953538,-0.003213833849811209,3.5006974089779654,3.497499939602583,-11.653092871891635,-11.655585297778856,-0.2919985938317682,-1.291758903377779
19.082194805145264,9.430406498722732e-05,0.8198961019515991,-4.936336994171143,0.002532991571017551,0.002480745315551758,0.14312434196472168,3.446571383211904,-11.469227216740332,-0.47549336901763756,0.7680671512203933,1.0,-0.011268639080734527,-0.003534297999971309,3.47843163544496,3.4605857980091272,-11.54431241172857,-11.556726097566461,-0.2919985938317682,-1.291758903377779
19.09216284751892,0.0002835808554664254,0.8098024129867554,-4.921117305755615,0.0025332290032992477,0.0023279190063476562,0.14312434196472168,3.4148626886397926,-11.35591459050539,-0.5131849082444513,0.7678625398682382,1.0,-0.010885976461521568,-0.003800099355242274,3.4650027117005835,3.4125364866742767,-11.423726623680814,-11.459155048888617,-0.2919985938317682,-1.291758903377779
19.104024648666382,0.0004730642831418663,0.7996392250061035,-4.905961036682129,0.002532395396508902,0.0043637752532958984,0.14312434196472168,3.3805738882991516,-11.236896001814108,-0.526423442283759,0.7676747478237077,1.0,-0.01051920618244445,-0.004025540651212297,3.467150053406858,3.346162789959974,-11.286540816832959,-11.366812269391566,-0.2919985938317682,-1.291758903377779
19.258752584457397,0.0004730642831418663,0.7996392250061035,-4.905961036682129,0.002532395396508902,0.0026192665100097656,0.14238214492797852,3.3404836708992174,-11.112850384359447,-0.5151535362237838,0.7567817499749904,1.0,-0.010507649692887235,-0.003976824890574683,3.497179093623439,3.245253008942643,-11.123149599017948,-11.289490201678642,-0.2919985938317682,-1.291758903377779
19.269172191619873,0.012940740212798119,0.5701301693916321,-4.621937274932861,0.0018489644063741963,0.0026023387908935547,0.14238214492797852,3.2917850912263766,-10.984875789965981,-0.4847488020867024,0.7594733653500706,0.8237415116417022,0.004299190663421697,-0.01589613117615735,3.581167446445456,3.0772548945563614,-10.912893408762104,-11.24945308190772,-0.008662628510051285,-1.427707016754026
19.275043487548828,0.012940740212798119,0.5701301693916321,-4.621937274932861,0.0018489644063741963,0.0023581981658935547,0.14238214492797852,3.232459366591227,-10.854407542279942,-0.44474880208670237,0.7589678284574395,0.8288897941877119,-0.0004824736357715005,-0.0014702978630068099,3.775581136530594,2.780419299894663,-10.603889977281893,-11.30098019457676,-0.008662628510051285,-1.427707016754026
19.28240466117859,0.015189544297754765,0.5350973010063171,-4.581725597381592,0.001666536930882593,0.0024962425231933594,0.14238214492797852,3.1621270731201037,-10.722614007619647,-0.40474880208670233,0.7593109101025808,0.7194827529914509,0.004256008056143143,-0.0045109721239020096,4.194985268579085,2.236808530567152,-10.05088610647753,-11.592206977616835,-0.008662628510051285,-1.427707016754026
19.29230499267578,0.016532428562641144,0.5227965116500854,-4.569202899932861,0.0016029858781030012,0.0024700164794921875,0.14238214492797852,3.4695087167270438,-11.550519254647517,-0.44549336901763753,0.7590677947942699,0.689095882051415,0.004239129422095032,-0.0007420366736288234,3.5006974089779654,3.497499939602583,-11.653092871891635,-11.655585297778856,-0.008662628510051285,-1.427707016754026
19.302173852920532,0.017851335927844048,0.5105958580970764,-4.556703567504883,0.0015344752552509042,0.0027129650115966797,0.14238214492797852,3.43876959918743,-11.441440836284716,-0.48549336901763757,0.7588570635392634,0.658649455940203,0.006007795162671268,-0.0006619774431570372,3.47843163544496,3.4605857980091272,-11.54431241172857,-11.556726097566461,-0.008662628510051285,-1.427707016754026
19.311996936798096,0.02041991800069809,0.48651123046875,-4.531784534454346,0.0014011484604171814,0.002341747283935547,0.14238214492797852,3.4066564216834156,-11.326676543112264,-0.5191138526966237,0.7590258713461518,0.580426361126148,0.008213226524041835,-1.0222763538256663e-05,3.4650027117005835,3.4125364866742767,-11.423726623680814,-11.459155048888617,-0.008662628510051285,-1.427707016754026
19.322321891784668,0.021670997142791748,0.47463661432266235,-4.5193634033203125,0.001335639234742357,0.0024509429931640625,0.14238214492797852,3.37121605128304,-11.206319900348294,-0.5256811995848537,0.758846137054437,0.5488080438355151,0.009050130751039748,0.0017697766533537513,3.467150053406858,3.346162789959974,-11.286540816832959,-11.366812269391566,0.1954363450291634,-0.8734866629719712
19.332096099853516,0.022900767624378204,0.4628799557685852,-4.506962776184082,0.0012721033316438757,0.003753185272216797,0.14238214492797852,3.329211170500908,-11.081173245334913,-0.5091522355413827,0.7586707627795004,0.5189323161595363,0.010161520249022445,0.0025509869709015097,3.497179093623439,3.245253008942643,-11.123149599017948,-11.289490201678642,0.1954363450291634,-0.8734866629719712
19.341926097869873,0.02410975843667984,0.45124557614326477,-4.494582176208496,0.0012114267855367275,0.0026144981384277344,0.14238214492797852,3.278000218212628,-10.952435085929329,-0.4747488020867024,0.7585043461658671,0.4911624875750751,0.010989354359628077,0.003467069382552522,3.581167446445456,3.0772548945563614,-10.912893408762104,-11.24945308190772,0.1954363450291634,-0.8734866629719712
19.47745132446289,0.02410975843667984,0.45124557614326477,-4.494582176208496,0.0012114267855367275,0.0023162364959716797,0.12789702415466309,3.2158968995731185,-10.821546542047184,-0.43474880208670236,0.7524952713700513,1.0,0.011047113067810364,0.004379381543278512,3.775581136530594,2.780419299894663,-10.603889977281893,-11.30098019457676,0.1954363450291634,-0.8734866629719712
19.4888973236084,0.03790755569934845,0.26328688859939575,-4.2776265144348145,0.0005381094375871698,0.0024416446685791016,0.12789702415466309,3.142860257024745,-10.689567971718489,-0.3947488020867023,0.7589870405671463,0.187449539357317,0.012103236427454308,0.0050115145867485455,4.194985268579085,2.236808530567152,-10.05088610647753,-11.592206977616835,0.2452808488205087,-1.172484866288845
19.49478268623352,0.03790755569934845,0.26328688859939575,-4.2776265144348145,0.0005381094375871698,0.0025577545166015625,0.12789702415466309,3.461938540203857,-11.523759426603005,-0.45549336901763754,0.7584485841084251,0.2569515913973466,0.012077120663623646,0.007346205812317099,3.5006974089779654,3.497499939602583,-11.653092871891635,-11.655585297778856,0.2452808488205087,-1.172484866288845
19.504174947738647,0.03870454058051109,0.24534887075424194,-4.254072189331055,0.0004978839368992849,0.0028867721557617188,0.12789702415466309,3.4308861516151246,-11.413298015663106,-0.4954933690176376,0.758781443140825,0.21360152310429603,0.011856818217471785,0.008350498162002664,3.47843163544496,3.4605857980091272,-11.54431241172857,-11.556726097566461,0.2452808488205087,-1.172484866288845
19.513042449951172,0.03950021043419838,0.2281377613544464,-4.230556488037109,0.00048122202908408573,0.003200054168701172,0.12789702415466309,3.3982426009998927,-11.29708683112591,-0.5232323971853448,0.7591044980081241,0.1658053822843657,0.01135747731894604,0.008793169357055276,3.4650027117005835,3.4125364866742767,-11.423726623680814,-11.459155048888617,0.2452808488205087,-1.172484866288845
19.522865295410156,0.03950021043419838,0.2281377613544464,-4.230556488037109,0.00048122202908408573,0.0030906200408935547,0.12789702415466309,3.361444770565716,-11.17544245685934,-0.5234990634329899,0.7585712532556904,0.24392671228345342,0.011523990091327908,0.008299652682941038,3.467150053406858,3.346162789959974,-11.286540816832959,-11.366812269391566,0.18392575846056403,-0.7938594898470455
19.533774852752686,0.040276527404785156,0.21168586611747742,-4.207091331481934,0.00047168971027999884,0.00491642951965332,0.12789702415466309,3.317359942325691,-11.049269718801572,-0.5020353302432831,0.7588346464007034,0.19368810818905102,0.010654516059811617,0.008943803383484617,3.497179093623439,3.245253008942643,-11.123149599017948,-11.289490201678642,0.18392575846056403,-0.7938594898470455
19.545243978500366,0.040276527404785156,0.21168586611747742,-4.207091331481934,0.00047168971027999884,0.0041351318359375,0.12789702415466309,3.2635151490943297,-10.919866743579114,-0.4647488020867024,0.7583067127742238,0.27760803842573445,0.01092751933167644,0.00798448477505364,3.581167446445456,3.0772548945563614,-10.912893408762104,-11.24945308190772,0.18392575846056403,-0.7938594898470455
19.55816125869751,0.040362078696489334,0.18912646174430847,-4.173312664031982,0.0005037278746894969,0.0028533935546875,0.12789702415466309,3.19865072303705,-10.788617607324175,-0.42474880208670235,0.7589114382362651,0.16583636557081127,0.008839524001344865,0.009399085325364182,3.775581136530594,2.780419299894663,-10.603889977281893,-11.30098019457676,0.18392575846056403,-0.7938594898470455
19.565243005752563,0.040362078696489334,0.18912646174430847,-4.173312664031982,0.0005037278746894969,0.0033626556396484375,0.12789702415466309,3.122931038600325,-10.656511246464751,-0.3847488020867023,0.7583908167357661,0.18819405490413166,0.009476271014812418,0.006957499444029409,4.194985268579085,2.236808530567152,-10.05088610647753,-11.592206977616835,0.18392575846056403,-0.7938594898470455
19.57424831390381,0.04045888036489487,0.17506229877471924,-4.150804042816162,0.000547395760458369,0.0024793148040771484,0.12789702415466309,3.454293596783517,-11.496664387498488,-0.46549336901763755,0.7586423615698209,0.057061781143617596,0.007497460312380642,0.0083130591817727,3.5006974089779654,3.497499939602583,-11.653092871891635,-11.655585297778856,0.18392575846056403,-0.7938594898470455
