time,x,y,z,yaw,ctrl_comp_time,rollout_comptime,x_ref,y_ref,z_ref,yaw_ref,throttle,roll_rate,pitch_rate,yaw_rate,save_tube_pyH,save_tube_pyL,save_tube_pzH,save_tube_pzL
15.002793312072754,0.06212833151221275,3.8529160022735596,-12.319145202636719,-0.001002161663893563,0.1285393238067627,6.0,0.0,3.8492125592758066,-12.31935409946761,0.004516157467764561,0.5791697137856169,-1.0,0.02294887504684477,0.017354554201595235,-12.31768335571289,-12.31788335571289,0.015309323726594447,0.015109323726594449
15.492495059967041,0.06212833151221275,3.8529160022735596,-12.319145202636719,-0.001002161663893563,0.16117215156555176,6.0,0.0,3.85314792616288,-12.320755485130714,0.0029656899286189756,0.5794832559120935,-1.0,0.05903619289627975,0.09294805738989521,-12.315022280743108,-12.318062584835355,0.33130862235817016,-0.36064097349309976
15.743711471557617,0.08003177493810654,3.8620495796203613,-12.31020450592041,-0.0001919114327138538,0.0016074180603027344,6.0,0.0,3.85314792616288,-12.320755485130714,0.0029656899286189756,0.5788127393703896,-1.0,0.1698591649121103,0.31907103735462533,-12.256575375958622,-12.30156061737044,0.6560112169672487,-0.9404176750955815
15.86473560333252,0.07458221912384033,3.8677706718444824,-12.306720733642578,0.0032034094751408997,0.0013089179992675781,6.0,0.0,3.862351984496598,-12.31196165560425,0.002972271108283915,0.5955302107075694,-0.7251019049744485,0.35890141543847726,0.5595355186773128,-12.031119425739263,-12.381494625712971,1.2502956905771363,-1.982550747938979
15.872052669525146,0.07340792566537857,3.8682467937469482,-12.303801536560059,0.004369537112229267,0.0013439655303955078,6.0,0.0,3.862648371605046,-12.313334243539666,-0.007027728891716085,0.5979453951110278,-0.6877746945012844,0.49123099080693405,0.6797677593386564,-10.716850256560813,-13.47777219212119,2.793598595780055,-4.162001989444953
15.883012294769287,0.07280930131673813,3.8684446811676025,-12.302108764648438,0.005004351302969869,0.0009839534759521484,6.0,0.0,3.862936633029534,-12.314325525071231,-0.017027728891716085,0.5985346404494124,-0.6991468843585676,0.5838616935648538,0.7398838796693283,-12.319045202636719,-12.319245202636719,0.021202655678987502,0.021002655678987504
15.89348578453064,0.07220152765512466,3.86861252784729,-12.300262451171875,0.005699654716205496,0.0015552043914794922,6.0,0.0,3.863214563933692,-12.314938599421094,-0.027027728891716084,0.5990615674975369,-0.7105216789274242,0.6487031854953977,0.7699419398346643,-12.31676137737191,-12.319868368004363,0.33566590322404216,-0.3562496280390609
15.901792287826538,0.07158394157886505,3.868746519088745,-12.29825496673584,0.006467363054852179,0.0009214878082275391,6.0,0.0,3.863479867014498,-12.315176406519823,-0.037027728891716086,0.5994782765353598,-0.7224191119457973,0.6940922298467784,0.7849709699173322,-12.258638169865286,-12.303889624168846,0.6587803762155287,-0.937451584181037
15.913320302963257,0.07031594961881638,3.8688981533050537,-12.293841361999512,0.008202495213113045,0.0012593269348144531,6.0,0.0,3.8637301570489218,-12.315041723966075,-0.04702772889171609,0.6014169428677792,-0.6751877136755515,0.7258645608927449,0.7924854849586662,-12.033640877533951,-12.38417018464616,1.2512687668563487,-1.9807471801264638
15.921923398971558,0.06966360658407211,3.868908405303955,-12.291441917419434,0.009157617392406392,0.002015352249145508,6.0,0.0,3.8639629655299186,-12.314537164117692,-0.05702772889171609,0.6017121830048823,-0.6886302690690415,0.7481051926249214,0.796242742479333,-10.721370617835086,-13.479146226334109,2.791921389168811,-4.160422413313598
15.932376861572266,0.06945452094078064,3.869662046432495,-12.288414001464844,0.010160434066455289,0.0009415149688720703,6.0,0.0,3.8641757453879704,-12.313665171316726,-0.06702772889171608,0.602049660858086,-0.7073466529474792,0.763673634837445,0.7981213712396664,-12.319045202636719,-12.319245202636719,0.021202655678987502,0.021002655678987504
15.944045782089233,0.06922092288732529,3.8703486919403076,-12.285268783569336,0.011164762276671132,0.002440929412841797,6.0,0.0,3.864365875794299,-12.312428019250744,-0.07702772889171608,0.6023919045912299,-0.727935493697061,0.7745715443862115,0.7990606856198332,-12.31676137737191,-12.319868368004363,0.33566590322337414,-0.3562496280397262
15.95213770866394,0.06865044683218002,3.871497631072998,-12.278599739074707,0.013289781242257555,0.0009067058563232422,6.0,0.0,3.864530667041823,-12.310827808452604,-0.08702772889171607,0.6043794689073573,-0.6911189894946081,0.7822000810703481,0.7995303428099167,-12.258638169865264,-12.30388962416885,0.6587803762141305,-0.9374515841823475
15.96315598487854,0.06832222640514374,3.8719608783721924,-12.275086402893066,0.01440775216710783,0.0012836456298828125,6.0,0.0,3.8646673654998667,-12.308866463940818,-0.09702772889171607,0.6047395057006891,-0.7151482162895565,0.7875400567492438,0.7997651714049585,-12.033640877533823,-12.384170184646225,1.251268766853629,-1.980747180128021
15.97182559967041,0.06796296685934067,3.8723464012145996,-12.271453857421875,0.015559363640646431,0.0013489723205566406,6.0,0.0,3.8647731586385903,-12.30654573300241,-0.10702772889171606,0.605106985168543,-0.7410753956068898,0.7912780397244706,0.7998825857024792,-10.721370617836358,-13.479146226332684,2.7919213891401506,-4.160422413291188
15.982624530792236,0.06757058203220367,3.8726518154144287,-12.267698287963867,0.016748225667382724,0.0018322467803955078,6.0,0.0,3.864845180119056,-12.303867183120106,-0.11702772889171606,0.6054806383730108,-0.7689757351468203,0.7938946278071294,0.7999412928512395,-12.31010450592041,-12.31030450592041,0.0280585849493742,0.0278585849493742
15.993705749511719,0.0666775107383728,3.873012065887451,-12.259803771972656,0.01923931598241089,0.002445697784423828,6.0,0.0,3.864880514944813,-12.30083220004549,-0.12702772889171607,0.6075294800112204,-0.7364748082363779,0.7957262394649905,0.7999706464256198,-12.309268668634994,-12.312386948270213,0.34250732828761915,-0.34936629949531955
16.120233058929443,0.0666775107383728,3.873012065887451,-12.259803771972656,0.01923931598241089,0.0008614063262939453,6.0,0.0,3.8728291978275196,-12.255909309248862,-0.1536222713144096,0.6163788444097349,-1.0,0.7970083676254933,0.79998532321281,-12.252630638987851,-12.297752344114697,0.6653903055690444,-0.9303239705320372
16.125354290008545,0.053797680884599686,3.865081787109375,-12.168057441711426,0.04418986227034294,0.0014369487762451172,6.0,0.0,3.8725934993933153,-12.251688744292956,-0.1636222713144096,0.6430429218180804,0.03029516571664148,0.7808112515867144,0.799992661606405,-12.029938308440624,-12.37846610203566,1.2568125352269661,-1.9725408495583638
16.132354736328125,0.052479200065135956,3.8636977672576904,-12.160883903503418,0.046038466502729344,0.0010249614715576172,6.0,0.0,3.8723013981304812,-12.247142214974309,-0.1736222713144096,0.6437563206105983,0.007003395093851061,0.5786462856139031,0.7999963308032025,-10.72660054445951,-13.467148717629888,2.7934986469397307,-4.14823737512374
16.142359018325806,0.05107618123292923,3.862177848815918,-12.153579711914062,0.04791748431499178,0.0014393329620361328,6.0,0.0,3.87194931331939,-12.242269660567427,-0.1836222713144096,0.644477492241001,-0.01769169147914773,0.44445116408662627,0.7999981654016013,-12.31010450592041,-12.31030450592041,0.0280585849493742,0.0278585849493742
16.152265310287476,0.04800167679786682,3.8587145805358887,-12.138570785522461,0.05177764029130609,0.0010488033294677734,6.0,0.0,3.871533661573067,-12.237070821115964,-0.19362227131440962,0.6467818461882141,0.04392035632429403,0.3230659863430092,0.7999990827008007,-12.309268668634994,-12.312386948270213,0.34250732828761915,-0.34936629949531955
16.163501262664795,0.04631950706243515,3.856757879257202,-12.13089656829834,0.0537988057432721,0.002344846725463867,6.0,0.0,3.8710508624567583,-12.231545236952634,-0.20362227131440963,0.6472302804068913,0.01663931139193897,0.23381243179848227,0.7999995413504004,-12.252630638987851,-12.297752344114697,0.6653903055690444,-0.9303239705320372
16.171750783920288,0.04453447088599205,3.854644298553467,-12.123120307922363,0.0559455405636259,0.0018334388732910156,6.0,0.0,3.870497344124868,-12.225692248375355,-0.21362227131440964,0.6476420657094392,-0.016220479364902007,0.16325842459590176,0.7513165832048301,-12.029938308440624,-12.37846610203566,1.2568125352269661,-1.9725408495583638
16.18379807472229,0.042904455214738846,3.852545976638794,-12.114313125610352,0.05826654016055101,0.0018570423126220703,6.0,0.0,3.869869548971006,-12.21951099547981,-0.22362227131440965,0.648097844543621,-0.05566987366803722,0.08105728652427203,0.6538162643598392,-10.72660054445951,-13.467148717629888,2.7934986469397307,-4.14823737512374
16.19381070137024,0.03930186107754707,3.8478496074676514,-12.096463203430176,0.06350263630256689,0.00170135498046875,6.0,0.0,3.8691639392868966,-12.213000418148514,-0.23362227131440966,0.650073953176708,-0.028448481277403737,-0.04665298415622844,0.4989456362980965,-12.31010450592041,-12.31030450592041,0.0280585849493742,0.0278585849493742
16.20192313194275,0.03732474893331528,3.8452489376068115,-12.08741569519043,0.06645208113003516,0.0009000301361083984,6.0,0.0,3.8683770029259157,-12.206159256196274,-0.24362227131440967,0.6505258185155489,-0.08381763316039548,-0.2012305543746239,0.21817452842345464,-12.309268668634994,-12.312386948270213,0.34250732828761915,-0.34936629949531955
16.2131507396698,0.03522788733243942,3.8424789905548096,-12.078289031982422,0.0696098470870661,0.001317739486694336,6.0,0.0,3.867505258967043,-12.198986049671909,-0.2536222713144097,0.6509778005404153,-0.14436096848233593,-0.38086138806223674,-0.22850675345756855,-12.252630638987851,-12.297752344114697,0.6653903055690444,-0.9303239705320372
16.22193145751953,0.03300965949892998,3.839538812637329,-12.06908130645752,0.07293762119381272,0.001554727554321289,6.0,0.0,3.866545263375041,-12.191479139315854,-0.2636222713144097,0.6514131998997705,-0.20927064173800614,-0.5066029716435657,-0.5142533767287844,-12.029938308440624,-12.37846610203566,1.2568125352269661,-1.9725408495583638
16.232396364212036,0.028238017112016678,3.833137035369873,-12.050434112548828,0.08003988836230347,0.0011143684387207031,6.0,0.0,3.8654936146527,-12.183636667173252,-0.2736222713144097,0.6531878659997712,-0.20920549305403757,-0.594622080150496,-0.6571266883643923,-10.72660054445951,-13.467148717629888,2.7934986469397307,-4.14823737512374
16.242496490478516,0.025660783052444458,3.8296735286712646,-12.040999412536621,0.08374364243609746,0.0013458728790283203,6.0,0.0,3.8643469594810296,-12.175456577361937,-0.2836222713144097,0.6534236154202013,-0.2773423304965733,-0.6562354561053472,-0.7285633441821961,-12.31010450592041,-12.31030450592041,0.0280585849493742,0.0278585849493742
16.365257501602173,0.025660783052444458,3.8296735286712646,-12.040999412536621,0.08374364243609746,0.0010385513305664062,6.0,0.0,3.8272791149614083,-12.03015789462648,-0.2892360743753941,0.6567227613414088,-1.0,-0.699364819273743,-0.7642816720910981,-12.309268668634994,-12.312386948270213,0.34250732828761915,-0.34936629949531955
16.371091842651367,-0.03766056150197983,3.753322124481201,-11.883056640625,0.13657865426816762,0.0021545886993408203,6.0,0.0,3.824794668643272,-12.019012641905295,-0.2992360743753941,0.6746954651685889,0.19692884609788086,-0.7295553734916201,-0.7821408360455491,-12.252630638987851,-12.297752344114697,0.6653903055690444,-0.9303239705320372
16.381956338882446,-0.048771120607852936,3.7398152351379395,-11.859999656677246,0.14143982439755015,0.0015404224395751953,6.0,0.0,3.8222162826594253,-12.007560511864867,-0.30923607437539413,0.6759769456812887,0.2559547255678585,-0.7506887614441341,-0.7910704180227746,-12.029938308440624,-12.37846610203566,1.2568125352269661,-1.9725408495583638
16.392064094543457,-0.048771120607852936,3.7398152351379395,-11.859999656677246,0.14143982439755015,0.002144336700439453,6.0,0.0,3.8195401368907516,-11.995798157073533,-0.31923607437539414,0.67502316059747,0.09816009158281713,-0.7654821330108939,-0.7955352090113873,-10.72660054445951,-13.467148717629888,2.7934986469397307,-4.14823737512374
16.401350259780884,-0.06591405719518661,3.7181663513183594,-11.825026512145996,0.14780951189463798,0.0014498233795166016,6.0,0.0,3.8167625038211304,-11.983722027174371,-0.32923607437539415,0.677625733180969,0.2679525673766041,-0.7758374931076257,-0.7977676045056937,-12.31010450592041,-12.31030450592041,0.0280585849493742,0.0278585849493742
16.412224292755127,-0.06591405719518661,3.7181663513183594,-11.825026512145996,0.14780951189463798,0.0021810531616210938,6.0,0.0,3.813879754154051,-11.971328371033149,-0.33923607437539416,0.676662063638918,0.1033648179944906,-0.783086245175338,-0.7988838022528469,-12.309268668634994,-12.312386948270213,0.34250732828761915,-0.34936629949531955
16.42128825187683,-0.07763788104057312,3.7027711868286133,-11.80151081085205,0.15146229807507566,0.0017859935760498047,6.0,0.0,3.810888362377384,-11.95861323903442,-0.34923607437539417,0.6777702707261881,0.1622487366192944,-0.7881603716227366,-0.7994419011264235,-12.252630638987851,-12.297752344114697,0.6653903055690444,-0.9303239705320372
16.432681560516357,-0.07763788104057312,3.7027711868286133,-11.80151081085205,0.15146229807507566,0.002607583999633789,6.0,0.0,3.807784912272605,-11.945572485523996,-0.3592360743753942,0.6768513072393473,-0.009621071999066921,-0.7917122601359156,-0.7997209505632118,-12.029938308440624,-12.37846610203566,1.2568125352269661,-1.9725408495583638
16.441607236862183,-0.09144409000873566,3.685351848602295,-11.776236534118652,0.15459266752823342,0.002031564712524414,6.0,0.0,3.8045661023648254,-11.932201771395981,-0.3692360743753942,0.6780095546218947,0.04035861421491438,-0.7941985820951409,-0.799860475281606,-10.72660054445951,-13.467148717629888,2.7934986469397307,-4.14823737512374
16.451603412628174,-0.09144409000873566,3.685351848602295,-11.776236534118652,0.15459266752823342,0.0014905929565429688,6.0,0.0,3.801228751310064,-11.918496566822434,-0.3792360743753942,0.677104699760517,-0.1385146514719372,-0.7959390074665986,-0.7999302376408031,-12.31010450592041,-12.31030450592041,0.0280585849493742,0.0278585849493742
16.462369203567505,-0.11237018555402756,3.6578288078308105,-11.738201141357422,0.1584277726287599,0.002033710479736328,6.0,0.0,3.7977698032162546,-11.904452154123637,-0.3892360743753942,0.6792116254708371,0.0031339598723263418,-0.7971573052266191,-0.7999651188204016,-12.309268668634994,-12.312386948270213,0.34250732828761915,-0.34936629949531955
16.471362590789795,-0.11237018555402756,3.6578288078308105,-11.738201141357422,0.1584277726287599,0.0017275810241699219,6.0,0.0,3.7941863328945717,-11.890063630776865,-0.3992360743753942,0.6783095468724868,-0.1828742082117092,-0.7980101136586334,-0.7999825594102008,-12.252630638987851,-12.297752344114697,0.6653903055690444,-0.9303239705320372
16.482125997543335,-0.13348913192749023,3.6286520957946777,-11.699975967407227,0.16133649126486638,0.0018208026885986328,6.0,0.0,3.7904755510377224,-11.875325912561447,-0.4092360743753942,0.6803344734374289,-0.05247159751550101,-0.7986070795610434,-0.7999912797051004,-12.029938308440624,-12.37846610203566,1.2568125352269661,-1.9725408495583638
16.491958379745483,-0.13348913192749023,3.6286520957946777,-11.699975967407227,0.16133649126486638,0.0017223358154296875,6.0,0.0,3.786634809321936,-11.860233736837857,-0.41923607437539423,0.6794587263232278,-0.24591129801210887,-0.7990249556927304,-0.7999956398525502,-10.72660054445951,-13.467148717629888,2.7934986469397307,-4.14823737512374
16.6269748210907,-0.13348913192749023,3.6286520957946777,-11.699975967407227,0.16133649126486638,0.0021758079528808594,6.0,0.0,3.6215652889100736,-11.683352627391079,-0.3378763000756556,0.6770271601783895,-1.0,-0.7993174689849113,-0.7999978199262751,-12.31010450592041,-12.31030450592041,0.0280585849493742,0.0278585849493742
16.632579803466797,-0.2615460157394409,3.424119710922241,-11.473785400390625,0.1630983887537474,0.001729726791381836,6.0,0.0,3.6144016166588138,-11.66639951105194,-0.3478763000756556,0.6915861547923563,0.883624117785859,-0.799522228289438,-0.7999989099631376,-12.309268668634994,-12.312386948270213,0.34250732828761915,-0.34936629949531955
16.641753911972046,-0.2767905294895172,3.39593505859375,-11.446025848388672,0.16186562999684564,0.0017037391662597656,6.0,0.0,3.607157500345549,-11.649112428804566,-0.35787630007565563,0.692047722534964,0.9640303738113971,-0.7996655598026066,-0.7999994549815689,-12.252630638987851,-12.297752344114697,0.6653903055690444,-0.9303239705320372
16.65174126625061,-0.28431153297424316,3.381605625152588,-11.43208122253418,0.1611549165368789,0.001581430435180664,6.0,0.0,3.5998294817553895,-11.631486996421499,-0.36787630007565564,0.6921745317694514,0.9024176512802207,-0.7997658918618246,-0.7772373551059772,-12.029938308440624,-12.37846610203566,1.2568125352269661,-1.9725408495583638
16.6624972820282,-0.29176127910614014,3.3671088218688965,-11.4180908203125,0.16035877897583678,0.0020515918731689453,6.0,0.0,3.592414228507212,-11.613518637862965,-0.37787630007565565,0.6922812631922268,0.8387563497710615,-0.7898882663507412,-0.7883945745484521,-10.72660054445951,-13.467148717629888,2.7934986469397307,-4.14823737512374
16.671315908432007,-0.2991357743740082,3.352440357208252,-11.404061317443848,0.15949385188824824,0.0015022754669189453,6.0,0.0,3.5849085393405717,-11.595202588244318,-0.38787630007565566,0.6922882866530347,0.7723740167920972,-0.7696298300661082,-0.7941690616925541,-12.31010450592041,-12.31030450592041,0.0280585849493742,0.0278585849493742
16.682343244552612,-0.3136426508426666,3.32257080078125,-11.3759126663208,0.1575015036836055,0.0017108917236328125,6.0,0.0,3.5773093493329067,-11.576533896939026,-0.39787630007565566,0.6928176672390752,0.828457743661823,-0.7282021859322111,-0.7861107205246289,-12.309268668634994,-12.312386948270213,0.34250732828761915,-0.34936629949531955
16.691718578338623,-0.3216319978237152,3.307140350341797,-11.360366821289062,0.1563684044793519,0.0018050670623779297,6.0,0.0,3.5696137350437964,-11.557507430815123,-0.4078763000756557,0.6929050731957511,0.7384944245864626,-0.69616565431271,-0.7463394257348636,-12.252630638987851,-12.297752344114697,0.6653903055690444,-0.9303239705320372
16.701395511627197,-0.32951825857162476,3.291539430618286,-11.344822883605957,0.15499223237679566,0.0013816356658935547,6.0,0.0,3.561818919583107,-11.538117877602913,-0.4178763000756557,0.6930430142653023,0.6373801902219969,-0.6600103143279679,-0.7280650540341458,-12.029938308440624,-12.37846610203566,1.2568125352269661,-1.9725408495583638
16.712844133377075,-0.33729928731918335,3.2757694721221924,-11.329292297363281,0.15352143023173553,0.003473997116088867,6.0,0.0,3.553922277599939,-11.5183597493917,-0.4278763000756557,0.6932027478465075,0.5263962900241101,-0.6262243977688815,-0.7098841197832835,-10.72660054445951,-13.467148717629888,2.7934986469397307,-4.14823737512374
16.72146248817444,-0.3525310158729553,3.2437338829040527,-11.298225402832031,0.15026288356206366,0.001438140869140625,6.0,0.0,3.545921340189357,-11.498227386253195,-0.4378763000756557,0.694117387185437,0.5057972744791992,-0.5795152524294135,-0.6822915261448098,-12.31010450592041,-12.31030450592041,0.0280585849493742,0.0278585849493742
16.73217272758484,-0.35997703671455383,3.227473497390747,-11.282684326171875,0.14845509881835542,0.0016086101531982422,6.0,0.0,3.5378137997139785,-11.477714959989223,-0.4478763000756557,0.6943187526579542,0.37304121265038237,-0.5416601233253516,-0.6459488564216248,-12.309268668634994,-12.312386948270213,0.34250732828761915,-0.34936629949531955
16.742634296417236,-0.3673088848590851,3.211054563522339,-11.26713752746582,0.14651772692106463,0.002763032913208008,6.0,0.0,3.5295975145375635,-11.45681647800122,-0.4578763000756557,0.6945664057359718,0.23336925868819192,-0.5062616055051048,-0.6124805903904772,-12.252630638987851,-12.297752344114697,0.6653903055690444,-0.9303239705320372
16.865668058395386,-0.3673088848590851,3.211054563522339,-11.26713752746582,0.14651772692106463,0.0018036365509033203,6.0,0.0,3.1981918928161908,-11.244996796857,-0.3453525421454882,0.691608225430872,-1.0,-0.4882409738365961,-0.5874112781658118,-12.029938308440624,-12.37846610203566,1.2568125352269661,-1.9725408495583638
16.872344255447388,-0.4725744128227234,2.9202194213867188,-11.011116981506348,0.10251692408811729,0.0026841163635253906,6.0,0.0,3.185292035313374,-11.222495805732324,-0.3553525421454882,0.7030095840154897,0.2619981348261202,-0.13879343471400823,0.07344646656616254,-10.72660054445951,-13.467148717629888,2.7934986469397307,-4.14823737512374
16.88235306739807,-0.4837740957736969,2.8806827068328857,-10.978170394897461,0.0961032911815912,0.002000093460083008,6.0,0.0,3.172351629150721,-11.199630129934485,-0.36535254214548823,0.7037781009463407,0.23292158651285844,-0.035346062371290066,-0.014376735726434074,-12.31010450592041,-12.31030450592041,0.0280585849493742,0.0278585849493742
16.89298963546753,-0.4891337454319,2.860769510269165,-10.961670875549316,0.09284837720448809,0.003667116165161133,6.0,0.0,3.159367446862331,-11.17639515459971,-0.3742893361122591,0.7039553457131661,0.20971883700094374,0.026731806369074282,-0.05278763371391401,-12.309268668634994,-12.312386948270213,0.34250732828761915,-0.34936629949531955
16.903770923614502,-0.4891337454319,2.860769510269165,-10.961670875549316,0.09284837720448809,0.0023355484008789062,6.0,0.0,3.146311306653781,-11.15279994543954,-0.38155351398409953,0.7034102047550782,0.15333020996004154,0.05524260589481119,-0.07230118533286094,-12.252630638987851,-12.297752344114697,0.6653903055690444,-0.9303239705320372
16.911617517471313,-0.49432939291000366,2.840759515762329,-10.945160865783691,0.08961665583582332,0.002079010009765625,6.0,0.0,3.1331403349918028,-11.12886196305921,-0.38722868410666056,0.7034994389406433,0.1997751424382549,0.08415408284930184,-0.07588116056414176,-12.029938308440624,-12.37846610203566,1.2568125352269661,-1.9725408495583638
16.921327829360962,-0.5088945031166077,2.7801320552825928,-10.895692825317383,0.07972280387949571,0.0008890628814697266,6.0,0.0,3.119813501953128,-11.104598500381346,-0.391396418954566,0.7045118128122031,0.46554025776127705,0.14147280400317566,-0.06279696448271732,-10.72660054445951,-13.467148717629888,2.7934986469397307,-4.14823737512374
16.932410955429077,-0.5133700966835022,2.7597129344940186,-10.879206657409668,0.07630058112957214,0.001430511474609375,6.0,0.0,3.106291653885831,-11.08002688178938,-0.39413619031524627,0.7045230707814555,0.5163162504871013,0.18047094597002517,-0.055072855364402484,-12.31010450592041,-12.31030450592041,0.0280585849493742,0.0278585849493742
16.942832946777344,-0.5174220204353333,2.737748622894287,-10.861865043640137,0.07283823974518461,0.0024306774139404297,6.0,0.0,3.092537543248285,-11.05516462207833,-0.39552532191823186,0.7045774211818832,0.573288438516665,0.20991584495977725,-0.046730632115611404,-12.309268668634994,-12.312386948270213,0.34250732828761915,-0.34936629949531955
16.951391458511353,-0.5213034152984619,2.7157158851623535,-10.844534873962402,0.06945444489432691,0.0009284019470214844,6.0,0.0,3.078515856781113,-11.030029549145857,-0.39563895777567937,0.7046449233561131,0.6290453216411147,0.2337751819151795,-0.038763952102655826,-12.252630638987851,-12.297752344114697,0.6653903055690444,-0.9303239705320372
16.962430953979492,-0.5250145196914673,2.6936144828796387,-10.827230453491211,0.06604053828293871,0.0014235973358154297,6.0,0.0,3.0641932425633938,-11.00463989405424,-0.3945500444890128,0.7047090592459337,0.6830004425267497,0.2539481742105213,-0.031450647743385365,-12.029938308440624,-12.37846610203566,1.2568125352269661,-1.9725408495583638
16.972161769866943,-0.5319279432296753,2.649204730987549,-10.79263973236084,0.05917988132986857,0.0018117427825927734,6.0,0.0,3.049538336047163,-10.979014351809296,-0.3923293258074371,0.7053858083971167,0.8376652486682783,0.2794393909629778,-0.025664374175083354,-10.72660054445951,-13.467148717629888,2.7934986469397307,-4.14823737512374
16.98245358467102,-0.5351322889328003,2.626896858215332,-10.775350570678711,0.05575139322873354,0.001481771469116211,6.0,0.0,3.034521784828701,-10.953172115942083,-0.38904534778686795,0.7054560935597072,0.8825077553246887,0.2973081582439679,-0.016248385069079524,-12.31010450592041,-12.31030450592041,0.0280585849493742,0.0278585849493742
17.09974193572998,-0.5351322889328003,2.626896858215332,-10.775350570678711,0.05575139322873354,0.0010509490966796875,6.0,0.0,2.6069772915387945,-10.751151932248618,-0.2162935943627423,0.6936687574853355,0.9102520601053272,0.30363477152228613,-0.006696125329012287,-12.309268668634994,-12.312386948270213,0.34250732828761915,-0.34936629949531955
17.104958057403564,-0.5649091005325317,2.278367280960083,-10.510529518127441,0.010132161437378079,0.0007913112640380859,6.0,0.0,2.586652271949424,-10.72696097839887,-0.20689210605877653,0.7023937396596782,1.0,0.3614521265528232,-0.011791142303306884,-12.252630638987851,-12.297752344114697,0.6653903055690444,-0.9303239705320372
17.112131357192993,-0.5657277703285217,2.254173994064331,-10.49239444732666,0.00776227249374415,0.0013914108276367188,6.0,0.0,2.5659213515514034,-10.702792272816147,-0.19722648336042364,0.7023581978880866,1.0,0.38302478440033666,0.0039232366360553725,-12.029938308440624,-12.37846610203566,1.2568125352269661,-1.9725408495583638
17.121505737304688,-0.5669187903404236,2.205787181854248,-10.45616626739502,0.003228896132530343,0.0008683204650878906,6.0,0.0,2.544785393760662,-10.678659862253237,-0.18733010349432086,0.7029731499920205,1.0,0.3937125611841199,0.018147413905005905,-10.72660054445951,-13.467148717629888,2.7934986469397307,-4.14823737512374
17.13212513923645,-0.5672959089279175,2.1816015243530273,-10.438068389892578,0.0010646726753367683,0.0012633800506591797,6.0,0.0,2.5232465179508172,-10.654577226665955,-0.17733010349432085,0.702966758442242,1.0,0.39872502804629384,0.028122964559685992,-12.31010450592041,-12.31030450592041,0.0280585849493742,0.0278585849493742
17.14206838607788,-0.567530632019043,2.157426118850708,-10.4199800491333,-0.001033078425563043,0.00110626220703125,6.0,0.0,2.501310327453531,-10.630555144416864,-0.16733010349432084,0.7029633966904727,1.0,0.4013195967836195,0.03480931729845514,-12.309268668634994,-12.312386948270213,0.34250732828761915,-0.34936629949531955
17.15186643600464,-0.5676366686820984,2.133272171020508,-10.401899337768555,-0.003063277153301666,0.0009839534759521484,6.0,0.0,2.4789852003193342,-10.606601980564927,-0.15733010349432083,0.7029657164159168,1.0,0.4025221721421328,0.03963867234215847,-12.252630638987851,-12.297752344114697,0.6653903055690444,-0.9303239705320372
17.162028074264526,-0.567438542842865,2.085022211074829,-10.365797996520996,-0.006933546289147975,0.0012581348419189453,6.0,0.0,2.4562796848800854,-10.582725855591729,-0.14733010349432082,0.7036598911483384,1.0,0.4016049767664153,0.04568343754226088,-12.029938308440624,-12.37846610203566,1.2568125352269661,-1.9725408495583638
17.171513557434082,-0.5671393275260925,2.06093430519104,-10.34775447845459,-0.008758835351783949,0.0009243488311767578,6.0,0.0,2.4332024941066677,-10.55893464144704,-0.13733010349432082,0.7036815268652116,1.0,0.3999360372498847,0.04986135268404299,-10.72660054445951,-13.467148717629888,2.7934986469397307,-4.14823737512374
17.18207025527954,-0.5667100548744202,2.036876678466797,-10.32971477508545,-0.010505563899547599,0.0011687278747558594,6.0,0.0,2.4097624998693425,-10.535235957731498,-0.1273301034943208,0.7037091527228728,1.0,0.39752472704818764,0.05346423847763965,-12.31010450592041,-12.31030450592041,0.0280585849493742,0.0278585849493742
17.191952228546143,-0.565876305103302,2.011676549911499,-10.310897827148438,-0.012172104143605846,0.0018267631530761719,6.0,0.0,2.3859687271042285,-10.511637168019009,-0.11733010349432081,0.7037596772764569,1.0,0.39503141270227177,0.0562768277197756,-12.309268668634994,-12.312386948270213,0.34250732828761915,-0.34936629949531955
17.201364278793335,-0.5638419389724731,1.9614717960357666,-10.273351669311523,-0.01506600642785121,0.000946044921875,6.0,0.0,2.361830347889454,-10.488145376321336,-0.10733010349432082,0.704540568938757,1.0,0.38980008545187994,0.0619852143385525,-12.252630638987851,-12.297752344114697,0.6653903055690444,-0.9303239705320372
17.212186098098755,-0.5626460909843445,1.9364771842956543,-10.254619598388672,-0.016389372828070903,0.0014388561248779297,6.0,0.0,2.3373566754345982,-10.464767423697236,-0.09733010349432082,0.7046122019548232,1.0,0.3858064595232662,0.06438903028327589,-12.029938308440624,-12.37846610203566,1.2568125352269661,-1.9725408495583638
17.221484661102295,-0.5613350868225098,1.911557674407959,-10.235905647277832,-0.01763439183338244,0.0011034011840820312,6.0,0.0,2.312557157987099,-10.441509885008385,-0.08733010349432083,0.7046916904807629,1.0,0.38179099283349593,0.06661205809138598,-10.72660054445951,-13.467148717629888,2.7934986469397307,-4.14823737512374
17.33350944519043,-0.5613350868225098,1.911557674407959,-10.235905647277832,-0.01763439183338244,0.0010154247283935547,6.0,0.0,1.8839766386242431,-10.215331236928348,0.02273063278466197,0.7030094991325487,1.0,0.3801764210649775,0.06526369245761728,-12.259703771972656,-12.259903771972656,-0.07373958995342254,-0.07393958995342255
17.341941833496094,-0.5272954702377319,1.5432369709014893,-9.953657150268555,-0.027396357729471854,0.0012323856353759766,6.0,0.0,1.8562011893059072,-10.19492200490138,0.03273063278466197,0.7145223549511123,1.0,0.31325932264381257,0.15203475391270266,-12.199868153318343,-12.212450359074207,0.08370413718412506,-0.5989679815594607
17.351938724517822,-0.523937463760376,1.5185770988464355,-9.934338569641113,-0.027447733832114143,0.0009851455688476562,6.0,0.0,1.8282417139483713,-10.17468081284339,0.04273063278466197,0.7148186099055406,0.9818713945779978,0.3108906564905555,0.09442642720210175,-12.072130958527284,-12.166161568893,0.25969168263060255,-1.3329450854662213
17.362048625946045,-0.517009437084198,1.4697951078414917,-9.895788192749023,-0.027376909639240415,0.00142669677734375,6.0,0.0,1.8001086443900864,-10.154610231452432,0.052730632784661974,0.7160794210637175,0.9365311193875515,0.2899282305605408,0.10383824305754838,-11.728521356663197,-12.263947705678955,0.748643291420264,-2.5647158994796238
17.371546983718872,-0.5134571194648743,1.4456764459609985,-9.876527786254883,-0.02726655712395963,0.0009105205535888672,6.0,0.0,1.771812450025774,-10.13471253955708,0.06273063278466197,0.716383200963345,0.904959589085708,0.28184971521945484,0.09126924855167705,-9.923845392502875,-13.74226347111707,2.334655690315219,-5.0709551463937155
17.381974458694458,-0.5098487138748169,1.4217449426651,-9.857277870178223,-0.027118936919881848,0.0013785362243652344,6.0,0.0,1.7433636309986817,-10.114989723359834,0.07273063278466196,0.7166799034734171,0.8732461545746497,0.27275315760549285,0.09039034398849394,-12.259703771972656,-12.259903771972656,-0.07373958995342254,-0.07393958995342255
17.392566442489624,-0.5061860084533691,1.3980045318603516,-9.838041305541992,-0.026937373105632018,0.0013909339904785156,6.0,0.0,1.7147727113759614,-10.095443475845249,0.08273063278466196,0.716979069941947,0.8417840582868891,0.26581203776657214,0.08814422361876811,-12.199868153318343,-12.212450359074207,0.08370413718412506,-0.5989679815594607
17.401439428329468,-0.4987059235572815,1.351112723350525,-9.79963207244873,-0.02647315056739806,0.0009098052978515625,6.0,0.0,1.686050232311257,-10.07607519635284,0.09252156532860366,0.7182012434636024,0.7611395361090669,0.255239309235753,0.09219171421870932,-12.072130958527284,-12.166161568893,0.25969168263060255,-1.3329450854662213
17.41223382949829,-0.49489250779151917,1.327968716621399,-9.780455589294434,-0.026200332715742805,0.0016503334045410156,6.0,0.0,1.6572107576674113,-10.056879960499668,0.10193935865049683,0.7185284799655762,0.6902249379130535,0.249469037312559,0.08877092086458803,-11.728521356663197,-12.263947705678955,0.748643291420264,-2.5647158994796238
17.421581268310547,-0.49103277921676636,1.3050305843353271,-9.761287689208984,-0.025898653375400357,0.0009481906890869141,6.0,0.0,1.6282716646202675,-10.03784775318042,0.11098566563677473,0.7188732765580389,0.6178117516629028,0.24365399843252453,0.08925711574135889,-9.923845392502875,-13.74226347111707,2.334655690315219,-5.0709551463937155
17.432201147079468,-0.48712846636772156,1.2822972536087036,-9.742125511169434,-0.02556669536781507,0.0010585784912109375,6.0,0.0,1.5992497510360268,-10.018968261212782,0.11966272760864834,0.719231094419052,0.5441773934464006,0.23866010356431885,0.08949575847827491,-12.259703771972656,-12.259903771972656,-0.07373958995342254,-0.07393958995342255
17.442104816436768,-0.48096418380737305,1.237746238708496,-9.7040433883667,-0.02485375228674283,0.0011532306671142578,6.0,0.0,1.5701612346442073,-10.000230933163227,0.12797334115372005,0.7205679685268271,0.43335010245592154,0.2290812911892283,0.0950852555842023,-12.199868153318343,-12.212450359074207,0.08370413718412506,-0.5989679815594607
17.45163869857788,-0.4777938425540924,1.2157902717590332,-9.685027122497559,-0.024492599564862078,0.0009946823120117188,6.0,0.0,1.541021754969648,-9.981625036397443,0.13592082520451626,0.7209566842571868,0.35779034489280837,0.2233429212448455,0.09317556228912745,-12.072130958527284,-12.166161568893,0.25969168263060255,-1.3329450854662213
17.46205186843872,-0.47456786036491394,1.1940516233444214,-9.666010856628418,-0.024108933094991847,0.0013885498046875,6.0,0.0,1.5118463776975613,-9.96313971121768,0.1435089884478686,0.7213630451922793,0.28239969116720154,0.21765137163240858,0.09277380705598247,-11.728521356663197,-12.263947705678955,0.748643291420264,-2.5647158994796238
17.571388483047485,-0.47456786036491394,1.1940516233444214,-9.666010856628418,-0.024108933094991847,0.0010080337524414062,6.0,0.0,1.164739455011446,-9.65105786647695,0.27669204767230726,0.7133637336685239,-0.14311313241154155,0.21564512615512235,0.08884547267222441,-9.923845392502875,-13.74226347111707,2.334655690315219,-5.0709551463937155
17.581890106201172,-0.4287104904651642,0.9325575828552246,-9.417527198791504,-0.017483726719280196,0.0010013580322265625,6.0,0.0,1.1356851157367842,-9.63590986292975,0.275140929009016,0.726989312749508,-0.5992744396525784,0.16906069270553722,0.11947016994401846,-12.259703771972656,-12.259903771972656,-0.07373958995342254,-0.07393958995342255
17.592103719711304,-0.4174903333187103,0.87837815284729,-9.35782527923584,-0.015316487866786271,0.0013577938079833984,6.0,0.0,1.1068899099642564,-9.620565402738949,0.27347768557532554,0.7300710325483823,-0.73118713254982,0.14720089927883656,0.09706224517764668,-12.199868153318343,-12.212450359074207,0.08370413718412506,-0.5989679815594607
17.60149097442627,-0.4174903333187103,0.87837815284729,-9.35782527923584,-0.015316487866786271,0.0009179115295410156,6.0,0.0,1.078354972575466,-9.605023384953846,0.2717099418106326,0.7294996819168069,-0.7643115634489526,0.13627315063491402,0.07615548870738607,-12.072130958527284,-12.166161568893,0.25969168263060255,-1.3329450854662213
17.61195945739746,-0.4060419499874115,0.8263971209526062,-9.298158645629883,-0.013032622341116906,0.001501321792602539,6.0,0.0,1.0500812730313775,-9.589283033835915,0.26984508292385195,0.7324878467307295,-0.8897429458566614,0.11864937466140382,0.06523102704532104,-11.728521356663197,-12.263947705678955,0.748643291420264,-2.5647158994796238
17.62139320373535,-0.4060419499874115,0.8263971209526062,-9.298158645629883,-0.013032622341116906,0.0009026527404785156,6.0,0.0,1.0220696194222594,-9.57334388197637,0.26789025438868413,0.7319086213075688,-0.9225670578706462,0.1108801061980154,0.052386846296729364,-9.923845392502875,-13.74226347111707,2.334655690315219,-5.0709551463937155
17.632952451705933,-0.3983055055141449,0.7929907441139221,-9.258415222167969,-0.011563485301997994,0.0017940998077392578,6.0,0.0,0.9943206624558496,-9.5572057536619,0.2658523619959719,0.7336111242321272,-0.9931464972569306,0.09955928544823502,0.043893438211901115,-12.259703771972656,-12.259903771972656,-0.07373958995342254,-0.07393958995342255
17.64171552658081,-0.3983055055141449,0.7929907441139221,-9.258415222167969,-0.011563485301997994,0.001074075698852539,6.0,0.0,0.9668348994094574,-9.540868748529434,0.2637380724251976,0.7330232438858221,-1.0,0.09466217450257441,0.03638978460664365,-12.199868153318343,-12.212450359074207,0.08370413718412506,-0.5989679815594607
17.651643991470337,-0.386464387178421,0.7446937561035156,-9.198853492736816,-0.009553717148410135,0.0009701251983642578,6.0,0.0,0.939612678067784,-9.524333225546238,0.26155381429853486,0.7358048502473695,-1.0,0.08329003191541992,0.030113034263762155,-12.072130958527284,-12.166161568893,0.25969168263060255,-1.3329450854662213
17.662456512451172,-0.386464387178421,0.7446937561035156,-9.198853492736816,-0.009553717148410135,0.001338958740234375,6.0,0.0,0.9126542006645553,-9.507599787347417,0.25930577968224583,0.7352094310703292,-1.0,0.07922407720180326,0.02631694379324709,-11.728521356663197,-12.263947705678955,0.748643291420264,-2.5647158994796238
17.671359539031982,-0.37850430607795715,0.713712751865387,-9.159200668334961,-0.008335142055487604,0.0009253025054931641,6.0,0.0,0.8859595278426182,-9.490669264958793,0.2569999260015976,0.7367846201026402,-1.0,0.07254588753592911,0.022411565628829233,-9.923845392502875,-13.74226347111707,2.334655690315219,-5.0709551463937155
17.682220697402954,-0.37850430607795715,0.713712751865387,-9.159200668334961,-0.008335142055487604,0.0010025501251220703,6.0,0.0,0.8595285826439663,-9.473542702929377,0.2546419783368545,0.7361809948489346,-1.0,0.07018074407824887,0.020222404517713573,-12.259703771972656,-12.259903771972656,-0.07373958995342254,-0.07393958995342255
17.692270755767822,-0.36626628041267395,0.6702787280082703,-9.099491119384766,-0.006718134591531005,0.0013687610626220703,6.0,0.0,0.833361154538234,-9.456221344894022,0.2522374320692773,0.7387232398342065,-1.0,0.06353133291427203,0.01603395958037392,-12.199868153318343,-12.212450359074207,0.08370413718412506,-0.5989679815594607
17.805872917175293,-0.36626628041267395,0.6702787280082703,-9.099491119384766,-0.006718134591531005,0.0011348724365234375,6.0,0.0,0.6469084069657616,-9.082075802064525,0.3020772324683979,0.7247991868425819,-1.0,0.061331071684541674,0.013992084910575693,-12.072130958527284,-12.166161568893,0.25969168263060255,-1.3329450854662213
17.811347007751465,-0.3152129650115967,0.5241392850875854,-8.860620498657227,0.00026479547678234794,0.0015192031860351562,6.0,0.0,0.6239845791023256,-9.064285863207147,0.2920772324683979,0.7354830306472777,-0.6057143565879564,0.04853769204850238,-0.0034382680562121256,-11.728521356663197,-12.263947705678955,0.748643291420264,-2.5647158994796238
17.821171760559082,-0.3021414279937744,0.4921446442604065,-8.801026344299316,0.0016950340334042635,0.0008847713470458984,6.0,0.0,0.6015036330954261,-9.046131901298132,0.2820772324683979,0.7373000793554253,-0.5021744111477133,0.04515358859797507,-0.005024733455618806,-9.923845392502875,-13.74226347111707,2.334655690315219,-5.0709551463937155
17.832313060760498,-0.29757407307624817,0.4823523461818695,-8.7808837890625,0.0022891948209653457,0.0010409355163574219,6.0,0.0,0.5794617334113292,-9.027624338593837,0.2720772324683979,0.7374675773090467,-0.5070377541143152,0.04394399676138047,-0.0052948841525985915,-12.259703771972656,-12.259903771972656,-0.07373958995342254,-0.07393958995342255
17.841936826705933,-0.29302018880844116,0.47266700863838196,-8.760781288146973,0.0028773391874094417,0.0014231204986572266,6.0,0.0,0.5578548246361461,-9.008773415947262,0.26207723246839787,0.7376258970269832,-0.5117127257561233,0.0431442811628204,-0.006425236033562462,-12.199868153318343,-12.212450359074207,0.08370413718412506,-0.5989679815594607
17.851701498031616,-0.2884804308414459,0.46308329701423645,-8.740718841552734,0.003455243799576041,0.0009567737579345703,6.0,0.0,0.536678635929446,-8.989589187726633,0.25207723246839786,0.7377481062489123,-0.5171939846217787,0.04241298040882265,-0.007952309078985219,-12.072130958527284,-12.166161568893,0.25969168263060255,-1.3329450854662213
17.86152458190918,-0.27943122386932373,0.44419655203819275,-8.700743675231934,0.004570677309042551,0.0019021034240722656,6.0,0.0,0.5159286855987109,-8.970081516830366,0.24207723246839785,0.7385695000032995,-0.468574146396483,0.041343949969017045,-0.010537411287599916,-11.728521356663197,-12.263947705678955,0.748643291420264,-2.5647158994796238
17.871519565582275,-0.27493005990982056,0.43488508462905884,-8.680831909179688,0.0051042604106738,0.0009441375732421875,6.0,0.0,0.4956002857927823,-8.950260069801955,0.23207723246839784,0.738628728745774,-0.48060993187938583,0.040744758715097563,-0.011995244745749634,-9.923845392502875,-13.74226347111707,2.334655690315219,-5.0709551463937155
17.881932973861694,-0.27044522762298584,0.42565494775772095,-8.66096019744873,0.0056199494462308985,0.0014510154724121094,6.0,0.0,0.4756885473123309,-8.93013431204831,0.22207723246839783,0.7386747859572894,-0.49595946661087154,0.040263137303231486,-0.013550717748286405,-12.259703771972656,-12.259903771972656,-0.07373958995342254,-0.07393958995342255
17.89211392402649,-0.26152634620666504,0.40742170810699463,-8.621339797973633,0.006597800287064373,0.0017766952514648438,6.0,0.0,0.45618838453526245,-8.909713503164985,0.21249615171412092,0.7394026290122317,-0.42096769376296306,0.039721157012871045,-0.015854554643763022,-12.199868153318343,-12.212450359074207,0.08370413718412506,-0.5989679815594607
17.901629209518433,-0.2570931911468506,0.39841052889823914,-8.601588249206543,0.007061192575752814,0.0009284019470214844,6.0,0.0,0.4370858476489772,-8.889014692975557,0.2033257019601807,0.7394080807966007,-0.39892879650419755,0.0395787012049392,-0.01685804691602597,-12.072130958527284,-12.166161568893,0.25969168263060255,-1.3329450854662213
17.912241220474243,-0.25267794728279114,0.38946473598480225,-8.581876754760742,0.007511463577146077,0.001581430435180664,6.0,0.0,0.41836703006746906,-8.868053992588289,0.19455722278571416,0.7393991311030937,-0.3772569936164424,0.039499371650007636,-0.01778435251659332,-11.728521356663197,-12.263947705678955,0.748643291420264,-2.5647158994796238
17.922229766845703,-0.248280867934227,0.38058117032051086,-8.562232971191406,0.007946184547476441,0.001863241195678711,6.0,0.0,0.4000181172277142,-8.846846615306466,0.18618184466626503,0.739376479649024,-0.3556890615320014,0.03944028850610057,-0.018669054914988097,-9.923845392502875,-13.74226347111707,2.334655690315219,-5.0709551463937155
18.035215854644775,-0.248280867934227,0.38058117032051086,-8.562232971191406,0.007946184547476441,0.0010004043579101562,6.0,0.0,0.36599906944981275,-8.539846753256441,0.09460231466704784,0.7311385734064886,-0.48845724622738473,0.03959385902214206,-0.018899800296992408,-12.259703771972656,-12.259903771972656,-0.07373958995342254,-0.07393958995342255
18.041633367538452,-0.19281743466854095,0.2645145058631897,-8.27035140991211,0.013864765173363327,0.0014507770538330078,6.0,0.0,0.3516195513919561,-8.517339288537979,0.09005459197842143,0.7400333252760068,0.16473834501331064,0.03027124272412173,-0.030377746797013824,-12.199868153318343,-12.212450359074207,0.08370413718412506,-0.5989679815594607
18.051647663116455,-0.18585316836833954,0.24970561265945435,-8.232030868530273,0.01447087417178625,0.0010051727294921875,6.0,0.0,0.33743116425720143,-8.494718146457435,0.08583135277896425,0.7405303561826375,0.23136830703497868,0.028543723738225633,-0.027655306106865018,-12.072130958527284,-12.166161568893,0.25969168263060255,-1.3329450854662213
18.061951398849487,-0.18240945041179657,0.2423168271780014,-8.212945938110352,0.014753654642979369,0.0012421607971191406,6.0,0.0,0.323422921558301,-8.471990440969455,0.0819203630540441,0.7404430913913357,0.25225254800992725,0.027428311794448608,-0.02596572901980445,-11.728521356663197,-12.263947705678955,0.748643291420264,-2.5647158994796238
18.0714750289917,-0.17874091863632202,0.2354804128408432,-8.192822456359863,0.014986807115331884,0.0009434223175048828,6.0,0.0,0.30958430347313026,-8.449162861787851,0.07830953552344005,0.7404026948778812,0.27158186641357196,0.026699443878051142,-0.025244277054308636,-9.923845392502875,-13.74226347111707,2.334655690315219,-5.0709551463937155
18.081846952438354,-0.17508618533611298,0.2286297082901001,-8.172760963439941,0.01524697594553126,0.0009624958038330078,6.0,0.0,0.29590525631576103,-8.42624170342796,0.07498694297701772,0.7403232966718171,0.29000255617995563,0.02605826071468824,-0.025014515965176076,-12.259703771972656,-12.259903771972656,-0.07373958995342254,-0.07393958995342255
18.092297315597534,-0.17144566774368286,0.2217632234096527,-8.152762413024902,0.01549350171036624,0.0015172958374023438,6.0,0.0,0.2823761904046803,-8.403232892164397,0.07194083051983714,0.7402250014306397,0.30610386894073216,0.025467400308666583,-0.025010081962488624,-12.199868153318343,-12.212450359074207,0.08370413718412506,-0.5989679815594607
18.101540565490723,-0.16420838236808777,0.20797841250896454,-8.112955093383789,0.015946475119457633,0.0009174346923828125,6.0,0.0,0.26898797650126,-8.380142011007715,0.06915962676615657,0.7407061234581833,0.35498195524542797,0.024579440707279875,-0.025283942658566618,-12.072130958527284,-12.166161568893,0.25969168263060255,-1.3329450854662213
18.11209535598755,-0.16061203181743622,0.2010587602853775,-8.093141555786133,0.01615286249350061,0.0014715194702148438,6.0,0.0,0.25573194097702906,-8.356974322806401,0.06663195402258244,0.740613390725667,0.3610829145490981,0.024063746002090897,-0.025197242703479717,-11.728521356663197,-12.263947705678955,0.748643291420264,-2.5647158994796238
18.121456623077393,-0.15703074634075165,0.19412098824977875,-8.073419570922852,0.016344724564262624,0.0008866786956787109,6.0,0.0,0.2425998598547861,-8.333734791582033,0.0643466375010861,0.7405154366308738,0.3640474033279607,0.023648342887856916,-0.025247818860813814,-9.923845392502875,-13.74226347111707,2.334655690315219,-5.0709551463937155
18.13200879096985,-0.14990343153476715,0.1801861673593521,-8.03414249420166,0.016688850520891196,0.0013148784637451172,6.0,0.0,0.22958395185608474,-8.31042810220574,0.062292713602797756,0.7409926567689135,0.3875910019451787,0.023030919976333435,-0.02541067192787599,-12.259703771972656,-12.259903771972656,-0.07373958995342254,-0.07393958995342255
18.142003297805786,-0.14635777473449707,0.17319047451019287,-8.0145845413208,0.016848054209146802,0.0012333393096923828,6.0,0.0,0.21667687057609497,-8.287058678523199,0.060459437313429724,0.7408940216918091,0.3825330714795201,0.022685754434309674,-0.025386674934966793,-12.199868153318343,-12.212450359074207,0.08370413718412506,-0.5989679815594607
18.151612520217896,-0.14282774925231934,0.1661791205406189,-7.995079040527344,0.01699420545154827,0.0009567737579345703,6.0,0.0,0.20387169589624285,-8.263630700033719,0.0588362887509073,0.7407962348916969,0.37524805682838386,0.02242593825414031,-0.025468748468609498,-12.072130958527284,-12.166161568893,0.25969168263060255,-1.3329450854662213
18.162230253219604,-0.13931339979171753,0.15915325284004211,-7.975625514984131,0.017125951680585106,0.0012562274932861328,6.0,0.0,0.1911619247353101,-8.240148117226495,0.05741297890532506,0.7407004227948952,0.3658652420440054,0.02220189409886084,-0.02559299277025553,-11.728521356663197,-12.263947705678955,0.748643291420264,-2.5647158994796238
18.272622108459473,-0.13931339979171753,0.15915325284004211,-7.975625514984131,0.017125951680585106,0.0010902881622314453,6.0,0.0,0.14789631148689547,-7.952698915228607,0.01831634207485867,0.7354597521001922,0.1819019257842286,0.02235191975968793,-0.025811548183266707,-9.923845392502875,-13.74226347111707,2.334655690315219,-5.0709551463937155
18.281789541244507,-0.07761026918888092,0.04848537594079971,-7.678864479064941,0.01793837868850963,0.0011057853698730469,6.0,0.0,0.13661330101314487,-7.929762049660964,0.020196506692569102,0.7440777180241006,0.2518842593004528,0.02740415254013004,-0.027281736602165808,-12.259703771972656,-12.259903771972656,-0.07373958995342254,-0.07393958995342255
18.29175305366516,-0.06942322105169296,0.033756472170352936,-7.639828681945801,0.017887318119772715,0.0019257068634033203,6.0,0.0,0.12530454417188638,-7.906816452197215,0.022129973496354132,0.7447062886517795,0.22373753390520473,0.028883170155950738,-0.026735499533030883,-12.199868153318343,-12.212450359074207,0.08370413718412506,-0.5989679815594607
18.301635026931763,-0.06538377702236176,0.02643345668911934,-7.620394706726074,0.01785028458749093,0.0010039806365966797,6.0,0.0,0.11397060650085951,-7.883863555382313,0.024109245179759188,0.7447089076338094,0.19662282100546014,0.02943125184751766,-0.026401233204564493,-12.072130958527284,-12.166161568893,0.25969168263060255,-1.3329450854662213
18.31214690208435,-0.061379846185445786,0.019140632823109627,-7.601015090942383,0.01780876559194835,0.0013790130615234375,6.0,0.0,0.10261228120204541,-7.8609046928896085,0.02612716390694062,0.7447061398803783,0.16937248151890355,0.029834068936779062,-0.026310331098436893,-11.728521356663197,-12.263947705678955,0.748643291420264,-2.5647158994796238
18.321518421173096,-0.05741101875901222,0.01188025251030922,-7.581727981567383,0.017759812553124373,0.0010290145874023438,6.0,0.0,0.09123057438252052,-7.837941102078403,0.028176904699990277,0.744688154944396,0.14216970674798565,0.030209505728015833,-0.0263638190941425,-9.923845392502875,-13.74226347111707,2.334655690315219,-5.0709551463937155
18.332287311553955,-0.04841414466500282,-0.0029809700790792704,-7.54393196105957,0.017631068121296986,0.0011444091796875,6.0,0.0,0.0798266906707852,-7.814973926623612,0.030251968633917922,0.7452209820848373,0.11396001742800843,0.03152754509825687,-0.026490153687492766,-12.259703771972656,-12.259903771972656,-0.07373958995342254,-0.07393958995342255
18.342480182647705,-0.04397939145565033,-0.010341836139559746,-7.5251030921936035,0.017549497011235565,0.0011479854583740234,6.0,0.0,0.06840201922097669,-7.792004219227409,0.03234617586164955,0.7451699019858858,0.08853832904416087,0.03224027665798925,-0.026607566348591127,-12.199868153318343,-12.212450359074207,0.08370413718412506,-0.5989679815594607
18.35168957710266,-0.03959079086780548,-0.017660027369856834,-7.506319522857666,0.017460771410254802,0.000946044921875,6.0,0.0,0.05695812011562524,-7.769032944419137,0.034453658490224706,0.7451169472144742,0.06354946489177205,0.03280885887539083,-0.026759245622414066,-12.072130958527284,-12.166161568893,0.25969168263060255,-1.3329450854662213
18.361844778060913,-0.03524772450327873,-0.024934211745858192,-7.4875807762146,0.01736722023091948,0.0016748905181884766,6.0,0.0,0.04549671117592,-7.7460609814464725,0.03656885332826972,0.7450638530202262,0.03905122784507192,0.033322437685195445,-0.02694068248638917,-11.728521356663197,-12.263947705678955,0.748643291420264,-2.5647158994796238
18.3716037273407,-0.026695938780903816,-0.039345256984233856,-7.4503021240234375,0.017163085607879727,0.0009636878967285156,6.0,0.0,0.03401965518682052,-7.723089127258024,0.0386864945237799,0.745582683528516,0.014846501612330504,0.034061940518775334,-0.026991815449030912,-9.923845392502875,-13.74226347111707,2.334655690315219,-5.0709551463937155
18.382369995117188,-0.022486072033643723,-0.04648006334900856,-7.431727409362793,0.017055200569466376,0.001216888427734375,6.0,0.0,0.02252894754278004,-7.700118099575045,0.04080160611025913,0.745526995745773,-0.007879223175353778,0.03439304249910537,-0.02709641534108813,-12.259703771972656,-12.259903771972656,-0.07373958995342254,-0.07393958995342255
18.391721963882446,-0.018319526687264442,-0.05356626585125923,-7.41319465637207,0.016943700299379853,0.0018830299377441406,6.0,0.0,0.011026704318342288,-7.677148540047795,0.042909494478333726,0.7454730011494904,-0.02986311803981148,0.03460611270629652,-0.027241286299020204,-12.199868153318343,-12.212450359074207,0.08370413718412506,-0.5989679815594607
18.50922179222107,-0.018319526687264442,-0.05356626585125923,-7.41319465637207,0.016943700299379853,0.0013880729675292969,6.0,0.0,-0.06498509325794168,-7.391651448325894,0.0870570005664821,0.7395529628517875,-0.1706183928309316,0.03486949535172606,-0.027598893730292715,-12.072130958527284,-12.166161568893,0.25969168263060255,-1.3329450854662213
18.51553964614868,0.042440518736839294,-0.15152353048324585,-7.133835792541504,0.014770387788348133,0.0012211799621582031,6.0,0.0,-0.07628228225675766,-7.3700613545381755,0.08546272622647552,0.7477898277422526,-0.10104412820675272,0.03411467852537706,-0.027480013890916994,-11.728521356663197,-12.263947705678955,0.748643291420264,-2.5647158994796238
18.521225214004517,0.04628673568367958,-0.15757107734680176,-7.1153564453125,0.014601995354319837,0.0008151531219482422,6.0,0.0,-0.08746172302049719,-7.3484268798216155,0.08397574131791723,0.7477551487310277,-0.11321047186096725,0.033776001623103326,-0.026413175414323874,-9.923845392502875,-13.74226347111707,2.334655690315219,-5.0709551463937155
18.532854080200195,0.053850751370191574,-0.1695261001586914,-7.078545570373535,0.014262682801498838,0.0010976791381835938,6.0,0.0,-0.09852711717618483,-7.326750417431834,0.08259150187632369,0.7483017093417668,-0.11601368301102137,0.03303451396808022,-0.025746277370988026,-12.040899412536621,-12.04109941253662,-0.5288823412895203,-0.5290823412895203
18.541770696640015,0.05756920948624611,-0.1754334568977356,-7.060212135314941,0.014090278188666767,0.0017311573028564453,6.0,0.0,-0.10948198185571988,-7.305034254645686,0.08130554382698937,0.7482626465396773,-0.1273980094472778,0.03254906172635031,-0.02528635661320914,-11.908143320937999,-11.928849812706865,-0.510376146038921,-1.1721392620033055
18.551837921142578,0.06124575436115265,-0.1812940388917923,-7.041926860809326,0.013918965213552355,0.0010099411010742188,6.0,0.0,-0.12032965392535923,-7.28328057804362,0.08011348632344606,0.7482094549171181,-0.13807255315696126,0.032071737424488135,-0.02503757181968467,-11.691639681598208,-11.832201863563196,-0.46111133660411996,-2.0283494628015006
18.562113523483276,0.0648714005947113,-0.18711580336093903,-7.023690223693848,0.013745270165879682,0.001434326171875,6.0,0.0,-0.1310732943705179,-7.261491478511459,0.07901103474237552,0.7481472356177632,-0.14785812551033575,0.031546009826251685,-0.02488466912521283,-11.190467602485585,-11.940781448864826,-0.03874870289137091,-3.4319894221375757
18.57148289680481,0.07200067490339279,-0.19861280918121338,-6.987063407897949,0.013400445454796163,0.0010025501251220703,6.0,0.0,-0.1417158928138174,-7.239668955976775,0.07799398335008571,0.7486390655021313,-0.1444395558978188,0.030476865744797976,-0.02466691251477073,-8.675509073518143,-13.97408720229234,1.7049894333747047,-6.279464603148656
18.582207918167114,0.07550552487373352,-0.2042895257472992,-6.968644618988037,0.013213681162124097,0.00113677978515625,6.0,0.0,-0.15226027214570348,-7.217814923894588,0.07705821765535303,0.7485789343984228,-0.15170424475990157,0.02986192429886084,-0.024343625592840097,-12.040899412536621,-12.04109941253662,-0.5288823412895203,-0.5290823412895203
18.5915584564209,0.0789705365896225,-0.20992127060890198,-6.950281620025635,0.013024449520936468,0.0017325878143310547,6.0,0.0,-0.16270909324828095,-7.195931213496771,0.07619971646311234,0.7485155447358501,-0.1581763895004341,0.02927207550512658,-0.02410665456798534,-11.908143320937999,-11.928849812706865,-0.510376146038921,-1.1721392620033055
18.601719617843628,0.08239603042602539,-0.21550840139389038,-6.931973457336426,0.012834585669548752,0.0009734630584716797,6.0,0.0,-0.1730648597942788,-7.174019577818995,0.07541455364314403,0.7484497606611216,-0.16396093906731446,0.028662020180509243,-0.023905256227639324,-11.691639681598208,-11.832201863563196,-0.46111133660411996,-2.0283494628015006
18.61223030090332,0.08912952244281769,-0.2265501171350479,-6.895557880401611,0.012456028497855334,0.0019326210021972656,6.0,0.0,-0.18332992310426233,-7.152081695518536,0.07469889962756526,0.7489163866359523,-0.15360870927996667,0.027437724332374396,-0.023625317846977068,-11.190467602485585,-11.940781448864826,-0.03874870289137091,-3.4319894221375757
18.62148404121399,0.09243626147508621,-0.23199863731861115,-6.877448081970215,0.012268188303776989,0.0008966922760009766,6.0,0.0,-0.19350648704635537,-7.130119174495711,0.07404902265058363,0.7488363033552692,-0.15758435277822655,0.026744669285167593,-0.023190151342799874,-8.675509073518143,-13.97408720229234,1.7049894333747047,-6.279464603148656
18.632017374038696,0.09570431709289551,-0.23740461468696594,-6.859390735626221,0.012070518089347108,0.0012845993041992188,6.0,0.0,-0.20359661296382434,-7.108133555331084,0.07346128974361664,0.7487528280587888,-0.16083252853322322,0.02610810001830644,-0.022853398733634123,-12.040899412536621,-12.04109941253662,-0.5288823412895203,-0.5290823412895203
18.742424964904785,0.09570431709289551,-0.23740461468696594,-6.859390735626221,0.012070518089347108,0.0013875961303710938,6.0,0.0,-0.24642442299656625,-6.8384314979715315,0.0803186296677922,0.7431487177855047,-0.2622158372932263,0.026287376939719744,-0.02266320130725954,-11.908143320937999,-11.928849812706865,-0.510376146038921,-1.1721392620033055
18.751439332962036,0.14202384650707245,-0.30788591504096985,-6.5910563468933105,0.00935136551699152,0.0009503364562988281,6.0,0.0,-0.2553091225275752,-6.817431442190172,0.0778456989018407,0.7503785960953069,-0.010065094660461432,0.016125372198958002,-0.02322014791094233,-11.691639681598208,-11.832201863563196,-0.46111133660411996,-2.0283494628015006
18.762025117874146,0.14492884278297424,-0.3119238317012787,-6.573318004608154,0.009197277166050767,0.00146484375,6.0,0.0,-0.26406420286921434,-6.7963933222838975,0.07551698845456221,0.7502927797382981,-0.009232849222814754,0.014846383372249824,-0.019490564532413147,-11.190467602485585,-11.940781448864826,-0.03874870289137091,-3.4319894221375757
18.77151894569397,0.15055686235427856,-0.31994980573654175,-6.538082122802734,0.008879150967040252,0.000934600830078125,6.0,0.0,-0.272694928843339,-6.775319757590438,0.07332752470863789,0.7507039042133763,0.01170491470149454,0.01291442562912802,-0.017273149739806325,-8.675509073518143,-13.97408720229234,1.7049894333747047,-6.279464603148656
18.782132148742676,0.15330839157104492,-0.3239429295063019,-6.52054500579834,0.008710882593546746,0.0010716915130615234,6.0,0.0,-0.28120634331352123,-6.754213240499023,0.07127237449192748,0.750582671297822,0.012993965121416928,0.011865141330136228,-0.015796873319995842,-12.040899412536621,-12.04109941253662,-0.5288823412895203,-0.5290823412895203
18.791685819625854,0.15330839157104492,-0.3239429295063019,-6.52054500579834,0.008710882593546746,0.0013604164123535156,6.0,0.0,-0.28960327034253497,-6.733076143721704,0.06934665139164103,0.7499853637364278,-0.004863292831659649,0.011750345715064522,-0.01499907322334065,-11.908143320937999,-11.928849812706865,-0.510376146038921,-1.1721392620033055
18.80187749862671,0.1586877405643463,-0.3318909704685211,-6.485636234283447,0.008378513655733902,0.0010106563568115234,6.0,0.0,-0.2978903186640943,-6.7119107271383,0.0675455216238875,0.7503234824321522,0.01361163676247279,0.01018093180239268,-0.014376635743830704,-11.691639681598208,-11.832201863563196,-0.46111133660411996,-2.0283494628015006
18.81160044670105,0.1586877405643463,-0.3318909704685211,-6.485636234283447,0.008378513655733902,0.0012209415435791016,6.0,0.0,-0.3060718854366742,-6.690719144233448,0.06586420947396507,0.7497283784941797,-0.004049194513128684,0.01006816683785683,-0.013899246188121887,-11.190467602485585,-11.940781448864826,-0.03874870289137091,-3.4319894221375757
