time,x,y,z,yaw,ctrl_comp_time,rollout_comptime,y_ref,z_ref,yaw_ref,throttle,roll_rate,pitch_rate,yaw_rate,save_tube_pyH,save_tube_pyL,save_tube_pzH,save_tube_pzL,wy,wz
15.077564001083374,0.14444249868392944,3.373126745223999,-12.455706596374512,-0.00047989951699454157,0.14504218101501465,6.0,3.3737398106263865,-12.455989346371505,-0.005668673846204053,0.583634913570063,-1.0,0.07844970685284235,0.015179321468816346,3.373626745223999,3.372626745223999,-12.455206596374511,-12.456206596374512,-0.04825899157049146,0.012232439147488809
15.833102703094482,0.1459040492773056,3.441206932067871,-12.385430335998535,-0.002752259595583173,0.19769859313964844,6.0,3.3743564083882545,-12.45590015452044,-0.015668673846204052,0.6549131869255946,1.0,0.10033723318404028,0.15482799314043916,3.378130759985193,3.3730506071317503,-12.454036515681318,-12.455200748713093,-0.01753531057255031,-7.543983642436843
15.991980791091919,0.1459040492773056,3.441206932067871,-12.385430335998535,-0.002752259595583173,0.0013506412506103516,6.0,3.374974182536283,-12.455442233018795,-0.025668673846204054,0.6445833318638673,-1.0,0.15963090299404928,0.14859984628814177,3.3881029814606256,3.367880922309028,-12.446407166337032,-12.449038053852844,0.4342982442939638,1.1970989421976705
15.999800205230713,0.14331485331058502,3.2257657051086426,-11.853009223937988,-0.009869500283449018,0.0012857913970947266,6.0,3.3755906835584715,-12.454618632197207,-0.035668673846204056,0.7253433964792237,1.0,-0.1516855691735422,-0.4677303443941902,3.4040894728471836,3.356222058887187,-12.431248076869876,-12.439103332833188,0.4342982442939638,1.1970989421976705
16.00957942008972,0.1420873999595642,3.215355634689331,-11.836576461791992,-0.009840938624540718,0.0014259815216064453,6.0,3.376203372995571,-12.453432237472843,-0.04566867384620406,0.7257084838917304,1.0,-0.2400189370101442,-0.3130348822930828,3.427766100360109,3.336015530260103,-12.406516308994558,-12.427662861365402,1.229050195750606,1.37235082730226
16.01970887184143,0.14084260165691376,3.2047181129455566,-11.82000732421875,-0.009792464317911365,0.001306295394897461,6.0,3.376809628121811,-12.451885766434975,-0.05566867384620406,0.726103558494078,1.0,-0.2676329551972837,-0.26403834129473625,3.4631829613399234,3.3028061191460636,-12.368082143384408,-12.418974597030878,1.229050195750606,1.37235082730226
16.029960870742798,0.13829725980758667,3.1827714443206787,-11.786478042602539,-0.00969697569576325,0.002514362335205078,6.0,3.3774067467111024,-12.44998176606524,-0.06566867384620406,0.7274739498102605,1.0,-0.2846145837375343,-0.24486597573198046,3.5198151961019044,3.246702051312047,-12.307026956201481,-12.421987437474646,1.229050195750606,1.37235082730226
16.04298448562622,0.13697534799575806,3.171443223953247,-11.769553184509277,-0.009700433208848225,0.0028781890869140625,6.0,3.3737398106263865,-12.455989346371505,-0.005668673846204053,0.7274227294641034,1.0,-0.29537019220366856,-0.23869003408144568,3.373626745223999,3.372626745223999,-12.455206596374511,-12.456206596374512,1.229050195750606,1.37235082730226
16.052706480026245,0.13697534799575806,3.171443223953247,-11.769553184509277,-0.009700433208848225,0.0014500617980957031,6.0,3.3743564083882536,-12.45590015452044,-0.015668673846204052,0.7267640068701615,1.0,-0.2996782963680151,-0.23955779906724758,3.3781307599851886,3.373050607131746,-12.454036515681317,-12.455200748713093,1.229050195750606,1.37235082730226
16.06002974510193,0.13431459665298462,3.1465466022491455,-11.734909057617188,-0.009483854215029425,0.0014882087707519531,6.0,3.3749741825362807,-12.455442233018795,-0.025668673846204054,0.7268529495440194,1.0,-0.3101855391540596,-0.23600457670803016,3.3881029814606056,3.3678809223090083,-12.44640716633703,-12.449038053852844,1.229050195750606,1.37235082730226
16.069815635681152,0.13159388303756714,3.1192450523376465,-11.699522018432617,-0.008693800714953487,0.001425027847290039,6.0,3.375590683558467,-12.454618632197207,-0.035668673846204056,0.7267800468207033,1.0,-0.3190710111880273,-0.2317753508558954,3.4040894728471365,3.35622205888714,-12.431248076869872,-12.439103332833184,1.229050195750606,1.37235082730226
16.08026885986328,0.1301865577697754,3.105274200439453,-11.681793212890625,-0.008123414701364629,0.003148794174194336,6.0,3.3762033729955636,-12.453432237472843,-0.04566867384620406,0.7264615568490034,1.0,-0.32349018671572183,-0.229818357719472,3.4277661003600244,3.336015530260017,-12.406516308994554,-12.427662861365391,1.229050195750606,1.37235082730226
16.090681314468384,0.1301865577697754,3.105274200439453,-11.681793212890625,-0.008123414701364629,0.0025942325592041016,6.0,3.3768096281218,-12.451885766434975,-0.05566867384620406,0.7258889320754729,1.0,-0.32533601669904066,-0.230535791525233,3.4631829613397898,3.3028061191459246,-12.368082143384408,-12.418974597030854,1.229050195750606,1.37235082730226
16.102854251861572,0.12728041410446167,3.0767080783843994,-11.646272659301758,-0.00680736411591118,0.002216339111328125,6.0,3.377406746711087,-12.44998176606524,-0.06566867384620406,0.7259159099095334,1.0,-0.3256093794721587,-0.22576879416547482,3.519815196101713,3.246702051311837,-12.307026956201492,-12.421987437474597,1.229050195750606,1.37235082730226
16.26774287223816,0.12728041410446167,3.0767080783843994,-11.646272659301758,-0.00680736411591118,0.0016951560974121094,6.0,3.4420755598662773,-12.376658934965624,-0.27790434541454234,0.7115849561706371,-1.0,-0.3253460601008138,-0.2240119647932654,3.4417069320678713,3.440706932067871,-12.384930335998535,-12.385930335998536,0.19969817148047575,-1.3791268016741665
16.27445125579834,0.09222187101840973,2.7012388706207275,-11.25194263458252,0.00039814911962225696,0.002026796340942383,6.0,3.442847855711908,-12.367595448384316,-0.28790434541454235,0.7204762990078034,0.45841330169293704,-0.18955160218921815,0.05018872097157669,3.4466902948034575,3.441485291586891,-12.346959461518196,-12.350203212630342,0.19969817148047575,-1.3791268016741665
16.28358244895935,0.09222187101840973,2.7012388706207275,-11.25194263458252,0.00039814911962225696,0.002103567123413086,6.0,3.443519887056018,-12.358237207359704,-0.29790434541454236,0.7198892957841211,0.22626799598160985,-0.1563979888089578,-0.01066689365123766,3.456006544361126,3.434481028003887,-12.300727509136875,-12.31310639652742,0.19969817148047575,-1.3791268016741665
16.292175769805908,0.08895285427570343,2.663039445877075,-11.215958595275879,-0.00011422208126858624,0.001421213150024414,6.0,3.444087793195174,-12.34858133707427,-0.30790434541454237,0.7205219429831768,0.08993823523623456,-0.13190777154786038,-0.027115037424021077,3.471257094769346,3.4176378291860448,-12.244597874811113,-12.275818498126426,0.19969817148047575,-1.3791268016741665
16.29993200302124,0.08732111752033234,2.643831968307495,-11.197966575622559,-0.0004460279057930949,0.0013501644134521484,6.0,3.4445477910044144,-12.338624758374554,-0.3179043454145424,0.7205654117091466,-0.10194326749816951,-0.11420845328852433,-0.028835734826734495,3.4962156257930634,3.386781110032714,-12.175321944070276,-12.241030933068295,0.19969817148047575,-1.3791268016741665
16.309626817703247,0.08400183171033859,2.604558229446411,-11.161558151245117,-0.0012070882650756787,0.0015728473663330078,6.0,3.444896180632464,-12.32836418951165,-0.3279043454145424,0.7211486018125804,-0.24440703696755461,-0.09269190971674583,-0.02022497859851621,3.5392080820072147,3.333248958329738,-12.086384256439715,-12.214608277980153,0.2031995228392196,-1.3642883983000291
16.31970191001892,0.08230913430452347,2.5845208168029785,-11.143128395080566,-0.001641836752020967,0.0013592243194580078,6.0,3.4451293511550616,-12.317796148034171,-0.3379043454145424,0.7211405995268264,-0.4321617771107187,-0.0758290173531362,-0.011253613309525425,3.6184253271779445,3.238589845272157,-11.964472928409178,-12.209124492703726,0.2031995228392196,-1.3642883983000291
16.32982039451599,0.08062568306922913,2.564441680908203,-11.124717712402344,-0.002124951748839768,0.0014445781707763672,6.0,3.442847855711908,-12.367595448384316,-0.28790434541454235,0.7211464860976851,-0.6191509809595419,-0.061729875659471106,-0.002354501990736817,3.4417069320678713,3.440706932067871,-12.384930335998535,-12.385930335998536,0.2031995228392196,-1.3642883983000291
16.33969521522522,0.07895289361476898,2.5443243980407715,-11.1063232421875,-0.0026498727297473434,0.00212860107421875,6.0,3.443519887056018,-12.358237207359704,-0.29790434541454236,0.7211594793458214,-0.8050382729760956,-0.049729114622915724,0.0049713662174320425,3.4466902948034575,3.441485291586891,-12.346959461518196,-12.350203212630342,0.2031995228392196,-1.3642883983000291
16.495178937911987,0.05055416002869606,2.1506764888763428,-10.764081954956055,-0.013093407073291027,0.0014507770538330078,6.0,3.444087793195174,-12.34858133707427,-0.30790434541454237,0.699496374760441,1.0,0.008823612650964173,0.06881318419414122,3.456006544361126,3.434481028003887,-12.300727509136875,-12.31310639652742,0.2031995228392196,-1.3642883983000291
16.504884958267212,0.04926289618015289,2.1291847229003906,-10.746397018432617,-0.01351849884537537,0.0012655258178710938,6.0,3.4445477910044144,-12.338624758374554,-0.3179043454145424,0.6988393729086302,1.0,0.0302101960853173,0.03565741652263756,3.471257094769346,3.4176378291860448,-12.244597874811113,-12.275818498126426,0.2812151461355037,-2.229959572224435
16.51279354095459,0.04673941433429718,2.0860211849212646,-10.711029052734375,-0.014325455830270326,0.002559661865234375,6.0,3.444896180632464,-12.32836418951165,-0.3279043454145424,0.698283590992391,1.0,0.04345575878933494,0.02239087756148373,3.4962156257930634,3.386781110032714,-12.175321944070276,-12.241030933068295,0.2812151461355037,-2.229959572224435
16.521084308624268,0.04550761356949806,2.064340829849243,-10.693314552307129,-0.014708125215165138,0.0012781620025634766,6.0,3.4451293511550616,-12.317796148034171,-0.3379043454145424,0.6975875389026939,1.0,0.05153279864597788,0.01640625765053858,3.5392080820072147,3.333248958329738,-12.086384256439715,-12.214608277980153,0.2812151461355037,-2.229959572224435
16.529709815979004,0.044296007603406906,2.042587995529175,-10.675580024719238,-0.01507261412913112,0.0018312931060791016,6.0,3.445243786182507,-12.306916952832147,-0.3479043454145424,0.6968593481411902,1.0,0.05741723030291275,0.012938167388931164,3.6184253271779445,3.238589845272157,-11.964472928409178,-12.209124492703726,0.2812151461355037,-2.229959572224435
16.539652824401855,0.043090056627988815,2.0207629203796387,-10.657830238342285,-0.01542371153925201,0.001720428466796875,6.0,3.443519887056018,-12.358237207359704,-0.29790434541454236,0.6961403102360495,1.0,0.0623382674231914,0.010260895812454958,3.4417069320678713,3.440706932067871,-12.384930335998535,-12.385930335998536,0.2812151461355037,-2.229959572224435
16.549805164337158,0.04073990881443024,1.9768614768981934,-10.622268676757812,-0.016122291865980548,0.0014216899871826172,6.0,3.444087793195174,-12.34858133707427,-0.30790434541454237,0.6957245193660737,1.0,0.06876003937511409,0.006692255801916552,3.4466902948034575,3.441485291586891,-12.346959461518196,-12.350203212630342,0.2812151461355037,-2.229959572224435
16.559789419174194,0.039879828691482544,1.9545273780822754,-10.603842735290527,-0.016482194456275384,0.0014619827270507812,6.0,3.4445477910044144,-12.338624758374554,-0.3179043454145424,0.6953373632092867,1.0,0.07367673589151634,0.0036903988849779105,3.456006544361126,3.434481028003887,-12.300727509136875,-12.31310639652742,0.2812151461355037,-2.229959572224435
16.56964683532715,0.03903474286198616,1.9321144819259644,-10.585395812988281,-0.016847942498322138,0.0013768672943115234,6.0,3.444896180632464,-12.32836418951165,-0.3279043454145424,0.6950423092524628,1.0,0.07765406763574033,0.0010175762948212205,3.471257094769346,3.4176378291860448,-12.244597874811113,-12.275818498126426,0.2812151461355037,-2.229959572224435
16.74588680267334,0.03903474286198616,1.9321144819259644,-10.585395812988281,-0.016847942498322138,0.0014524459838867188,6.0,3.4451293511550616,-12.317796148034171,-0.3379043454145424,0.7003395068677725,1.0,0.07935685779556163,-0.0004891564187841976,3.4962156257930634,3.386781110032714,-12.175321944070276,-12.241030933068295,0.2812151461355037,-2.229959572224435
16.754728078842163,0.026820844039320946,1.3947317600250244,-10.150927543640137,-0.02472465839449884,0.0011277198791503906,6.0,3.445243786182507,-12.306916952832147,-0.3479043454145424,0.7194516777717095,1.0,0.07362931034641612,0.004898296868765837,3.5392080820072147,3.333248958329738,-12.086384256439715,-12.214608277980153,0.19038066338291593,-1.6233439191048942
16.76183032989502,0.026585744693875313,1.370790719985962,-10.131567001342773,-0.02495794097022511,0.0013744831085205078,6.0,3.4452360694176076,-12.295722726330256,-0.3579043454145424,0.7198319789776035,1.0,0.07026012049609247,0.008137809574059707,3.6184253271779445,3.238589845272157,-11.964472928409178,-12.209124492703726,0.19038066338291593,-1.6233439191048942
16.76952576637268,0.02635590173304081,1.346871018409729,-10.112170219421387,-0.025178629531929078,0.0012586116790771484,6.0,3.444087793195174,-12.34858133707427,-0.30790434541454237,0.7202200943378114,1.0,0.06763970433150253,0.0104696537875278,3.4417069320678713,3.440706932067871,-12.384930335998535,-12.385930335998536,0.19038066338291593,-1.6233439191048942
16.779993772506714,0.02613125927746296,1.3229769468307495,-10.09273910522461,-0.02539053443577318,0.001466989517211914,6.0,3.4445477910044144,-12.338624758374554,-0.3179043454145424,0.7205999178656296,1.0,0.0653625044269219,0.012376580204620732,3.4466902948034575,3.441485291586891,-12.346959461518196,-12.350203212630342,0.19038066338291593,-1.6233439191048942
16.789690494537354,0.02613125927746296,1.3229769468307495,-10.09273910522461,-0.02539053443577318,0.0014257431030273438,6.0,3.444896180632464,-12.32836418951165,-0.3279043454145424,0.7196561761946867,1.0,0.06446441302879942,0.012956613227687918,3.456006544361126,3.434481028003887,-12.300727509136875,-12.31310639652742,0.19038066338291593,-1.6233439191048942
16.94295334815979,0.024387819692492485,0.8509637117385864,-9.702739715576172,-0.02724404016349364,0.0026907920837402344,6.0,3.4451293511550616,-12.317796148034171,-0.3379043454145424,0.7234746723427483,0.8532220553803256,0.03696158985387214,0.04621483712424133,3.471257094769346,3.4176378291860448,-12.244597874811113,-12.275818498126426,0.19038066338291593,-1.6233439191048942
16.956514358520508,0.024387819692492485,0.8509637117385864,-9.702739715576172,-0.02724404016349364,0.0023796558380126953,6.0,3.445243786182507,-12.306916952832147,-0.3479043454145424,0.7222425584553978,0.8310919928418372,0.032748341949801106,0.03821420273474029,3.4962156257930634,3.386781110032714,-12.175321944070276,-12.241030933068295,0.4985760225334168,-0.8059512433018523
16.96846652030945,0.02483552321791649,0.7815776467323303,-9.645651817321777,-0.02715313538822771,0.002163410186767578,6.0,3.4452360694176076,-12.295722726330256,-0.3579043454145424,0.725413887102771,0.6989572996371087,0.028615337031515097,0.03530080672472417,3.5392080820072147,3.333248958329738,-12.086384256439715,-12.214608277980153,0.4985760225334168,-0.8059512433018523
16.97668147087097,0.02483552321791649,0.7815776467323303,-9.645651817321777,-0.02715313538822771,0.0014123916625976562,6.0,3.445102890160258,-12.284209396828686,-0.3679043454145424,0.7241417848057996,0.6825772391046667,0.027544478473224283,0.032320718786271116,3.6184253271779445,3.238589845272157,-11.964472928409178,-12.209124492703726,0.4985760225334168,-0.8059512433018523
16.9838125705719,0.025136668235063553,0.7360638380050659,-9.607470512390137,-0.0270460777121031,0.0012907981872558594,6.0,3.4445477910044144,-12.338624758374554,-0.3179043454145424,0.7258954304333425,0.5799059057665228,0.025014268061249297,0.03225927156495258,3.4417069320678713,3.440706932067871,-12.384930335998535,-12.385930335998536,0.4985760225334168,-0.8059512433018523
16.99041223526001,0.025136668235063553,0.7360638380050659,-9.607470512390137,-0.0270460777121031,0.0014574527740478516,6.0,3.444896180632464,-12.32836418951165,-0.3279043454145424,0.7245957771415239,0.5690071217017978,0.024378909385262108,0.031113049622540658,3.4466902948034575,3.441485291586891,-12.346959461518196,-12.350203212630342,0.4985760225334168,-0.8059512433018523
16.999915838241577,0.025434616953134537,0.6911826133728027,-9.569160461425781,-0.026901478790340175,0.0014493465423583984,6.0,3.4451293511550616,-12.317796148034171,-0.3379043454145424,0.7263388926720105,0.46291767332617995,0.022167062344714234,0.03174857417141318,3.456006544361126,3.434481028003887,-12.300727509136875,-12.31310639652742,0.4985760225334168,-0.8059512433018523
17.009547233581543,0.02558250166475773,0.6689901947975159,-9.549959182739258,-0.02682184677332143,0.0013668537139892578,6.0,3.445243786182507,-12.306916952832147,-0.3479043454145424,0.7265418188222529,0.4063497326250515,0.020782174534496458,0.0316021224301035,3.471257094769346,3.4176378291860448,-12.244597874811113,-12.275818498126426,0.6581452959105305,-0.8410714125379455
17.019745588302612,0.025729726999998093,0.6469691395759583,-9.530759811401367,-0.026741370915483856,0.0012960433959960938,6.0,3.4452360694176076,-12.295722726330256,-0.3579043454145424,0.7267376376497918,0.35188009454065106,0.019686046356359663,0.0314418667826849,3.4962156257930634,3.386781110032714,-12.175321944070276,-12.241030933068295,0.6581452959105305,-0.8410714125379455
17.17990207672119,0.025729726999998093,0.6469691395759583,-9.530759811401367,-0.026741370915483856,0.0014913082122802734,6.0,3.445102890160258,-12.284209396828686,-0.3679043454145424,0.7115568632509988,1.0,0.01942791185611675,0.03094749401958323,3.5392080820072147,3.333248958329738,-12.086384256439715,-12.214608277980153,0.6581452959105305,-0.8410714125379455
17.189516067504883,0.023488393053412437,0.23701144754886627,-9.11567211151123,-0.024375417494153256,0.0012366771697998047,6.0,3.4448410487549657,-12.272372700989811,-0.37790434541454243,0.7426597179291003,-0.007133694017109615,0.0105254957821714,0.031473913357081496,3.6184253271779445,3.238589845272157,-11.964472928409178,-12.209124492703726,0.8207976331469271,-1.5662057039665576
17.200318098068237,0.023842165246605873,0.20423972606658936,-9.07523250579834,-0.024064414387917288,0.001873016357421875,6.0,3.444896180632464,-12.32836418951165,-0.3279043454145424,0.744540431845386,-0.07907859220692304,0.008831379020915265,0.03083500432710467,3.4417069320678713,3.440706932067871,-12.384930335998535,-12.385930335998536,0.8207976331469271,-1.5662057039665576
17.211088180541992,0.024020185694098473,0.18814842402935028,-9.054963111877441,-0.023905937851834785,0.0013666152954101562,6.0,3.4451293511550616,-12.317796148034171,-0.3379043454145424,0.7448500480108817,-0.08534762786604722,0.008197394447144356,0.030014616817721176,3.4466902948034575,3.441485291586891,-12.346959461518196,-12.350203212630342,0.2298481225554445,-0.017289414895319544
17.219584941864014,0.024198971688747406,0.17225559055805206,-9.034693717956543,-0.02374423016536925,0.0013942718505859375,6.0,3.445243786182507,-12.306916952832147,-0.3479043454145424,0.7451648021174515,-0.09017982749467124,0.0078366550849463,0.029385227583116017,3.456006544361126,3.434481028003887,-12.300727509136875,-12.31310639652742,0.2298481225554445,-0.017289414895319544
17.229866981506348,0.024378597736358643,0.15656307339668274,-9.01439094543457,-0.023577966891372037,0.0016937255859375,6.0,3.4452360694176076,-12.295722726330256,-0.3579043454145424,0.7454375528502796,-0.0950804520137567,0.007564834741783729,0.028931273200334933,3.471257094769346,3.4176378291860448,-12.244597874811113,-12.275818498126426,0.2298481225554445,-0.017289414895319544
17.23959755897522,0.02474241703748703,0.12579011917114258,-8.97371768951416,-0.023246550347672396,0.001344919204711914,6.0,3.445102890160258,-12.284209396828686,-0.3679043454145424,0.7470306914918992,-0.17186693970043332,0.007295550968497136,0.028472148319170703,3.4962156257930634,3.386781110032714,-12.175321944070276,-12.241030933068295,0.2298481225554445,-0.017289414895319544
17.249773740768433,0.024926522746682167,0.11071774363517761,-8.95335865020752,-0.02308477677185744,0.001369476318359375,6.0,3.4448410487549657,-12.272372700989811,-0.37790434541454243,0.7471517104782565,-0.1700647348323161,0.007191107530280833,0.028290991218364144,3.5392080820072147,3.333248958329738,-12.086384256439715,-12.214608277980153,0.2298481225554445,-0.017289414895319544
17.417612075805664,0.022172311320900917,-0.14252188801765442,-8.527800559997559,-0.019646289474209655,0.0024657249450683594,6.0,3.444447461977696,-12.26020818646877,-0.38790434541454244,0.7581331762469463,-0.22365731434241587,0.004378515042450255,0.027280273360764034,3.6184253271779445,3.238589845272157,-11.964472928409178,-12.209124492703726,0.2298481225554445,-0.017289414895319544
17.43173050880432,0.022172311320900917,-0.14252188801765442,-8.527800559997559,-0.019646289474209655,0.0022351741790771484,6.0,3.4451293511550616,-12.317796148034171,-0.3379043454145424,0.7571444915330964,-0.12001825076159678,0.0036169422159679776,0.025801157216460213,3.4417069320678713,3.440706932067871,-12.384930335998535,-12.385930335998536,0.15482078257712573,-0.24367902265768204
17.44472336769104,0.021234117448329926,-0.1690436452627182,-8.466415405273438,-0.019116335297205134,0.002540111541748047,6.0,3.445243786182507,-12.306916952832147,-0.3479043454145424,0.7593131738318568,-0.1823871599791862,0.0024738874680461666,0.024532051387871432,3.4466902948034575,3.441485291586891,-12.346959461518196,-12.350203212630342,0.15482078257712573,-0.24367902265768204
17.454407691955566,0.021234117448329926,-0.1690436452627182,-8.466415405273438,-0.019116335297205134,0.0017702579498291016,6.0,3.4452360694176076,-12.295722726330256,-0.3579043454145424,0.7583556616491212,-0.07204651464672329,0.002047198838222755,0.023756154938331667,3.456006544361126,3.434481028003887,-12.300727509136875,-12.31310639652742,0.15482078257712573,-0.24367902265768204
17.466784715652466,0.020363418385386467,-0.18412460386753082,-8.424660682678223,-0.018749671756187275,0.0024361610412597656,6.0,3.445102890160258,-12.284209396828686,-0.3679043454145424,0.7594530658906563,-0.0796790020785334,0.0009667526958939894,0.022985090424145198,3.471257094769346,3.4176378291860448,-12.244597874811113,-12.275818498126426,0.15482078257712573,-0.24367902265768204
17.479162216186523,0.01914461888372898,-0.20553313195705414,-8.36221981048584,-0.018194736264669192,0.0026175975799560547,6.0,3.4448410487549657,-12.272372700989811,-0.37790434541454243,0.761286810715051,-0.14556694717514373,-0.0004856549912161974,0.02233934797765964,3.4962156257930634,3.386781110032714,-12.175321944070276,-12.241030933068295,0.15482078257712573,-0.24367902265768204
17.656419277191162,0.01914461888372898,-0.20553313195705414,-8.36221981048584,-0.018194736264669192,0.0013232231140136719,6.0,3.444447461977696,-12.26020818646877,-0.38790434541454244,0.743257632695065,1.0,-0.0008652392722628397,0.021664089952375395,3.5392080820072147,3.333248958329738,-12.086384256439715,-12.214608277980153,0.15482078257712573,-0.24367902265768204
17.67211627960205,0.006169831845909357,-0.3077881634235382,-7.895019054412842,-0.014084688339172924,0.0025098323822021484,6.0,3.443919168358488,-12.247711214685955,-0.39790434541454245,0.7602757011524112,-0.3778389243314162,-0.006220848048579164,0.011452380488080146,3.6184253271779445,3.238589845272157,-11.964472928409178,-12.209124492703726,0.4809800415891621,-1.4263193109441432
17.682475566864014,0.006169831845909357,-0.3077881634235382,-7.895019054412842,-0.014084688339172924,0.002490997314453125,6.0,3.445243786182507,-12.306916952832147,-0.3479043454145424,0.7594608914344918,-0.25583907142897844,-0.009634331858027922,0.014350721673287445,3.4417069320678713,3.440706932067871,-12.384930335998535,-12.385930335998536,0.4809800415891621,-1.4263193109441432
17.694733142852783,0.0044616940431296825,-0.31258058547973633,-7.835844039916992,-0.013533992439126577,0.0023162364959716797,6.0,3.4452360694176076,-12.295722726330256,-0.3579043454145424,0.7604561079444168,-0.33325957683348895,-0.010661057864336526,0.01382481071250368,3.4466902948034575,3.441485291586891,-12.346959461518196,-12.350203212630342,0.4809800415891621,-1.4263193109441432
17.703890085220337,0.0044616940431296825,-0.31258058547973633,-7.835844039916992,-0.013533992439126577,0.0021038055419921875,6.0,3.445102890160258,-12.284209396828686,-0.3679043454145424,0.7596649703941233,-0.20491207490657093,-0.010929646589839716,0.013581523722972971,3.456006544361126,3.434481028003887,-12.300727509136875,-12.31310639652742,0.4809800415891621,-1.4263193109441432
17.718346118927002,0.0026215638499706984,-0.31331491470336914,-7.758247375488281,-0.012859826604651528,0.0012028217315673828,6.0,3.4448410487549657,-12.272372700989811,-0.37790434541454243,0.7608597320234728,-0.42184084635443875,-0.010968385076333293,0.011882240106188612,3.471257094769346,3.4176378291860448,-12.244597874811113,-12.275818498126426,0.10250918897678396,-0.8603914768228433
17.88172483444214,0.0026215638499706984,-0.31331491470336914,-7.758247375488281,-0.012859826604651528,0.0013387203216552734,6.0,3.444447461977696,-12.26020818646877,-0.38790434541454244,0.7475326476660727,1.0,-0.0111541033089695,0.01224875303187056,3.4962156257930634,3.386781110032714,-12.175321944070276,-12.241030933068295,0.10250918897678396,-0.8603914768228433
17.89094352722168,-0.0018687433330342174,-0.27862825989723206,-7.351624965667725,-0.010133515735907442,0.001870870590209961,6.0,3.443919168358488,-12.247711214685955,-0.39790434541454245,0.7577956628637118,-0.17974793466492844,0.005192991698492765,-0.01774503785875878,3.5392080820072147,3.333248958329738,-12.086384256439715,-12.214608277980153,0.35675710015391804,-1.7978858729176224
17.90012788772583,-0.0018687433330342174,-0.27862825989723206,-7.351624965667725,-0.010133515735907442,0.0013513565063476562,6.0,3.443253333436369,-12.234876963739321,-0.40790434541454246,0.7570824949387152,-0.04796480822812077,-0.0014395777731653076,0.001007093855138505,3.6184253271779445,3.238589845272157,-11.964472928409178,-12.209124492703726,0.35675710015391804,-1.7978858729176224
17.910006999969482,-0.0018766511930152774,-0.2721859812736511,-7.313060283660889,-0.009909746593713797,0.0014798641204833984,6.0,3.4452360694176076,-12.295722726330256,-0.3579043454145424,0.7573477713650454,-6.025696837941297e-06,0.0017474148263899245,0.005367351858918809,3.4417069320678713,3.440706932067871,-12.384930335998535,-12.385930335998536,-0.02122919583852445,-0.9698903663406027
17.919649839401245,-0.0018766511930152774,-0.2721859812736511,-7.313060283660889,-0.009909746593713797,0.001348733901977539,6.0,3.445102890160258,-12.284209396828686,-0.3679043454145424,0.7566491252892379,0.1376493862006808,0.0028927001283130757,0.008745181388807331,3.4466902948034575,3.441485291586891,-12.346959461518196,-12.350203212630342,-0.02122919583852445,-0.9698903663406027
17.930164098739624,-0.0018234547460451722,-0.26199910044670105,-7.2556071281433105,-0.009580830426982878,0.002012491226196289,6.0,3.4448410487549657,-12.272372700989811,-0.37790434541454243,0.7572090994796503,0.13301442644918826,0.005992907669278654,0.009285221872782735,3.456006544361126,3.434481028003887,-12.300727509136875,-12.31310639652742,-0.02122919583852445,-0.9698903663406027
17.93966817855835,-0.0018234547460451722,-0.26199910044670105,-7.2556071281433105,-0.009580830426982878,0.0013549327850341797,6.0,3.444447461977696,-12.26020818646877,-0.38790434541454244,0.7565273057346061,0.2764907202968976,0.006501560960493014,0.01160091088464265,3.471257094769346,3.4176378291860448,-12.244597874811113,-12.275818498126426,-0.02122919583852445,-0.9698903663406027
17.952664375305176,-0.0021008236799389124,-0.25391843914985657,-7.217828273773193,-0.009370060560144347,0.0022957324981689453,6.0,3.443919168358488,-12.247711214685955,-0.39790434541454245,0.7566141702417863,0.21851119597436197,0.008309064295552825,0.011583600059021494,3.4962156257930634,3.386781110032714,-12.175321944070276,-12.241030933068295,-0.02122919583852445,-0.9698903663406027
18.106916904449463,-0.0021008236799389124,-0.25391843914985657,-7.217828273773193,-0.009370060560144347,0.0024585723876953125,6.0,3.443253333436369,-12.234876963739321,-0.40790434541454246,0.7474158724640356,0.1636434115206935,0.008529566780639729,0.013170276506366638,3.5392080820072147,3.333248958329738,-12.086384256439715,-12.214608277980153,-0.02122919583852445,-0.9698903663406027
18.118035078048706,-0.0033005927689373493,-0.14630946516990662,-6.847637176513672,-0.007224500474659223,0.0012395381927490234,6.0,3.4424472549431635,-12.221700431454332,-0.41790434541454247,0.7548466191294082,-1.0,0.014292540942998932,0.01091856623665372,3.6184253271779445,3.238589845272157,-11.964472928409178,-12.209124492703726,0.09416818747963074,-1.5812884542775458
18.122731685638428,-0.0033005927689373493,-0.14630946516990662,-6.847637176513672,-0.007224500474659223,0.001184701919555664,6.0,3.445102890160258,-12.284209396828686,-0.3679043454145424,0.7541760101860402,-1.0,0.014500132308671964,0.012261370231450337,3.4417069320678713,3.440706932067871,-12.384930335998535,-12.385930335998536,0.09416818747963074,-1.5812884542775458
18.130139112472534,-0.002726140432059765,-0.13305924832820892,-6.810744762420654,-0.007038381575946023,0.00157928466796875,6.0,3.4448410487549657,-12.272372700989811,-0.37790434541454243,0.7542321204957233,-1.0,0.01576530703607841,0.013479764831325848,3.4466902948034575,3.441485291586891,-12.346959461518196,-12.350203212630342,0.09416818747963074,-1.5812884542775458
18.139676094055176,-0.0024251819122582674,-0.12633410096168518,-6.792348861694336,-0.006945779491911858,0.0014219284057617188,6.0,3.444447461977696,-12.26020818646877,-0.38790434541454244,0.753923082513727,-1.0,0.016613502709751975,0.014324288934324653,3.456006544361126,3.434481028003887,-12.300727509136875,-12.31310639652742,0.09416818747963074,-1.5812884542775458
18.149774312973022,-0.002115231938660145,-0.11953960359096527,-6.773984909057617,-0.00685198257915616,0.0015268325805664062,6.0,3.443919168358488,-12.247711214685955,-0.39790434541454245,0.7536271680046596,-1.0,0.0173685998851713,0.01501837139140039,3.471257094769346,3.4176378291860448,-12.244597874811113,-12.275818498126426,0.09416818747963074,-1.5812884542775458
18.159761667251587,-0.0018125397618860006,-0.11268205940723419,-6.755652904510498,-0.006760736754223187,0.0015952587127685547,6.0,3.443253333436369,-12.234876963739321,-0.40790434541454246,0.7532953328884134,-1.0,0.01807893268701318,0.01564308767074952,3.4962156257930634,3.386781110032714,-12.175321944070276,-12.241030933068295,0.09416818747963074,-1.5812884542775458
18.169737815856934,-0.0011805059621110559,-0.09873618185520172,-6.719111919403076,-0.0065676609062516045,0.0015072822570800781,6.0,3.4424472549431635,-12.221700431454332,-0.41790434541454247,0.7532005597054646,-1.0,0.01910531314764058,0.01635609978311398,3.5392080820072147,3.333248958329738,-12.086384256439715,-12.214608277980153,0.09416818747963074,-1.5812884542775458
18.179705381393433,-0.0008513531647622585,-0.09164366126060486,-6.700938701629639,-0.006464507558614718,0.001445770263671875,6.0,3.441498367912889,-12.208176438569284,-0.4279043454145425,0.7528733536978247,-1.0,0.019635430976774556,0.01681222656723265,3.6184253271779445,3.238589845272157,-11.964472928409178,-12.209124492703726,0.09416818747963074,-1.5812884542775458
18.350341081619263,0.01168900541961193,0.07606402784585953,-6.341404438018799,-0.003863199408074159,0.0011687278747558594,6.0,3.4448410487549657,-12.272372700989811,-0.37790434541454243,0.7574792213885395,-1.0,0.018131188353650324,0.008174718535088832,3.4417069320678713,3.440706932067871,-12.384930335998535,-12.385930335998536,0.09416818747963074,-1.5812884542775458
18.36027503013611,0.012554659508168697,0.08493868261575699,-6.324347496032715,-0.0037340740734278545,0.0011928081512451172,6.0,3.444447461977696,-12.26020818646877,-0.38790434541454244,0.757353008645277,-1.0,0.01759838720813725,0.004765401004128473,3.4466902948034575,3.441485291586891,-12.346959461518196,-12.350203212630342,-0.29047210134444035,-0.5851090919794288
18.369752168655396,0.014274906367063522,0.10260842740535736,-6.290317535400391,-0.003472176831179126,0.001329660415649414,6.0,3.443919168358488,-12.247711214685955,-0.39790434541454245,0.7577628710626555,-1.0,0.017228469160276427,0.0026706581591719233,3.456006544361126,3.434481028003887,-12.300727509136875,-12.31310639652742,-0.29047210134444035,-0.5851090919794288
18.37982201576233,0.01512955129146576,0.11139432340860367,-6.273373603820801,-0.0033443242182953758,0.0013926029205322266,6.0,3.443253333436369,-12.234876963739321,-0.40790434541454246,0.7576525079359502,-1.0,0.017109963558497893,0.001674453699158614,3.471257094769346,3.4176378291860448,-12.244597874811113,-12.275818498126426,-0.29047210134444035,-0.5851090919794288
18.3896701335907,0.015978829935193062,0.1201414093375206,-6.256457805633545,-0.003217393977274077,0.0013082027435302734,6.0,3.4424472549431635,-12.221700431454332,-0.41790434541454247,0.7575311745411337,-1.0,0.017087775157871472,0.0010080915629961124,3.4962156257930634,3.386781110032714,-12.175321944070276,-12.241030933068295,-0.29047210134444035,-0.5851090919794288
18.40008020401001,0.016822848469018936,0.12884511053562164,-6.239573001861572,-0.0030921242727168165,0.0014052391052246094,6.0,3.441498367912889,-12.208176438569284,-0.4279043454145425,0.7573990310154707,-1.0,0.017044557538844568,0.0004000170816503018,3.5392080820072147,3.333248958329738,-12.086384256439715,-12.214608277980153,-0.29047210134444035,-0.5851090919794288
18.555622577667236,0.03054400347173214,0.2863931357860565,-5.920383930206299,-0.001342253403171817,0.0014891624450683594,6.0,3.4404042497134952,-12.194299632053685,-0.4379043454145425,0.7578424024510593,0.1503079140850434,0.011260774202041125,-0.011967381827668938,3.6184253271779445,3.238589845272157,-11.964472928409178,-12.209124492703726,-0.1230198343820579,-0.701784531348002
18.5642671585083,0.031205592676997185,0.29368501901626587,-5.903860092163086,-0.001283451555888604,0.0016336441040039062,6.0,3.444447461977696,-12.26020818646877,-0.38790434541454244,0.757725790890814,0.1895417493699716,0.013530794203752848,-0.005546211140954477,3.4417069320678713,3.440706932067871,-12.384930335998535,-12.385930335998536,-0.1230198343820579,-0.701784531348002
18.56989026069641,0.031205592676997185,0.29368501901626587,-5.903860092163086,-0.001283451555888604,0.0015289783477783203,6.0,3.443919168358488,-12.247711214685955,-0.39790434541454245,0.7570232912137788,0.13623831171475786,0.013067237338931878,-0.003038635834153219,3.4466902948034575,3.441485291586891,-12.346959461518196,-12.350203212630342,-0.1230198343820579,-0.701784531348002
18.579928874969482,0.03315030410885811,0.31437602639198303,-5.8548583984375,-0.0011253554823248274,0.0023713111877441406,6.0,3.443253333436369,-12.234876963739321,-0.40790434541454246,0.7580613811903985,0.36728768448157934,0.011581766192922218,-0.0032584613572304065,3.456006544361126,3.434481028003887,-12.300727509136875,-12.31310639652742,-0.1230198343820579,-0.701784531348002
18.58980131149292,0.03315030410885811,0.31437602639198303,-5.8548583984375,-0.0011253554823248274,0.0022897720336914062,6.0,3.4424472549431635,-12.221700431454332,-0.41790434541454247,0.7573553196156471,0.30811737592517274,0.011497226785448402,-0.0017853819637691833,3.471257094769346,3.4176378291860448,-12.244597874811113,-12.275818498126426,-0.1230198343820579,-0.701784531348002
18.599831104278564,0.03439449518918991,0.3270247280597687,-5.82283353805542,-0.001005335475538563,0.0014386177062988281,6.0,3.441498367912889,-12.208176438569284,-0.4279043454145425,0.75763190755389,0.44628395762618744,0.010440052071283108,-0.002059644394161013,3.4962156257930634,3.386781110032714,-12.175321944070276,-12.241030933068295,-0.1230198343820579,-0.701784531348002
18.609755516052246,0.03562029451131821,0.3389855623245239,-5.790939807891846,-0.0009073178061650145,0.0015957355499267578,6.0,3.4404042497134952,-12.194299632053685,-0.4379043454145425,0.7578638137298156,0.5638668487854237,0.009244595527411902,-0.0018751998823772365,3.5392080820072147,3.333248958329738,-12.086384256439715,-12.214608277980153,-0.2863761830477811,-1.1957050607054085
18.61964726448059,0.03622620180249214,0.3446987569332123,-5.7750372886657715,-0.0008602326217551914,0.0013592243194580078,6.0,3.4391626249977927,-12.180064488557239,-0.4479043454145425,0.7576506661219176,0.5770646149133554,0.008607335804498946,-0.0012581050040597988,3.6184253271779445,3.238589845272157,-11.964472928409178,-12.209124492703726,-0.2863761830477811,-1.1957050607054085
18.63020610809326,0.03682735562324524,0.3502310812473297,-5.759189605712891,-0.0008142793887536276,0.002484560012817383,6.0,3.070349821537509,-11.6206968529186,-0.4144310073391828,0.7574412269378489,0.580633144369354,0.007998061739850177,-0.000966931508329064,3.0772080783843996,3.0762080783843992,-11.645772659301757,-11.646772659301758,-0.2863761830477811,-1.1957050607054085
18.79513120651245,0.03682735562324524,0.3502310812473297,-5.759189605712891,-0.0008142793887536276,0.0017616748809814453,6.0,3.0639278954768865,-11.594827316919115,-0.4244310073391828,0.7546115346344039,-1.0,0.00802350161574678,-0.0007070999195588194,3.053609592830251,3.0481491916916372,-11.540093458454425,-11.54426959960851,-0.2863761830477811,-1.1957050607054085
18.80509328842163,0.04812568798661232,0.4190920889377594,-5.43156099319458,4.81816150233183e-05,0.0011706352233886719,6.0,3.0574388424936703,-11.568657714265322,-0.43443100733918283,0.7638319187138911,-0.47826559113384415,-0.003149904636002474,-0.015348183660002726,3.0361024821377938,3.0116555832042278,-11.424399875527232,-11.441749418225859,-0.3335119462300842,-1.1335368180160503
18.81141448020935,0.04911065101623535,0.4218434989452362,-5.400980472564697,0.00011860743939087759,0.0012192726135253906,6.0,3.0508793922609443,-11.542181529031467,-0.44443100733918284,0.7640780463793261,-0.5862711226596674,0.001398304880359076,1.6313057544207576e-05,3.028622049260322,2.9620951520349026,-11.295814637398523,-11.34127468968304,-0.3335119462300842,-1.1335368180160503
18.819884538650513,0.049596574157476425,0.42304307222366333,-5.3857340812683105,0.0001521224853193448,0.002443552017211914,6.0,3.0442464665687763,-11.515392071064435,-0.45443100733918285,0.7639367470911231,-0.7040830548239467,-0.0021473632440495733,-0.002979067633665738,3.03735696711484,2.8886092181375673,-11.14912291838521,-11.248378687826614,-0.3335119462300842,-1.1335368180160503
18.833092212677002,0.049596574157476425,0.42304307222366333,-5.3857340812683105,0.0001521224853193448,0.0023317337036132812,6.0,3.037537183947254,-11.488282480758812,-0.46443100733918286,0.76341865008301,-0.8277607672810645,-0.001115898306384908,0.001312541867518719,3.076472021439643,2.770806436272447,-10.972679049894637,-11.176217425834858,-0.3335119462300842,-1.1335368180160503
18.841581106185913,0.049596574157476425,0.42304307222366333,-5.3857340812683105,0.0001521224853193448,0.002203702926635742,6.0,3.0307488641750333,-11.460845733943486,-0.47443100733918286,0.7629037073942053,-0.9545400967620342,-0.00226653824046271,-0.0004542256182971501,3.1786814728093864,2.5710112831225134,-10.740433125985646,-11.153169314127584,-0.3335119462300842,-1.1335368180160503
18.850477933883667,0.049887821078300476,0.42294982075691223,-5.354411602020264,0.0002159031272571249,0.0012362003326416016,6.0,3.0639278954768865,-11.594827316919115,-0.4244310073391828,0.762999067022221,-1.0,-0.0028286468097725452,0.0005704027033282634,3.0772080783843996,3.0762080783843992,-11.645772659301757,-11.646772659301758,-0.3335119462300842,-1.1335368180160503
18.859941959381104,0.0503445640206337,0.42215943336486816,-5.307869911193848,0.0003144623187410628,0.0016624927520751953,6.0,3.0574388424936703,-11.568657714265322,-0.43443100733918283,0.7632417080651097,-0.9369825374867775,-0.004242188294024238,-5.771808170959362e-05,3.053609592830251,3.0481491916916372,-11.540093458454425,-11.54426959960851,-0.3335119462300842,-1.1335368180160503
18.8697190284729,0.0503445640206337,0.42215943336486816,-5.307869911193848,0.0003144623187410628,0.0013873577117919922,6.0,3.0508793922609443,-11.542181529031467,-0.44443100733918284,0.7627470676230164,-0.9439609279278549,-0.0037105563660927493,0.002443553582433903,3.0361024821377938,3.0116555832042278,-11.424399875527232,-11.441749418225859,-0.3335119462300842,-1.1335368180160503
19.03291416168213,0.0503445640206337,0.42215943336486816,-5.307869911193848,0.0003144623187410628,0.0014126300811767578,6.0,3.0442464665687763,-11.515392071064435,-0.45443100733918285,0.7543168973246224,-0.6179341691674989,-0.004449769351760822,0.0009338801220321485,3.028622049260322,2.9620951520349026,-11.295814637398523,-11.34127468968304,-0.3335119462300842,-1.1335368180160503
19.04395604133606,0.053735971450805664,0.3916929364204407,-4.9847731590271,0.0009638627190994564,0.0014157295227050781,6.0,3.037537183947254,-11.488282480758812,-0.46443100733918286,0.7585164985029212,1.0,-0.006426277731697658,0.001020843339218732,3.03735696711484,2.8886092181375673,-11.14912291838521,-11.248378687826614,-0.1001899475575545,-1.3993565328723765
19.05145835876465,0.053735971450805664,0.3916929364204407,-4.9847731590271,0.0009638627190994564,0.0012576580047607422,6.0,3.0307488641750333,-11.460845733943486,-0.47443100733918286,0.7580354443820299,1.0,-0.0064143069962337325,0.0012929600273683538,3.076472021439643,2.770806436272447,-10.972679049894637,-11.176217425834858,-0.1001899475575545,-1.3993565328723765
19.059687852859497,0.05405912175774574,0.3858640789985657,-4.956617832183838,0.0010081878474037798,0.0015704631805419922,6.0,3.0238790326710108,-11.433074646876545,-0.4844310073391829,0.7578026516136598,1.0,-0.0068302418093529335,0.001813018203154175,3.1786814728093864,2.5710112831225134,-10.740433125985646,-11.153169314127584,-0.1001899475575545,-1.3993565328723765
19.06965947151184,0.05422443896532059,0.3826778531074524,-4.94257116317749,0.0010334308248856061,0.0014472007751464844,6.0,3.0574388424936703,-11.568657714265322,-0.43443100733918283,0.7574417331554716,1.0,-0.007082915432623745,0.0023692533048996997,3.0772080783843996,3.0762080783843992,-11.645772659301757,-11.646772659301758,-0.1001899475575545,-1.3993565328723765
19.08000373840332,0.05439092591404915,0.37932199239730835,-4.928542137145996,0.0010542780442314714,0.0015361309051513672,6.0,3.0508793922609443,-11.542181529031467,-0.44443100733918284,0.7570831886253341,1.0,-0.007415182538596999,0.002948829420574413,3.053609592830251,3.0481491916916372,-11.540093458454425,-11.54426959960851,-0.1001899475575545,-1.3993565328723765
19.090141773223877,0.05400219187140465,0.3753207325935364,-4.914954662322998,0.0010702095520972177,0.0012788772583007812,6.0,3.0442464665687763,-11.515392071064435,-0.45443100733918285,0.7566296370397076,1.0,-0.008264399720031552,0.0036133597991623214,3.0361024821377938,3.0116555832042278,-11.424399875527232,-11.441749418225859,-0.1001899475575545,-1.3993565328723765
19.09986400604248,0.053265009075403214,0.36673250794410706,-4.887838840484619,0.0011278811447765769,0.0014340877532958984,6.0,3.037537183947254,-11.488282480758812,-0.46443100733918286,0.7560458277230534,1.0,-0.009761699129322664,0.004649459539969324,3.028622049260322,2.9620951520349026,-11.295814637398523,-11.34127468968304,-0.1001899475575545,-1.3993565328723765
19.261847019195557,0.04999934136867523,0.23259387910366058,-4.618393421173096,0.0018877676267677612,0.0013887882232666016,6.0,3.0307488641750333,-11.460845733943486,-0.47443100733918286,0.7617947172280852,1.0,-0.01318987240036575,0.004685512478865098,3.03735696711484,2.8886092181375673,-11.14912291838521,-11.248378687826614,-0.34160976525019304,-1.4366063538854048
19.26958394050598,0.05006176605820656,0.22365058958530426,-4.604959487915039,0.0019246199897870603,0.0012772083282470703,6.0,3.0238790326710108,-11.433074646876545,-0.4844310073391829,0.7616660149937936,1.0,-0.012773060742475535,0.004367262731004292,3.076472021439643,2.770806436272447,-10.972679049894637,-11.176217425834858,-0.34160976525019304,-1.4366063538854048
19.279975652694702,0.050125934183597565,0.2146051526069641,-4.591550827026367,0.001963467938987856,0.00261688232421875,6.0,3.016925424766827,-11.404961881345264,-0.4944310073391829,0.7615408087861273,1.0,-0.012513991405910556,0.0038768702119809755,3.1786814728093864,2.5710112831225134,-10.740433125985646,-11.153169314127584,-0.34160976525019304,-1.4366063538854048
19.292662143707275,0.05018739774823189,0.2054520696401596,-4.578194618225098,0.0020008855666127784,0.0023620128631591797,6.0,3.0508793922609443,-11.542181529031467,-0.44443100733918284,0.7614163227473955,1.0,-0.012203972193534699,0.0032831464134777857,3.0772080783843996,3.0762080783843992,-11.645772659301757,-11.646772659301758,-0.34160976525019304,-1.4366063538854048
19.3000590801239,0.05018739774823189,0.2054520696401596,-4.578194618225098,0.0020008855666127784,0.001355886459350586,6.0,3.0442464665687763,-11.515392071064435,-0.45443100733918285,0.7610702139205433,1.0,-0.01208397137668097,0.0029530861895479396,3.053609592830251,3.0481491916916372,-11.540093458454425,-11.54426959960851,-0.34160976525019304,-1.4366063538854048
19.3097927570343,0.05038207024335861,0.1774623841047287,-4.538300514221191,0.0021161122409082134,0.001590728759765625,6.0,3.037537183947254,-11.488282480758812,-0.46443100733918286,0.7613412465308524,1.0,-0.011454722969606269,0.0018345341810988161,3.0361024821377938,3.0116555832042278,-11.424399875527232,-11.441749418225859,0.1054249540693335,-0.5720284357402029
19.31958317756653,0.05045025795698166,0.1679721474647522,-4.5250701904296875,0.0021570743501265754,0.0012578964233398438,6.0,3.0307488641750333,-11.460845733943486,-0.47443100733918286,0.7611813045883871,1.0,-0.010974516072909972,0.0009570636395089625,3.028622049260322,2.9620951520349026,-11.295814637398523,-11.34127468968304,0.1054249540693335,-0.5720284357402029
19.330185174942017,0.050519898533821106,0.15841034054756165,-4.511877059936523,0.002195242037520348,0.0024280548095703125,6.0,3.0238790326710108,-11.433074646876545,-0.4844310073391829,0.7610200764427416,1.0,-0.010529587765076008,0.00022110509537831726,3.03735696711484,2.8886092181375673,-11.14912291838521,-11.248378687826614,0.1054249540693335,-0.5720284357402029
19.49902057647705,0.050519898533821106,0.15841034054756165,-4.511877059936523,0.002195242037520348,0.002439737319946289,6.0,3.016925424766827,-11.404961881345264,-0.4944310073391829,0.7538947007041947,1.0,-0.010371830843656265,-9.82444259094041e-05,3.076472021439643,2.770806436272447,-10.972679049894637,-11.176217425834858,0.1054249540693335,-0.5720284357402029
19.510353565216064,0.055046483874320984,-0.10829327255487442,-4.213504791259766,0.0027046415582883537,0.0014238357543945312,6.0,3.0098859898580197,-11.37649994986788,-0.5029519112772918,0.7583785404245219,0.6758150650374983,-0.00026852309412367934,-0.0123806838101215,3.1786814728093864,2.5710112831225134,-10.740433125985646,-11.153169314127584,0.049816014250842144,-1.1428801267245823
19.5197274684906,0.05500942841172218,-0.12013816833496094,-4.201628684997559,0.002715078238082494,0.0014235973358154297,6.0,3.0442464665687763,-11.515392071064435,-0.45443100733918285,0.7582188584075824,0.6413471604220299,-0.0033968707207805396,-0.004506640557267399,3.0772080783843996,3.0762080783843992,-11.645772659301757,-11.646772659301758,0.049816014250842144,-1.1428801267245823
19.5305233001709,0.054977092891931534,-0.13188378512859344,-4.189786434173584,0.002724946144583712,0.0016040802001953125,6.0,3.037537183947254,-11.488282480758812,-0.46443100733918286,0.7580639380799336,0.6065286138411263,-0.002259616061668441,-0.004636679211671401,3.053609592830251,3.0481491916916372,-11.540093458454425,-11.54426959960851,0.049816014250842144,-1.1428801267245823
19.53967261314392,0.05492633581161499,-0.1550580859184265,-4.166245460510254,0.0027430323512677504,0.0013959407806396484,6.0,3.0307488641750333,-11.460845733943486,-0.47443100733918286,0.7582875426107767,0.5213785932546684,-0.001997846588184391,-0.004020528592731766,3.0361024821377938,3.0116555832042278,-11.424399875527232,-11.441749418225859,0.049816014250842144,-1.1428801267245823
19.551153659820557,0.0549076683819294,-0.16647742688655853,-4.15452241897583,0.0027476171111922437,0.002363443374633789,6.0,3.0238790326710108,-11.433074646876545,-0.4844310073391829,0.7581496927080744,0.48465670727516086,-0.0017163354104393492,-0.00381330943400525,3.028622049260322,2.9620951520349026,-11.295814637398523,-11.34127468968304,0.049816014250842144,-1.1428801267245823
19.56078553199768,0.0549076683819294,-0.16647742688655853,-4.15452241897583,0.0027476171111922437,0.002515077590942383,6.0,3.016925424766827,-11.404961881345264,-0.4944310073391829,0.7576392333773009,0.5018850494045533,-0.0017447248820630762,-0.0035514263462696092,3.03735696711484,2.8886092181375673,-11.14912291838521,-11.248378687826614,0.049816014250842144,-1.1428801267245823
19.573744297027588,0.054877087473869324,-0.1889360547065735,-4.131171703338623,0.002754690588819303,0.0024623870849609375,6.0,3.0098859898580197,-11.37649994986788,-0.5029519112772918,0.757868257566247,0.41644863587882786,-0.0011717152106675184,-0.0037500513618731477,3.076472021439643,2.770806436272447,-10.972679049894637,-11.176217425834858,0.049816014250842144,-1.1428801267245823
19.738425731658936,0.054877087473869324,-0.1889360547065735,-4.131171703338623,0.002754690588819303,0.00186920166015625,6.0,3.002716277574948,-11.347691794171,-0.5095468947573518,0.7531750364804061,1.0,-0.0012122678014981577,-0.0034471373473601357,3.1786814728093864,2.5710112831225134,-10.740433125985646,-11.153169314127584,0.049816014250842144,-1.1428801267245823
19.74887704849243,0.07075585424900055,-0.41790661215782166,-3.8695919513702393,0.0025489603659815396,0.0014870166778564453,6.0,3.037537183947254,-11.488282480758812,-0.46443100733918286,0.7615718685317984,-0.012703592407321995,0.01192481102337846,-0.01579983635644085,3.0772080783843996,3.0762080783843992,-11.645772659301757,-11.646772659301758,0.28515231386474627,-1.114048671666334
19.753852605819702,0.07075585424900055,-0.41790661215782166,-3.8695919513702393,0.0025489603659815396,0.0012688636779785156,6.0,3.0307488641750333,-11.460845733943486,-0.47443100733918286,0.7610893028718958,0.05916701187955564,0.00620229511557338,-0.001971441078453893,3.053609592830251,3.0481491916916372,-11.540093458454425,-11.54426959960851,0.28515231386474627,-1.114048671666334
19.760682821273804,0.07124678045511246,-0.4258311092853546,-3.8590087890625,0.0025324829318029707,0.001435995101928711,6.0,3.0238790326710108,-11.433074646876545,-0.4844310073391829,0.7609972837382971,0.07636346476149236,0.009467276935829905,-0.001547537000922645,3.0361024821377938,3.0116555832042278,-11.424399875527232,-11.441749418225859,0.28515231386474627,-1.114048671666334
19.769785404205322,0.07172995060682297,-0.4335647523403168,-3.848430633544922,0.0025152951559690995,0.0014483928680419922,6.0,3.016925424766827,-11.404961881345264,-0.4944310073391829,0.7609083291197146,0.09500245247053263,0.00951283133318853,0.001403978218093006,3.028622049260322,2.9620951520349026,-11.295814637398523,-11.34127468968304,0.28515231386474627,-1.114048671666334
19.779738664627075,0.07268160581588745,-0.4484480321407318,-3.8272922039031982,0.0024801072541071195,0.001659393310546875,6.0,3.0098859898580197,-11.37649994986788,-0.5029519112772918,0.7611628868533238,0.05456859762152755,0.010725989093801385,0.0021906463264845977,3.03735696711484,2.8886092181375673,-11.14912291838521,-11.248378687826614,0.28515231386474627,-1.114048671666334
19.789897680282593,0.07315029948949814,-0.4555928707122803,-3.816760301589966,0.0024645227197422626,0.0023674964904785156,6.0,3.002716277574948,-11.347691794171,-0.5095468947573518,0.7610252051710255,0.07775381234787115,0.01103174841230239,0.003362631123986951,3.076472021439643,2.770806436272447,-10.972679049894637,-11.176217425834858,0.28515231386474627,-1.114048671666334
19.802399158477783,0.07361169159412384,-0.4625388979911804,-3.806239366531372,0.002450669927459348,0.002107858657836914,6.0,2.995358600647612,-11.31854466354078,-0.5143147425917353,0.7608899163113036,0.10517291102979875,0.011459073546621974,0.003999617261526152,3.1786814728093864,2.5710112831225134,-10.740433125985646,-11.153169314127584,0.28515231386474627,-1.114048671666334
19.814956188201904,0.07361169159412384,-0.4625388979911804,-3.806239366531372,0.002450669927459348,0.0024003982543945312,6.0,3.0307488641750333,-11.460845733943486,-0.47443100733918286,0.7604283603646337,0.1940678849017322,0.01154614143083606,0.004626747636511046,3.0772080783843996,3.0762080783843992,-11.645772659301757,-11.646772659301758,0.23865946553043127,-0.7555100373779398
19.826653480529785,0.07495333254337311,-0.48217710852622986,-3.774740695953369,0.0024371686382641533,0.00231170654296875,6.0,3.0238790326710108,-11.433074646876545,-0.4844310073391829,0.7609452517581333,0.1173111734331076,0.011816624487488717,0.005173631247479334,3.053609592830251,3.0481491916916372,-11.540093458454425,-11.54426959960851,0.23865946553043127,-0.7555100373779398
20.00768256187439,0.09382570534944534,-0.565298855304718,-3.5402309894561768,0.0028714310592047043,0.001238107681274414,6.0,3.016925424766827,-11.404961881345264,-0.4944310073391829,0.7639763639592757,-0.4111140745523545,0.013436497388274444,0.005770116414596179,3.0361024821377938,3.0116555832042278,-11.424399875527232,-11.441749418225859,0.23865946553043127,-0.7555100373779398
20.01622724533081,0.09382570534944534,-0.565298855304718,-3.5402309894561768,0.0028714310592047043,0.0014328956604003906,6.0,3.0098859898580197,-11.37649994986788,-0.5029519112772918,0.7636501930789955,-0.2943975268145256,0.013439078227908064,0.0060510301853452676,3.028622049260322,2.9620951520349026,-11.295814637398523,-11.34127468968304,0.059149396997061565,-0.5580271486328838
20.022872924804688,0.09382570534944534,-0.565298855304718,-3.5402309894561768,0.0028714310592047043,0.0013132095336914062,6.0,3.002716277574948,-11.347691794171,-0.5095468947573518,0.7633284908273985,-0.17465706347335108,0.01353043902309806,0.0066680778445654485,3.03735696711484,2.8886092181375673,-11.14912291838521,-11.248378687826614,0.059149396997061565,-0.5580271486328838
20.031046390533447,0.09502874314785004,-0.5676607489585876,-3.510282516479492,0.0029831788088016953,0.0024504661560058594,6.0,2.995358600647612,-11.31854466354078,-0.5143147425917353,0.7635257646253122,-0.29424179338393475,0.012842581030572203,0.007866168865792453,3.076472021439643,2.770806436272447,-10.972679049894637,-11.176217425834858,0.059149396997061565,-0.5580271486328838
20.04016947746277,0.09502874314785004,-0.5676607489585876,-3.510282516479492,0.0029831788088016953,0.002329111099243164,6.0,2.9877578225381103,-11.289066802685683,-0.5173515638962123,0.7632215439640406,-0.2876914431797022,0.013207290836128737,0.00729424422694646,3.1786814728093864,2.5710112831225134,-10.740433125985646,-11.153169314127584,0.059149396997061565,-0.5580271486328838
20.0496244430542,0.09579390287399292,-0.5682729482650757,-3.4904074668884277,0.003061073498529465,0.0016529560089111328,6.0,3.0238790326710108,-11.433074646876545,-0.4844310073391829,0.7631530860004003,-0.42509871846945657,0.012428841896124214,0.007703658274598877,3.0772080783843996,3.0762080783843992,-11.645772659301757,-11.646772659301758,0.059149396997061565,-0.5580271486328838
20.059650659561157,0.09579390287399292,-0.5682729482650757,-3.4904074668884277,0.003061073498529465,0.0021507740020751953,6.0,3.016925424766827,-11.404961881345264,-0.4944310073391829,0.7628616168446325,-0.41808331093928075,0.012567906455143848,0.006798498982441165,3.053609592830251,3.0481491916916372,-11.540093458454425,-11.54426959960851,0.059149396997061565,-0.5580271486328838
20.232652187347412,0.10023459047079086,-0.5116921663284302,-3.273653030395508,0.004256936794565638,0.001524209976196289,6.0,3.0098859898580197,-11.37649994986788,-0.5029519112772918,0.7613305716848758,-1.0,0.00014329845193517,0.007004648825666398,3.0361024821377938,3.0116555832042278,-11.424399875527232,-11.441749418225859,0.059149396997061565,-0.5580271486328838
20.239678382873535,0.10023459047079086,-0.5116921663284302,-3.273653030395508,0.004256936794565638,0.001180887222290039,6.0,3.002716277574948,-11.347691794171,-0.5095468947573518,0.7610979091211754,-1.0,0.0010330367737544479,0.0010172318627235937,3.028622049260322,2.9620951520349026,-11.295814637398523,-11.34127468968304,-0.074503336213958,-0.8186493060997843
20.24978470802307,0.1009548082947731,-0.5009214878082275,-3.2534823417663574,0.0043690781237437915,0.0014405250549316406,6.0,2.995358600647612,-11.31854466354078,-0.5143147425917353,0.7609243598998838,-1.0,-0.0013043811131769583,-0.0027760333577201727,3.03735696711484,2.8886092181375673,-11.14912291838521,-11.248378687826614,-0.074503336213958,-0.8186493060997843
20.259695291519165,0.1012994796037674,-0.49536046385765076,-3.243471384048462,0.00442434815139596,0.0014579296112060547,6.0,2.9877578225381103,-11.289066802685683,-0.5173515638962123,0.760719541120789,-1.0,-0.0020319087694639472,-0.004544323806842841,3.076472021439643,2.770806436272447,-10.972679049894637,-11.176217425834858,-0.074503336213958,-0.8186493060997843
20.269936561584473,0.10195900499820709,-0.48389682173728943,-3.2235798835754395,0.004531545382842367,0.0013272762298583984,6.0,2.9798613196309423,-11.259267688622312,-0.5187507368390475,0.7604947542687418,-1.0,-0.0029404379772098588,-0.005576955747159861,3.1786814728093864,2.5710112831225134,-10.740433125985646,-11.153169314127584,-0.074503336213958,-0.8186493060997843
20.27975082397461,0.10227958858013153,-0.4779883325099945,-3.2137043476104736,0.004581084849319281,0.0014617443084716797,6.0,3.016925424766827,-11.404961881345264,-0.4944310073391829,0.7602526298226083,-1.0,-0.0031866609127286587,-0.005983332242014025,3.0772080783843996,3.0762080783843992,-11.645772659301757,-11.646772659301758,-0.074503336213958,-0.8186493060997843
20.289677143096924,0.1025906428694725,-0.47197070717811584,-3.2038769721984863,0.004623318124346423,0.0013921260833740234,6.0,3.0098859898580197,-11.37649994986788,-0.5029519112772918,0.7600260971653833,-1.0,-0.0032815179846425653,-0.006139482572337709,3.053609592830251,3.0481491916916372,-11.540093458454425,-11.54426959960851,-0.074503336213958,-0.8186493060997843
20.30013155937195,0.10289248079061508,-0.4658472537994385,-3.194117784500122,0.0046603881244244305,0.0013365745544433594,6.0,3.002716277574948,-11.347691794171,-0.5095468947573518,0.7598173366698429,-1.0,-0.003190632675994967,-0.006133813954344682,3.0361024821377938,3.0116555832042278,-11.424399875527232,-11.441749418225859,-0.074503336213958,-0.8186493060997843
20.47082495689392,0.10863816738128662,-0.30197468400001526,-2.9861137866973877,0.004924527581351229,0.00135040283203125,6.0,2.995358600647612,-11.31854466354078,-0.5143147425917353,0.7573265802340676,-0.788299709969664,0.005771692464057257,0.0019188814018227481,3.028622049260322,2.9620951520349026,-11.295814637398523,-11.34127468968304,0.032952981799450054,-0.9277872538871483
20.47985816001892,0.10909786820411682,-0.293357789516449,-2.977391242980957,0.004920051758982703,0.0015554428100585938,6.0,2.9877578225381103,-11.289066802685683,-0.5173515638962123,0.7571543715063405,-0.7589491160135681,0.0028049802618623915,-0.0057677926230091285,3.03735696711484,2.8886092181375673,-11.14912291838521,-11.248378687826614,0.032952981799450054,-0.9277872538871483
