time,x,y,z,yaw,ctrl_comp_time,rollout_comptime,y_ref,z_ref,yaw_ref,throttle,roll_rate,pitch_rate,yaw_rate,save_tube_pyH,save_tube_pyL,save_tube_pzH,save_tube_pzL,wy,wz
15.002588987350464,0.02489444985985756,3.87066388130188,-12.342405319213867,-0.004257654980475524,0.16244173049926758,0.12226057052612305,3.86602739088919,-12.336478989061224,-0.10213645059945399,0.5808525700291988,-1.0,0.016861258339197042,0.020067732282942865,3.878744563611353,3.8530440245078292,-12.336557057924617,-12.340211533776387,0.10067735217899237,-0.09461493041590235
15.535249471664429,0.02489444985985756,3.87066388130188,-12.342405319213867,-0.004257654980475524,0.16295099258422852,0.1011049747467041,3.866186590573917,-12.331592757351569,-0.12213645059945398,0.5811905975673093,-1.0,0.04463904521310625,0.08350753077936501,3.885773032858592,3.8464785339984062,-12.331078943401073,-12.337350376567182,0.10067735217899237,-0.09461493041590235
15.779198408126831,0.07486076653003693,3.9271929264068604,-12.355836868286133,-0.00016635104840776512,0.001984119415283203,0.09984850883483887,3.866183701055993,-12.325281112518702,-0.14213645059945398,0.5805095326823955,-1.0,0.1560323039422162,0.2860508292908997,3.8944475591177086,3.837966211948158,-12.323369413990717,-12.333859680948711,0.07368864385137226,-7.695955414216756
15.785841464996338,0.07486076653003693,3.9271929264068604,-12.355836868286133,-0.00016635104840776512,0.0037717819213867188,0.09984850883483887,3.865994854254803,-12.317551966347729,-0.162136450599454,0.579197892402615,-1.0,0.34922261275955135,0.54302541464545,3.9050630784587086,3.82716499098003,-12.313098747784068,-12.330087950220365,0.010960999798064475,-7.755077166725311
15.795539855957031,0.07489899545907974,3.927629232406616,-12.356940269470215,-5.604708022690155e-05,0.0021333694458007812,0.09984850883483887,3.865595704917645,-12.30841023861766,-0.18213645059945402,0.5777945995138694,-1.0,0.484455828931686,0.671512707322725,3.9180769142466976,3.813569291596718,-12.299778351921779,-12.326536619395041,0.010960999798064475,-7.755077166725311
15.916654825210571,0.07489899545907974,3.927629232406616,-12.356940269470215,-5.604708022690155e-05,0.0019237995147705078,0.11445784568786621,3.8649616030745477,-12.297857819618091,-0.20213645059945404,0.5815590703791207,-1.0,0.5791190802521802,0.7357563536613626,3.9341897201956635,3.7964294214500516,-12.282725052179943,-12.323895680914084,0.010960999798064475,-7.755077166725311
15.926155805587769,0.07409246265888214,3.9313981533050537,-12.35480785369873,0.007381686357561441,0.0020508766174316406,0.11445784568786621,3.8640677686710467,-12.285893542476074,-0.22213645059945406,0.598261700133131,-0.7149802236331186,0.6453833561765261,0.7678781768306814,3.9544739569773815,3.774623445955992,-12.260923252485133,-12.323181459952991,0.014183026601135379,-7.7084251706177405
15.9314603805542,0.07409246265888214,3.9313981533050537,-12.35480785369873,0.007381686357561441,0.0017659664154052734,0.11445784568786621,3.862889467833552,-12.272513165367247,-0.24213645059945407,0.5969875977397858,-0.7862374322377573,0.6917683493235682,0.7839390884153407,3.9805785370832765,3.746452894467222,-12.23287238892875,-12.325889114930817,0.014183026601135379,-7.7084251706177405
15.941665887832642,0.07406749576330185,3.931696891784668,-12.350260734558105,0.00951391996757802,0.0024819374084472656,0.11445784568786621,3.861402190223048,-12.25770936365138,-0.26213645059945406,0.5993895533713519,-0.7550706126612254,0.7242378445264978,0.7919695442076703,4.0150444252934285,3.709327513558958,-12.196306506061646,-12.334273035556368,0.014183026601135379,-7.7084251706177405
15.951251983642578,0.0740208700299263,3.9318008422851562,-12.347795486450195,0.010665036602245728,0.002453327178955078,0.11445784568786621,3.859581826936164,-12.241471731939246,-0.2821364505994541,0.5999732326223413,-0.7752975347823543,0.7469664911685485,0.7959847721038352,4.061778312651986,3.6592919484429722,-12.147733257371543,-12.351807836555565,0.09186777327133466,-1.3601833584461769
15.961456298828125,0.07394924759864807,3.931870460510254,-12.345187187194824,0.011866798698569193,0.0023522377014160156,0.11445784568786621,3.8574048484180192,-12.223786796065472,-0.3021364505994541,0.600568766254507,-0.7958758042211665,0.762876543817984,0.7979923860519177,4.126719635821568,3.5903590795601787,-12.081660806151302,-12.383961470853212,0.09186777327133466,-1.3601833584461769
15.971407651901245,0.07385103404521942,3.9319028854370117,-12.342434883117676,0.013126311553432517,0.002335071563720703,0.11445784568786621,3.854848481858586,-12.204638034910577,-0.3221364505994541,0.60115945903853,-0.8169099195871098,0.7740135806725889,0.7989961930259589,4.218659627297626,3.4936913278064785,-11.989317147677859,-12.439475941206956,0.09186777327133466,-1.3601833584461769
15.981337070465088,0.07356710731983185,3.931839942932129,-12.336511611938477,0.01580717137257872,0.002508878707885742,0.11445784568786621,3.8731357437554874,-12.339998441736666,-0.10404755344287235,0.603429917831802,-0.7759170143699905,0.7818095064708122,0.7994980965129795,3.885856201176898,3.860155998496566,-12.340013284228004,-12.343762173465995,0.09186777327133466,-1.3601833584461769
15.991422414779663,0.07337695360183716,3.931736469268799,-12.333352088928223,0.01721348369921267,0.002477407455444336,0.11445784568786621,3.8732840219332734,-12.335143561258802,-0.12404755344287234,0.6038522493859338,-0.7977941300929664,0.7872666545295686,0.7997490482564898,3.8928764863019034,3.8535822026538527,-12.334541919754598,-12.340957912660423,0.09186777327133466,-1.3601833584461769
16.00130867958069,0.07315570116043091,3.9315741062164307,-12.330083847045898,0.01865432065400191,0.0024116039276123047,0.11445784568786621,3.8732648684952347,-12.32886208456203,-0.14404755344287234,0.6042618171648383,-0.8215805509471844,0.791086658170698,0.7998745241282449,3.901538051918764,3.8450556507817857,-12.326832883699542,-12.337528322934295,0.09186777327133466,-1.3601833584461769
16.011542558670044,0.0728975236415863,3.9313547611236572,-12.326687812805176,0.02012597512232399,0.0024709701538085938,0.11445784568786621,3.873054443502011,-12.321161603111191,-0.16404755344287236,0.6046690465808247,-0.8474854285551705,0.7937606607194886,0.7999372620641224,3.912136504793328,3.834233645128779,-12.316554248407353,-12.333823474401315,0.09186777327133466,-1.3601833584461769
16.021562814712524,0.0722612589597702,3.9307327270507812,-12.319510459899902,0.023151320282507805,0.003444671630859375,0.11445784568786621,3.872628445930778,-12.31204671529976,-0.18404755344287238,0.6067669755541334,-0.8097379191300504,0.795632462503642,0.7999686310320612,3.925130267269202,3.820609579551622,-12.303215525604514,-12.330346055567443,0.09186777327133466,-1.3601833584461769
16.031277179718018,0.07187864184379578,3.930323600769043,-12.315728187561035,0.024703012621524537,0.0021102428436279297,0.11445784568786621,3.871962286260517,-12.301518989831552,-0.2040475534428724,0.6071776426968974,-0.8384232262718267,0.7969427237525494,0.7999843155160306,3.941221694652486,3.8034321647621794,-12.28613443706229,-12.327784519690413,0.09186777327133466,-1.3601833584461769
16.041650533676147,0.07144977152347565,3.929844617843628,-12.311814308166504,0.026278837627025042,0.002451181411743164,0.11445784568786621,3.8710312611877873,-12.289576938918417,-0.22404755344287242,0.6075928852447349,-0.8687746506446882,0.7978599066267846,0.7999921577580152,3.961485579047529,3.7815772719290006,-12.264294863307212,-12.327155072626589,0.09186777327133466,-1.3601833584461769
16.170215845108032,0.061019252985715866,3.918003559112549,-12.219622611999512,0.054406753085279994,0.002294301986694336,0.11682391166687012,3.869810729927655,-12.276216001365006,-0.24404755344287243,0.6455339237680209,0.22521388347090232,0.7027170975956075,0.7999960788790076,3.9875740820437007,3.753343351143528,-12.236194701078743,-12.329953771642229,-0.07770218021391928,-1.8766813454815958
16.17711043357849,0.061019252985715866,3.918003559112549,-12.219622611999512,0.054406753085279994,0.002490997314453125,0.11682391166687012,3.8682762915557394,-12.261428535577922,-0.26404755344287245,0.6444319650615655,0.11996433800585637,0.517115799984732,0.7999980394395039,4.02203255466729,3.7161359652468486,-12.199567154431287,-12.33843521040026,-0.07770218021391928,-1.8766813454815958
16.185599327087402,0.05756435543298721,3.9126768112182617,-12.194067001342773,0.06021701010910738,0.002454519271850586,0.11682391166687012,3.8664039628508107,-12.245203822503381,-0.28404755344287247,0.6491050077060163,0.28853433558180663,0.3445781013725065,0.799999019719752,4.068773235516186,3.6659944470142007,-12.150919156176299,-12.356074093468024,-0.07770218021391928,-1.8766813454815958
16.192737817764282,0.05756435543298721,3.9126768112182617,-12.194067001342773,0.06021701010910738,0.002856016159057617,0.11682391166687012,3.864170356102905,-12.227528078465257,-0.3040475534428725,0.6480162782662866,0.1772767471555987,0.2608440058290673,0.7666768843494931,4.133741818336616,3.5969256873618605,-12.084758142195861,-12.38833847779039,-0.07770218021391928,-1.8766813454815958
16.20124912261963,0.05619928240776062,3.9106242656707764,-12.185356140136719,0.062187396531557776,0.003384113311767578,0.11682391166687012,3.861552856359432,-12.20838447784411,-0.3240475534428725,0.6488709192611715,0.1587330032898855,0.1726925923810886,0.7123956944997021,4.225734872567274,3.5000870699880293,-11.992310655571124,-12.443971204097062,-0.07770218021391928,-1.8766813454815958
16.211607456207275,0.05471551790833473,3.9084250926971436,-12.176528930664062,0.06416844805147572,0.002353191375732422,0.11682391166687012,3.8731357437554603,-12.339998441736665,-0.10404755344287235,0.649741485178904,0.13880466251286405,0.07587295815398677,0.5899336794117174,3.885856201176875,3.8601559984965443,-12.340013284228004,-12.343762173465992,-0.07770218021391928,-1.8766813454815958
16.221355676651,0.051399871706962585,3.9035723209381104,-12.158548355102539,0.06825619347166059,0.00260162353515625,0.11682391166687012,3.8732840219332334,-12.335143561258798,-0.12404755344287234,0.6521924525730932,0.21720165221307908,-0.08084357223432226,0.4066286287440339,3.892876486301869,3.853582202653819,-12.334541919754598,-12.34095791266042,-0.07770218021391928,-1.8766813454815958
16.231263160705566,0.04955505579710007,3.9009008407592773,-12.149417877197266,0.07047850865224796,0.002318143844604492,0.11682391166687012,3.87326486849518,-12.328862084562024,-0.14404755344287234,0.6527271760687434,0.18976381039404755,-0.262698667805513,0.0678824337653256,3.901538051918716,3.8450556507817377,-12.326832883699542,-12.337528322934292,-0.07770218021391928,-1.8766813454815958
16.24156093597412,0.047578729689121246,3.898057460784912,-12.140201568603516,0.07292229921224863,0.002519845962524414,0.11682391166687012,3.873054443501938,-12.321161603111186,-0.16404755344287236,0.6532274328748516,0.15414867997805093,-0.42388906746385907,-0.4487237874281267,3.912136504793264,3.8342336451287142,-12.31655424840735,-12.333823474401314,-0.07770218021391928,-1.8766813454815958
16.251228094100952,0.045467521995306015,3.8950390815734863,-12.130900382995605,0.07561755837340411,0.0021724700927734375,0.11682391166687012,3.8726284459306846,-12.31204671529975,-0.18404755344287238,0.6537222195986826,0.10991971009921242,-0.5367223472247014,-0.6243618937140634,3.9251302672691195,3.820609579551538,-12.303215525604507,-12.330346055567441,-0.24100856798230907,-1.5560850681212122
16.261613845825195,0.04083006829023361,3.888467788696289,-12.112092971801758,0.08182294440836684,0.0023734569549560547,0.11682391166687012,3.871962286260401,-12.301518989831541,-0.2040475534428724,0.6557177160997839,0.13498020374570596,-0.6157056430572909,-0.7121809468570317,3.941221694652383,3.8034321647620732,-12.286134437062275,-12.327784519690415,-0.24100856798230907,-1.5560850681212122
16.271360397338867,0.03829982876777649,3.8849122524261475,-12.102560043334961,0.08529561721381936,0.0024704933166503906,0.11682391166687012,3.8710312611876465,-12.289576938918405,-0.22404755344287242,0.6561685135997725,0.07270588790393062,-0.6709939501401037,-0.7560904734285159,3.961485579047404,3.7815772719288687,-12.264294863307187,-12.327155072626594,-0.24100856798230907,-1.5560850681212122
16.281309604644775,0.035632215440273285,3.881157875061035,-12.092944145202637,0.08897892302146881,0.003402233123779297,0.11682391166687012,3.8698107299274858,-12.27621600136499,-0.24404755344287243,0.6577332082262363,-0.023360676693733984,-0.7096957650980725,-0.778045236714258,3.9875740820435515,3.753343351143367,-12.236194701078704,-12.329953771642241,-0.24100856798230907,-1.5560850681212122
16.405943393707275,-0.023121953010559082,3.798452377319336,-11.910623550415039,0.1503251692222246,0.003210783004760742,0.1145932674407959,3.8682762915555395,-12.261428535577902,-0.26404755344287245,0.6787842491125169,0.2957651175526226,-0.7367870355686508,-0.7890226183571291,4.022032554667115,3.7161359652466532,-12.19956715443123,-12.33843521040028,-0.24100856798230907,-1.5560850681212122
16.416303634643555,-0.023121953010559082,3.798452377319336,-11.910623550415039,0.1503251692222246,0.002789735794067383,0.1145932674407959,3.8664039628505766,-12.245203822503358,-0.28404755344287247,0.6774802946041578,0.1394719596306555,-0.7557509248980555,-0.7945113091785646,4.068773235515986,3.6659944470139663,-12.150919156176222,-12.356074093468058,-0.09268230949924039,-1.5133695026112228
16.42429280281067,-0.03951262682676315,3.7759597301483154,-11.873595237731934,0.158459187358901,0.0029668807983398438,0.1145932674407959,3.8641703561026346,-12.227528078465227,-0.3040475534428725,0.6803716269708031,0.25752510851588495,-0.7690256474286389,-0.7972556545892823,4.133741818336388,3.596925687361583,-12.084758142195762,-12.388338477790438,-0.09268230949924039,-1.5133695026112228
16.431387662887573,-0.03951262682676315,3.7759597301483154,-11.873595237731934,0.158459187358901,0.002846240997314453,0.1145932674407959,3.8615528563591215,-12.208384477844072,-0.3240475534428725,0.6795001356235097,0.08892292304906935,-0.7783179532000472,-0.7986278272946412,4.225734872567014,3.500087069987707,-11.992310655571002,-12.443971204097123,-0.09268230949924039,-1.5133695026112228
16.44159460067749,-0.04545813426375389,3.7678470611572266,-11.860954284667969,0.1608198813584712,0.0029442310333251953,0.1145932674407959,3.8732293444778443,-12.337749916207509,-0.11404755344287235,0.6799464375189628,0.013196261066018344,-0.7848225672400331,-0.7993139136473206,3.885856201176875,3.8601559984965443,-12.340013284228004,-12.343762173465992,-0.09268230949924039,-1.5133695026112228
16.451204538345337,-0.05149554833769798,3.7595620155334473,-11.848278045654297,0.16303180726439803,0.0030281543731689453,0.1145932674407959,3.8732968513502275,-12.332180603316917,-0.13404755344287234,0.6803709504519984,-0.0652588997089294,-0.7893757970680232,-0.7996569568236603,3.892876486301869,3.853582202653819,-12.334541919754598,-12.34095791266042,-0.008464135363654535,-1.3581957892883274
16.461655616760254,-0.06383480131626129,3.7424700260162354,-11.822896003723145,0.16700941763629729,0.0033948421478271484,0.1145932674407959,3.8731850749609897,-12.325188861404332,-0.15404755344287235,0.6818271465774822,-0.047207313771896686,-0.7925630579476162,-0.7998284784118301,3.901538051918716,3.8450556507817377,-12.326832883699542,-12.337528322934292,-0.008464135363654535,-1.3581957892883274
16.471352338790894,-0.0701325386762619,3.7336580753326416,-11.810165405273438,0.16878622754546646,0.003036022186279297,0.1145932674407959,3.872869923410329,-12.316780790585973,-0.17404755344287237,0.682067533540148,-0.13193958836344477,-0.7947941405633313,-0.7999142392059151,3.912136504793264,3.8342336451287142,-12.31655424840735,-12.333823474401314,-0.008464135363654535,-1.3581957892883274
16.48148274421692,-0.07651233673095703,3.724667549133301,-11.797411918640137,0.17043188092145328,0.0027213096618652344,0.1145932674407959,3.8723269297072282,-12.306959478376342,-0.1940475534428724,0.6823132703112769,-0.2212598679752138,-0.796355898394332,-0.7999571196029576,3.9251302672691195,3.820609579551538,-12.303215525604507,-12.330346055567441,-0.008464135363654535,-1.3581957892883274
16.492023229599,-0.07651233673095703,3.724667549133301,-11.797411918640137,0.17043188092145328,0.004803657531738281,0.1145932674407959,3.871531425488137,-12.295724967966889,-0.2140475534428724,0.681574866846074,-0.41201533537157,-0.7974491288760324,-0.7999785598014788,3.941221694652383,3.8034321647620732,-12.286134437062275,-12.327784519690415,-0.008464135363654535,-1.3581957892883274
16.504778146743774,-0.1027069091796875,3.686933994293213,-11.746254920959473,0.17569583172971853,0.00296783447265625,0.1145932674407959,3.8704587165934594,-12.283074236360472,-0.23404755344287242,0.6846196199943417,-0.2112932407310436,-0.7982143902132227,-0.7999892799007394,3.961485579047404,3.7815772719288687,-12.264294863307187,-12.327155072626594,-0.008464135363654535,-1.3581957892883274
16.511616230010986,-0.1027069091796875,3.686933994293213,-11.746254920959473,0.17569583172971853,0.0029048919677734375,0.1145932674407959,3.8690842599568844,-12.269001182415755,-0.25404755344287244,0.683856365530658,-0.4090069039051939,-0.798750073149256,-0.7999946399503698,3.9875740820435515,3.753343351143367,-12.236194701078704,-12.329953771642241,-0.008464135363654535,-1.3581957892883274
16.521387815475464,-0.10943137109279633,3.6770589351654053,-11.733428001403809,0.1767207576010882,0.0036134719848632812,0.1145932674407959,3.867383841264976,-12.253496624822139,-0.27404755344287246,0.6840816170433306,-0.5093632035278205,-0.7991250512044792,-0.799997319975185,4.022032554667115,3.7161359652466532,-12.19956715443123,-12.33843521040028,-0.008464135363654535,-1.3581957892883274
16.64491891860962,-0.10943137109279633,3.6770589351654053,-11.733428001403809,0.1767207576010882,0.003048419952392578,0.11414480209350586,3.8653337528489855,-12.236548309993099,-0.2940475534428725,0.6767382108025702,-1.0,-0.7993875358431355,-0.7999986599875925,4.068773235515986,3.6659944470139663,-12.150919156176222,-12.356074093468058,-0.008464135363654535,-1.3581957892883274
16.65432906150818,-0.2489117681980133,3.4560554027557373,-11.489797592163086,0.17945928542067088,0.002633810043334961,0.11414480209350586,3.8629109712773606,-12.21814092983406,-0.3140475534428725,0.690838714636624,1.0,-0.7995712750901949,-0.7999993299937962,4.133741818336388,3.596925687361583,-12.084758142195762,-12.388338477790438,-0.2268708231619998,-2.200057019874315
16.661330938339233,-0.2489117681980133,3.4560554027557373,-11.489797592163086,0.17945928542067088,0.002977132797241211,0.11414480209350586,3.860093334125875,-12.198256149310195,-0.3340475534428725,0.6897231883877302,0.9280326191539037,-0.7996998925631364,-0.7666422732764975,4.225734872567014,3.500087069987707,-11.992310655571002,-12.443971204097123,-0.2268708231619998,-2.200057019874315
16.67166781425476,-0.25679972767829895,3.4420723915100098,-11.475946426391602,0.17891149144470903,0.005057811737060547,0.11414480209350586,3.8732840219332334,-12.335143561258798,-0.12404755344287234,0.6897759108489528,0.8816188550897257,-0.7997899247941955,-0.7833211366382488,3.885856201176875,3.8601559984965443,-12.340013284228004,-12.343762173465992,-0.2268708231619998,-2.200057019874315
16.683938026428223,-0.25679972767829895,3.4420723915100098,-11.475946426391602,0.17891149144470903,0.004709482192993164,0.11414480209350586,3.87326486849518,-12.328862084562024,-0.14404755344287234,0.6891318485486074,0.6818634599617084,-0.7998529473559369,-0.7916605683191243,3.892876486301869,3.853582202653819,-12.334541919754598,-12.34095791266042,-0.2268708231619998,-2.200057019874315
16.697397708892822,-0.29172325134277344,3.3836991786956787,-11.415910720825195,0.17556796384832224,0.00447392463684082,0.11414480209350586,3.873054443501938,-12.321161603111186,-0.16404755344287236,0.69111158595194,1.0,-0.7998970631491559,-0.7958302841595621,3.901538051918716,3.8450556507817377,-12.326832883699542,-12.337528322934292,-0.2268708231619998,-2.200057019874315
16.70924973487854,-0.29172325134277344,3.3836991786956787,-11.415910720825195,0.17556796384832224,0.0038652420043945312,0.11414480209350586,3.8726284459306846,-12.31204671529975,-0.18404755344287238,0.6904461158273548,0.889222145518155,-0.7999279442044092,-0.7404038879467083,3.912136504793264,3.8342336451287142,-12.31655424840735,-12.333823474401314,-0.2268708231619998,-2.200057019874315
16.717671632766724,-0.3088562786579132,3.3534634113311768,-11.385917663574219,0.17330482720342927,0.0029387474060058594,0.11414480209350586,3.871962286260401,-12.301518989831541,-0.2040475534428724,0.6909539606987954,0.9656526126795615,-0.7999495609430864,-0.7516858272564372,3.9251302672691195,3.820609579551538,-12.303215525604507,-12.330346055567441,-0.2268708231619998,-2.200057019874315
16.724676847457886,-0.3088562786579132,3.3534634113311768,-11.385917663574219,0.17330482720342927,0.0030319690704345703,0.11414480209350586,3.8710312611876465,-12.289576938918405,-0.22404755344287242,0.690368992512314,0.7504244464071319,-0.7999646926601606,-0.733486425577659,3.941221694652383,3.8034321647620732,-12.286134437062275,-12.327784519690415,-0.2268708231619998,-2.200057019874315
16.732597827911377,-0.33407825231552124,3.306764602661133,-11.340845108032227,0.16930402200309147,0.0027654170989990234,0.11414480209350586,3.8698107299274858,-12.27621600136499,-0.24404755344287243,0.691675770545132,0.9025028096053116,-0.7999752848621124,-0.749885611769421,3.961485579047404,3.7815772719288687,-12.264294863307187,-12.327155072626594,-0.2268708231619998,-2.200057019874315
16.741416931152344,-0.33407825231552124,3.306764602661133,-11.340845108032227,0.16930402200309147,0.002996683120727539,0.11414480209350586,3.8682762915555395,-12.261428535577902,-0.26404755344287245,0.69109543659929,0.679741163229501,-0.7999826994034788,-0.7243577374078387,3.9875740820435515,3.753343351143367,-12.236194701078704,-12.329953771642241,-0.2268708231619998,-2.200057019874315
16.75163197517395,-0.34234708547592163,3.290846347808838,-11.325827598571777,0.16782967138188476,0.004057645797729492,0.11414480209350586,3.8664039628505766,-12.245203822503358,-0.28404755344287247,0.6912504635036312,0.5640703116840224,-0.7999878895824352,-0.7472555772318934,4.022032554667115,3.7161359652466532,-12.19956715443123,-12.33843521040028,-0.0210505827959393,-1.7687125668928014
16.878600120544434,-0.4564889967441559,3.0275700092315674,-11.093696594238281,0.1368818583719943,0.0028994083404541016,0.11654162406921387,3.8641703561026346,-12.227528078465227,-0.3040475534428725,0.7054621587599732,0.3192699566654724,-0.5869134262894075,-0.6997049616115368,4.068773235515986,3.6659944470139663,-12.150919156176222,-12.356074093468058,-0.0210505827959393,-1.7687125668928014
16.88738250732422,-0.4564889967441559,3.0275700092315674,-11.093696594238281,0.1368818583719943,0.002780437469482422,0.11654162406921387,3.8615528563591215,-12.208384477844072,-0.3240475534428725,0.7046255056515135,0.09273392779720036,-0.49783767933684603,-0.5724486921409916,4.133741818336388,3.596925687361583,-12.084758142195762,-12.388338477790438,0.4831082284251025,-0.7952339847645038
16.894884824752808,-0.4699965715408325,2.989896059036255,-11.062100410461426,0.1314005445879688,0.0027086734771728516,0.11654162406921387,3.8585297975907262,-12.187753185507628,-0.3440475534428725,0.7057036858524841,0.014495640803272813,-0.4091982701785202,-0.45592583134635617,4.225734872567014,3.500087069987707,-11.992310655571002,-12.443971204097123,0.4831082284251025,-0.7952339847645038
16.90129017829895,-0.4699965715408325,2.989896059036255,-11.062100410461426,0.1314005445879688,0.0030355453491210938,0.11654162406921387,3.9278373442686343,-12.35445658668046,-0.11105925736352623,0.705197800058866,-0.22083829508748976,-0.36414598858285596,-0.3775035116325271,3.9408079814922545,3.9150981162501757,-12.354329328277268,-12.358397259104292,0.4831082284251025,-0.7952339847645038
16.91153573989868,-0.48931917548179626,2.93259859085083,-11.014543533325195,0.12257610429878364,0.003023386001586914,0.11654162406921387,3.927482387075098,-12.349558690505619,-0.13105925736352622,0.7071395267173733,-0.22908478249710362,-0.2758162552049073,-0.27159906840476455,3.9473407519843935,3.908022069345183,-12.34872673797075,-12.355649188706707,0.4831082284251025,-0.7952339847645038
16.921395301818848,-0.48931917548179626,2.93259859085083,-11.014543533325195,0.12257610429878364,0.003001689910888672,0.11654162406921387,3.9269434260927585,-12.343222347089075,-0.15105925736352624,0.706625426556704,-0.2876493452266393,-0.23468803715405112,-0.22697523850393017,3.9555056751261106,3.8989690678359543,-12.340835495606305,-12.352304208410846,0.4831082284251025,-0.7952339847645038
16.931392431259155,-0.5015134215354919,2.8932106494903564,-10.982407569885254,0.11628950036132561,0.002897977828979492,0.11654162406921387,3.926196847821721,-12.335454003632465,-0.17105925736352626,0.7077833892254329,-0.20052417612571416,-0.17093132223207966,-0.17438106879987472,3.9656038840426246,3.8875912812758946,-12.330310527743796,-12.348723250215611,0.4831082284251025,-0.7952339847645038
16.941648960113525,-0.5015134215354919,2.8932106494903564,-10.982407569885254,0.11628950036132561,0.0030524730682373047,0.11654162406921387,3.925218637349285,-12.32625711206693,-0.19105925736352627,0.7072879932104559,-0.25843658027445615,-0.14227866827317306,-0.16587207149086158,3.9781022534618415,3.8733741635499674,-12.316665496684472,-12.345402560514565,0.4831082284251025,-0.7952339847645038
16.95125913619995,-0.5186764001846313,2.8324499130249023,-10.933662414550781,0.10630782933705593,0.003053903579711914,0.11654162406921387,3.9239845513939597,-12.315632095696646,-0.2110592573635263,0.7088661592125072,-0.07796769505575041,-0.06669742740801374,-0.12038294521734065,3.993715797402114,3.855554398915195,-12.299210915328374,-12.343035508756232,0.5073389439852707,-0.9287072393636513
16.96150016784668,-0.5186764001846313,2.8324499130249023,-10.933662414550781,0.10630782933705593,0.0033698081970214844,0.11654162406921387,3.922470293300372,-12.303576325678234,-0.2310592573635263,0.7083636527472862,-0.1349849359661397,-0.03285570466229522,-0.11997443234253964,4.01353717418531,3.832990745162865,-12.27692105254995,-12.342645625172134,0.5073389439852707,-0.9287072393636513
16.971362113952637,-0.5293432474136353,2.7915492057800293,-10.90116024017334,0.09903529671633177,0.00333404541015625,0.11654162406921387,3.9206516894399863,-12.290084107396153,-0.2510592573635263,0.7091107554622597,-0.015534583261173296,0.017771529230224833,-0.10147784486231103,4.039243801837584,3.8039572697495174,-12.248277833089455,-12.345742663729396,0.5073389439852707,-0.9287072393636513
16.981317043304443,-0.5293432474136353,2.7915492057800293,-10.90116024017334,0.09903529671633177,0.0026979446411132812,0.11654162406921387,3.9185048664745237,-12.275146676760567,-0.2710592573635263,0.7086193138562069,-0.07194010019107155,0.041045606533941924,-0.10203173459390916,4.073416211300744,3.7658253503850663,-12.210997357498497,-12.354596064856006,0.5073389439852707,-0.9287072393636513
16.991575956344604,-0.544146716594696,2.729671001434326,-10.852330207824707,0.08770149982735792,0.0031440258026123047,0.11654162406921387,3.91600642894314,-12.258752206421281,-0.29105925736352634,0.7099338583753301,0.1580123757137173,0.09732420002109679,-0.08008156229495333,4.12001379586545,3.714588280584261,-12.161564151070007,-12.37270070902827,0.5073389439852707,-0.9287072393636513
17.126256942749023,-0.5956169366836548,2.3833019733428955,-10.590843200683594,0.03069902510343725,0.00220489501953125,0.1250898838043213,3.913133636640576,-12.240885821859374,-0.31105925736352635,0.6993652055916096,1.0,0.28811157743691057,-0.027149412238566758,4.185041473929629,3.6441949620058685,-12.09445414736441,-12.40555395556373,0.5073389439852707,-0.9287072393636513
17.133687257766724,-0.5956169366836548,2.3833019733428955,-10.590843200683594,0.03069902510343725,0.001963376998901367,0.1250898838043213,3.909864581261603,-12.221529627287213,-0.33105925736352637,0.6986504382109259,1.0,0.3781751714749495,-0.04356103796033024,4.277360783229748,3.5457391643740044,-12.000845318815053,-12.46194505402849,0.4596603468578153,-1.7805685798721695
17.141624212265015,-0.5973179936408997,2.360828161239624,-10.574362754821777,0.027600413074212432,0.002508878707885742,0.1250898838043213,3.927681410664789,-12.352187963338723,-0.12105925736352623,0.6985171187720838,1.0,0.4222438427263106,-0.03621404250370219,3.9408079814922545,3.9150981162501757,-12.354329328277268,-12.358397259104292,0.4596603468578153,-1.7805685798721695
17.151270389556885,-0.6002301573753357,2.31569766998291,-10.541311264038086,0.02157600883729728,0.0022737979888916016,0.1250898838043213,3.927237371481033,-12.346569852008571,-0.14105925736352623,0.6989680555348915,1.0,0.45799285337950574,-0.03309329987879901,3.9473407519843935,3.908022069345183,-12.34872673797075,-12.355649188706707,0.4534585262885069,-1.8204562320336044
17.161461114883423,-0.6014431118965149,2.2930428981781006,-10.524774551391602,0.018644731136704062,0.002259969711303711,0.1250898838043213,3.92659758265926,-12.3395168889797,-0.16105925736352625,0.6988341982511871,1.0,0.4808754499598686,-0.02962642597810855,3.9555056751261106,3.8989690678359543,-12.340835495606305,-12.352304208410846,0.4534585262885069,-1.8204562320336044
17.17132329940796,-0.602495014667511,2.270329713821411,-10.508207321166992,0.015769298204214383,0.0021119117736816406,0.1250898838043213,3.925738208505905,-12.331034028599516,-0.18105925736352627,0.6987018127785432,1.0,0.49894553896936406,-0.028811844409131968,3.9656038840426246,3.8875912812758946,-12.330310527743796,-12.348723250215611,0.4534585262885069,-1.8204562320336044
17.181546688079834,-0.6033865809440613,2.247558832168579,-10.491608619689941,0.012945338115983418,0.002130270004272461,0.1250898838043213,3.924635098158655,-12.3211232120423,-0.20105925736352628,0.6985586431526288,1.0,0.5151765353019213,-0.030347836996308455,3.9781022534618415,3.8733741635499674,-12.316665496684472,-12.345402560514565,0.4534585262885069,-1.8204562320336044
17.191522121429443,-0.604257345199585,2.1998777389526367,-10.45814037322998,0.00755077246718476,0.002344846725463867,0.1250898838043213,3.923263959674088,-12.30978333886104,-0.2210592573635263,0.6989837656046831,1.0,0.5394236497056136,-0.03863144996852004,3.993715797402114,3.855554398915195,-12.299210915328374,-12.343035508756232,0.4534585262885069,-1.8204562320336044
17.201313018798828,-0.6044596433639526,2.1759860515594482,-10.44135856628418,0.0049394034758376,0.0021750926971435547,0.1250898838043213,3.9216005357935515,-12.297010248409425,-0.24105925736352632,0.6988796667171705,1.0,0.5558528686914034,-0.04241521639124077,4.01353717418531,3.832990745162865,-12.27692105254995,-12.342645625172134,0.4534585262885069,-1.8204562320336044
17.211524963378906,-0.6045039296150208,2.1520612239837646,-10.424571990966797,0.0023301226491235227,0.002286672592163086,0.1250898838043213,3.919620780842906,-12.28279671117725,-0.2610592573635263,0.698798481124114,1.0,0.5677626841391663,-0.044460563494996136,4.039243801837584,3.8039572697495174,-12.248277833089455,-12.345742663729396,0.4534585262885069,-1.8204562320336044
17.22134017944336,-0.6041264533996582,2.104120969772339,-10.390886306762695,-0.0028405681158000656,0.002427816390991211,0.1250898838043213,3.9173010382248563,-12.267132430049136,-0.2810592573635263,0.6993957755036037,1.0,0.5796107886049232,-0.046880382906939744,4.073416211300744,3.7658253503850663,-12.210997357498497,-12.354596064856006,0.4534585262885069,-1.8204562320336044
17.231399297714233,-0.6037091612815857,2.0801119804382324,-10.373983383178711,-0.005386934571944335,0.002046823501586914,0.1250898838043213,3.9146182179677487,-12.250004051464067,-0.30105925736352634,0.6993507364220505,1.0,0.5857583449326949,-0.04621676258529417,4.12001379586545,3.714588280584261,-12.161564151070007,-12.37270070902827,0.4534585262885069,-1.8204562320336044
17.340696811676025,-0.6037091612815857,2.0801119804382324,-10.373983383178711,-0.005386934571944335,0.0025424957275390625,0.10237240791320801,3.911549973801876,-12.231395186421768,-0.32105925736352636,0.6985443447305957,1.0,0.587071801346821,-0.04447783982006291,4.185041473929629,3.6441949620058685,-12.09445414736441,-12.40555395556373,0.4534585262885069,-1.8204562320336044
17.350414752960205,-0.5754678845405579,1.7127958536148071,-10.114409446716309,-0.03461934345959464,0.002158641815185547,0.10237240791320801,3.9080748792433466,-12.21128644125158,-0.3410592573635264,0.7086207214693053,1.0,0.5268766624674722,0.03311798854905714,4.277360783229748,3.5457391643740044,-12.000845318815053,-12.46194505402849,0.5089000754689068,-1.4580904683615166
17.35681414604187,-0.5754678845405579,1.7127958536148071,-10.114409446716309,-0.03461934345959464,0.002405881881713867,0.10237240791320801,3.927482387075098,-12.349558690505619,-0.13105925736352622,0.7079340345906467,1.0,0.5114551335836406,0.03410972145035237,3.9408079814922545,3.9150981162501757,-12.354329328277268,-12.358397259104292,0.5089000754689068,-1.4580904683615166
17.363972663879395,-0.5685970783233643,1.6630557775497437,-10.078930854797363,-0.03681354573699857,0.0021228790283203125,0.10237240791320801,3.9269434260927585,-12.343222347089075,-0.15105925736352624,0.708805521821544,1.0,0.4923578056869585,0.04370717084445094,3.9473407519843935,3.908022069345183,-12.34872673797075,-12.355649188706707,0.5089000754689068,-1.4580904683615166
17.371427297592163,-0.5685970783233643,1.6630557775497437,-10.078930854797363,-0.03681354573699857,0.0023615360260009766,0.10237240791320801,3.926196847821721,-12.335454003632465,-0.17105925736352626,0.708122849609561,1.0,0.48712078559537825,0.038317192729152884,3.9555056751261106,3.8989690678359543,-12.340835495606305,-12.352304208410846,0.5089000754689068,-1.4580904683615166
17.38140869140625,-0.5650159120559692,1.6382968425750732,-10.061142921447754,-0.03780367885864592,0.0020723342895507812,0.10237240791320801,3.925218637349285,-12.32625711206693,-0.19105925736352627,0.7082383769189121,1.0,0.4778292212104452,0.04213086514428178,3.9656038840426246,3.8875912812758946,-12.330310527743796,-12.348723250215611,0.5089000754689068,-1.4580904683615166
17.391563177108765,-0.5575769543647766,1.589023232460022,-10.025467872619629,-0.039560044873993394,0.0024878978729248047,0.10237240791320801,3.9239845513939597,-12.315632095696646,-0.2110592573635263,0.7091785147262365,1.0,0.4588202427446005,0.05667488132958463,3.9781022534618415,3.8733741635499674,-12.316665496684472,-12.345402560514565,0.5089000754689068,-1.4580904683615166
17.401365041732788,-0.5537248253822327,1.5645174980163574,-10.007583618164062,-0.04031747026269842,0.002293109893798828,0.10237240791320801,3.922470293300372,-12.303576325678234,-0.2310592573635263,0.7092836340863449,1.0,0.44567351306635344,0.06044371328786989,3.993715797402114,3.855554398915195,-12.299210915328374,-12.343035508756232,0.5089000754689068,-1.4580904683615166
17.411552667617798,-0.5498079657554626,1.5401116609573364,-9.989705085754395,-0.04099755879231143,0.002354145050048828,0.10237240791320801,3.9206516894399863,-12.290084107396153,-0.2510592573635263,0.7093771206210613,1.0,0.4337450956407283,0.06362614861334474,4.01353717418531,3.832990745162865,-12.27692105254995,-12.342645625172134,0.5089000754689068,-1.4580904683615166
17.421345233917236,-0.5458090901374817,1.5158039331436157,-9.9718017578125,-0.04161764912121745,0.0022635459899902344,0.10237240791320801,3.9185048664745237,-12.275146676760567,-0.2710592573635263,0.7094732907090788,1.0,0.4223662970226064,0.06693144109763044,4.039243801837584,3.8039572697495174,-12.248277833089455,-12.345742663729396,0.5089000754689068,-1.4580904683615166
17.43152642250061,-0.5364311933517456,1.467273473739624,-9.935561180114746,-0.0426464644591953,0.0022132396697998047,0.10237240791320801,3.91600642894314,-12.258752206421281,-0.29105925736352634,0.7103880897580569,1.0,0.4046253691085684,0.07834681771233128,4.073416211300744,3.7658253503850663,-12.210997357498497,-12.354596064856006,0.5089000754689068,-1.4580904683615166
17.44180393218994,-0.5310742259025574,1.4430649280548096,-9.917232513427734,-0.04284264490250375,0.002395153045654297,0.10237240791320801,3.913133636640576,-12.240885821859374,-0.31105925736352635,0.7105383936726721,1.0,0.3945919513080899,0.0772521287248942,4.12001379586545,3.714588280584261,-12.161564151070007,-12.37270070902827,0.5089000754689068,-1.4580904683615166
17.45123839378357,-0.5256624221801758,1.4189776182174683,-9.898886680603027,-0.042968690894461745,0.0018351078033447266,0.10237240791320801,3.909864581261603,-12.221529627287213,-0.33105925736352637,0.7107037462004947,0.9650611112918543,0.3855807550693752,0.07789279452126938,4.185041473929629,3.6441949620058685,-12.09445414736441,-12.40555395556373,0.6995606098474438,-1.023390679867076
17.560819387435913,-0.5256624221801758,1.4189776182174683,-9.898886680603027,-0.042968690894461745,0.0021774768829345703,0.10197734832763672,3.9061783617969965,-12.200662741257789,-0.3510592573635264,0.7073699719854479,1.0,0.3834790747589907,0.07098015240470529,4.277360783229748,3.5457391643740044,-12.000845318815053,-12.46194505402849,0.6995606098474438,-1.023390679867076
17.568832397460938,-0.4392148554325104,1.074184536933899,-9.619817733764648,-0.038368052076090106,0.0020952224731445312,0.10197734832763672,3.927237371481033,-12.346569852008571,-0.14105925736352623,0.7211262869699941,0.5698337041266665,0.27875453195182315,0.21861661833013557,3.9408079814922545,3.9150981162501757,-12.354329328277268,-12.358397259104292,0.718123178857488,-1.1812223860098623
17.574748277664185,-0.4392148554325104,1.074184536933899,-9.619817733764648,-0.038368052076090106,0.0025789737701416016,0.10197734832763672,3.92659758265926,-12.3395168889797,-0.16105925736352625,0.7204921266298602,0.5767747356043481,0.28715843138607794,0.11684207364454874,3.9473407519843935,3.908022069345183,-12.34872673797075,-12.355649188706707,0.718123178857488,-1.1812223860098623
17.58183002471924,-0.4332028925418854,1.0520882606506348,-9.600168228149414,-0.03774022479514118,0.0019981861114501953,0.10197734832763672,3.925738208505905,-12.331034028599516,-0.18105925736352627,0.7210060023780368,0.5427729119739915,0.2710394598440978,0.11009595728922104,3.9555056751261106,3.8989690678359543,-12.340835495606305,-12.352304208410846,0.718123178857488,-1.1812223860098623
17.591540575027466,-0.4211365282535553,1.008515477180481,-9.56082820892334,-0.036363352079003944,0.00225067138671875,0.10197734832763672,3.924635098158655,-12.3211232120423,-0.20105925736352628,0.722730370862783,0.4611697481600371,0.2536603170356025,0.11003307311200218,3.9656038840426246,3.8875912812758946,-12.330310527743796,-12.348723250215611,0.718123178857488,-1.1812223860098623
17.601370334625244,-0.41508638858795166,0.9870463609695435,-9.541133880615234,-0.03561313896187071,0.0020177364349365234,0.10197734832763672,3.923263959674088,-12.30978333886104,-0.2210592573635263,0.7233100205812317,0.4262950754191249,0.24279595075640026,0.10330728861132363,3.9781022534618415,3.8733741635499674,-12.316665496684472,-12.345402560514565,0.718123178857488,-1.1812223860098623
17.611641883850098,-0.4090278148651123,0.9657934904098511,-9.521454811096191,-0.0348203186151685,0.002114534378051758,0.10197734832763672,3.9216005357935515,-12.297010248409425,-0.24105925736352632,0.7239182113622986,0.392104731778244,0.23243453926150834,0.100625880526981,3.993715797402114,3.855554398915195,-12.299210915328374,-12.343035508756232,0.718123178857488,-1.1812223860098623
17.621484518051147,-0.4029712677001953,0.944757342338562,-9.501754760742188,-0.03398110973637766,0.0022726058959960938,0.10197734832763672,3.919620780842906,-12.28279671117725,-0.2610592573635263,0.7245086821042452,0.3583889039057069,0.22266047701577216,0.0989229376920973,4.01353717418531,3.832990745162865,-12.27692105254995,-12.342645625172134,0.718123178857488,-1.1812223860098623
17.631535053253174,-0.39084720611572266,0.9033693671226501,-9.462308883666992,-0.032269807312428844,0.002028226852416992,0.10197734832763672,3.9173010382248563,-12.267132430049136,-0.2810592573635263,0.7262565356860685,0.2688955528223549,0.20719770806856555,0.10348534507409139,4.039243801837584,3.8039572697495174,-12.248277833089455,-12.345742663729396,0.718123178857488,-1.1812223860098623
17.641768217086792,-0.3847837448120117,0.8830268979072571,-9.44256591796875,-0.031432231516452386,0.002394437789916992,0.10197734832763672,3.9146182179677487,-12.250004051464067,-0.30105925736352634,0.7268269449931227,0.24005344146918683,0.19797620985574496,0.09800957672986232,4.073416211300744,3.7658253503850663,-12.210997357498497,-12.354596064856006,0.718123178857488,-1.1812223860098623
17.651231288909912,-0.3787218928337097,0.8629238605499268,-9.422808647155762,-0.03061283561227371,0.0018939971923828125,0.10197734832763672,3.911549973801876,-12.231395186421768,-0.32105925736352636,0.7274109884684523,0.21512041050394703,0.1893469602106547,0.09508951455241255,4.12001379586545,3.714588280584261,-12.161564151070007,-12.37270070902827,0.6584445829260677,-0.7111052316601758
17.661483764648438,-0.3666105568408966,0.8234483599662781,-9.383282661437988,-0.02903197424849774,0.0022003650665283203,0.10197734832763672,3.9080748792433466,-12.21128644125158,-0.3410592573635264,0.729245563984313,0.14062181420289166,0.17707602731870997,0.09679399286016264,4.185041473929629,3.6441949620058685,-12.09445414736441,-12.40555395556373,0.6584445829260677,-0.7111052316601758
17.67129921913147,-0.360564261674881,0.8040811419487,-9.363510131835938,-0.028259436204810806,0.0024852752685546875,0.10197734832763672,3.9041726021763425,-12.189655458030314,-0.3610592573635264,0.7298680550651675,0.12494226466728786,0.16949788580257386,0.09196154595513639,4.277360783229748,3.5457391643740044,-12.000845318815053,-12.46194505402849,0.6584445829260677,-0.7111052316601758
17.681384325027466,-0.3545261025428772,0.7849639654159546,-9.343717575073242,-0.02749104256314225,0.002231597900390625,0.10197734832763672,3.9269434260927585,-12.343222347089075,-0.15105925736352624,0.7305002657049292,0.04438851749316253,0.16238492922387543,0.08909175774886714,3.9408079814922545,3.9150981162501757,-12.354329328277268,-12.358397259104292,0.6584445829260677,-0.7111052316601758
17.7911479473114,-0.3545261025428772,0.7849639654159546,-9.343717575073242,-0.02749104256314225,0.0024154186248779297,0.10205650329589844,3.926196847821721,-12.335454003632465,-0.17105925736352626,0.7191130172235567,-0.1710920356331247,0.15987105136724333,0.08347759837274776,3.9473407519843935,3.908022069345183,-12.34872673797075,-12.355649188706707,0.6584445829260677,-0.7111052316601758
17.800402641296387,-0.25877758860588074,0.5193541646003723,-9.027078628540039,-0.015928002560942456,0.00203704833984375,0.10205650329589844,3.925218637349285,-12.32625711206693,-0.19105925736352627,0.7394668289558275,-0.941266228906007,0.10637401158951998,0.1186061412966474,3.9555056751261106,3.8989690678359543,-12.340835495606305,-12.352304208410846,0.8124974946534342,-1.1546636096466938
17.80637264251709,-0.25877758860588074,0.5193541646003723,-9.027078628540039,-0.015928002560942456,0.00232696533203125,0.10205650329589844,3.9239845513939597,-12.315632095696646,-0.2110592573635263,0.7388421908564115,-0.9698439134602237,0.09467889213311723,0.08208303463791607,3.9656038840426246,3.8875912812758946,-12.330310527743796,-12.348723250215611,0.8124974946534342,-1.1546636096466938
17.813626289367676,-0.24781695008277893,0.4929247200489044,-8.98575210571289,-0.0144024171532329,0.0023212432861328125,0.10205650329589844,3.922470293300372,-12.303576325678234,-0.2310592573635263,0.7410290860036379,-1.0,0.07962510801077687,0.06195456743278059,3.9781022534618415,3.8733741635499674,-12.316665496684472,-12.345402560514565,0.8124974946534342,-1.1546636096466938
17.821338891983032,-0.24781695008277893,0.4929247200489044,-8.98575210571289,-0.0144024171532329,0.0025022029876708984,0.10205650329589844,3.9206516894399863,-12.290084107396153,-0.2510592573635263,0.7403938790835568,-1.0,0.07225213465242869,0.04878280267041825,3.993715797402114,3.855554398915195,-12.299210915328374,-12.343035508756232,0.8124974946534342,-1.1546636096466938
17.831446409225464,-0.2369328886270523,0.46742385625839233,-8.944355964660645,-0.012733528082060075,0.0022199153900146484,0.10205650329589844,3.9185048664745237,-12.275146676760567,-0.2710592573635263,0.7425961305555571,-1.0,0.0615493318539055,0.04132154547164501,4.01353717418531,3.832990745162865,-12.27692105254995,-12.342645625172134,0.8124974946534342,-1.1546636096466938
17.841739416122437,-0.23152288794517517,0.4550319314002991,-8.92363452911377,-0.011892023872223018,0.002439260482788086,0.10205650329589844,3.91600642894314,-12.258752206421281,-0.29105925736352634,0.7433023551888533,-1.0,0.05406584968525673,0.03592022215898617,4.039243801837584,3.8039572697495174,-12.248277833089455,-12.345742663729396,0.8124974946534342,-1.1546636096466938
17.851287841796875,-0.22613616287708282,0.4428838789463043,-8.902907371520996,-0.011069855455692557,0.0020122528076171875,0.10205650329589844,3.913133636640576,-12.240885821859374,-0.31105925736352635,0.7439585193027267,-1.0,0.0478802743369299,0.03190643608915578,4.073416211300744,3.7658253503850663,-12.210997357498497,-12.354596064856006,0.5324137945800116,-0.582364140709773
17.861514806747437,-0.2207740843296051,0.43098098039627075,-8.88217830657959,-0.010287245640613674,0.0022232532501220703,0.10205650329589844,3.909864581261603,-12.221529627287213,-0.33105925736352637,0.7445919223151596,-1.0,0.0425744990001644,0.028661733449691782,4.12001379586545,3.714588280584261,-12.161564151070007,-12.37270070902827,0.5324137945800116,-0.582364140709773
17.871309280395508,-0.20999476313591003,0.40787702798843384,-8.840409278869629,-0.00886288785157438,0.0025696754455566406,0.10205650329589844,3.9061783617969965,-12.200662741257789,-0.3510592573635264,0.7464928432599809,-1.0,0.03579975375571795,0.025369977621716663,4.185041473929629,3.6441949620058685,-12.09445414736441,-12.40555395556373,0.5324137945800116,-0.582364140709773
17.881396532058716,-0.20461247861385345,0.3966822922229767,-8.81943416595459,-0.008206246004065554,0.002157926559448242,0.10205650329589844,3.9020552581778585,-12.17826134185571,-0.3710592573635264,0.747079992769116,-1.0,0.031517037082546315,0.022245862798216064,4.277360783229748,3.5457391643740044,-12.000845318815053,-12.46194505402849,0.5324137945800116,-0.582364140709773
17.891552925109863,-0.19928795099258423,0.3857360780239105,-8.79853630065918,-0.007583706049583694,0.0023550987243652344,0.10205650329589844,3.92659758265926,-12.3395168889797,-0.16105925736352625,0.7476369331375693,-1.0,0.028140627306651046,0.019571079349545557,3.9408079814922545,3.9150981162501757,-12.354329328277268,-12.358397259104292,0.5324137945800116,-0.582364140709773
17.901360273361206,-0.19401174783706665,0.3750289976596832,-8.777697563171387,-0.00699751994485065,0.0020160675048828125,0.10205650329589844,3.925738208505905,-12.331034028599516,-0.18105925736352627,0.748165636972161,-1.0,0.025245101411789858,0.01726397835519165,3.9473407519843935,3.908022069345183,-12.34872673797075,-12.355649188706707,0.5324137945800116,-0.582364140709773
17.911750555038452,-0.18359053134918213,0.35431161522865295,-8.736228942871094,-0.0059077808966767065,0.002414226531982422,0.10205650329589844,3.924635098158655,-12.3211232120423,-0.20105925736352628,0.7498188064300665,-1.0,0.021426696717643946,0.014630213739215959,3.9555056751261106,3.8989690678359543,-12.340835495606305,-12.352304208410846,0.5324137945800116,-0.582364140709773
18.020453214645386,-0.11968544125556946,0.2578553855419159,-8.464127540588379,0.0011266382191072039,0.0027840137481689453,0.10028696060180664,3.923263959674088,-12.30978333886104,-0.2210592573635263,0.7464680522421104,-0.8085972403680045,0.012190792008530606,0.003260357404237773,3.9656038840426246,3.8875912812758946,-12.330310527743796,-12.348723250215611,0.5324137945800116,-0.582364140709773
18.02938437461853,-0.11968544125556946,0.2578553855419159,-8.464127540588379,0.0011266382191072039,0.002151966094970703,0.10028696060180664,3.9216005357935515,-12.297010248409425,-0.24105925736352632,0.7457330350460251,-0.8502365634496254,0.00995143816735933,0.0007485569544209212,3.9781022534618415,3.8733741635499674,-12.316665496684472,-12.345402560514565,0.5317782499246579,-0.9153446921694308
18.036999940872192,-0.10570520907640457,0.23949119448661804,-8.402100563049316,0.002521703862280178,0.002314329147338867,0.10028696060180664,3.919620780842906,-12.28279671117725,-0.2610592573635263,0.7476854375282144,-0.7940457043663601,0.00858457949381264,-0.0019195615266008469,3.993715797402114,3.855554398915195,-12.299210915328374,-12.343035508756232,0.5317782499246579,-0.9153446921694308
18.04355764389038,-0.10570520907640457,0.23949119448661804,-8.402100563049316,0.002521703862280178,0.0023643970489501953,0.10028696060180664,3.9173010382248563,-12.267132430049136,-0.2810592573635263,0.7469424266981779,-0.8390191063009363,0.008220310310272446,-0.00283277456907524,4.01353717418531,3.832990745162865,-12.27692105254995,-12.342645625172134,0.5317782499246579,-0.9153446921694308
18.051820039749146,-0.10110623389482498,0.23360981047153473,-8.381491661071777,0.0029822467860507185,0.0019659996032714844,0.10028696060180664,3.9146182179677487,-12.250004051464067,-0.30105925736352634,0.7470561546681014,-0.8483097549241146,0.007885032864394261,-0.0037554611139681096,4.039243801837584,3.8039572697495174,-12.248277833089455,-12.345742663729396,0.5015640297895607,-0.9042154908315729
18.061460971832275,-0.09633802622556686,0.2295653373003006,-8.360400199890137,0.003439505098884743,0.0022134780883789062,0.10028696060180664,3.911549973801876,-12.231395186421768,-0.32105925736352636,0.7472199143587397,-0.8663138483225529,0.0076006691188075315,-0.004560481724573832,4.073416211300744,3.7658253503850663,-12.210997357498497,-12.354596064856006,0.5015640297895607,-0.9042154908315729
18.07125949859619,-0.09633802622556686,0.2295653373003006,-8.360400199890137,0.003439505098884743,0.0022096633911132812,0.10028696060180664,3.9080748792433466,-12.21128644125158,-0.3410592573635264,0.7464659924710343,-0.9164060208038706,0.0075393782876329056,-0.004900715612926618,4.12001379586545,3.714588280584261,-12.161564151070007,-12.37270070902827,0.5015640297895607,-0.9042154908315729
18.081488132476807,-0.08227520436048508,0.21787555515766144,-8.297410011291504,0.0053188824955959085,0.002159595489501953,0.10028696060180664,3.9041726021763425,-12.189655458030314,-0.3610592573635264,0.7483561729001666,-0.8696571246383411,0.006448376321909235,-0.006812507080237173,4.185041473929629,3.6441949620058685,-12.09445414736441,-12.40555395556373,0.5015640297895607,-0.9042154908315729
18.091535091400146,-0.08227520436048508,0.21787555515766144,-8.297410011291504,0.0053188824955959085,0.0024290084838867188,0.10028696060180664,3.8998240774369837,-12.166476964507664,-0.3810592573635264,0.747598564753274,-0.9232462028977851,0.006294585791165516,-0.007219792110465881,4.277360783229748,3.5457391643740044,-12.000845318815053,-12.46194505402849,0.5015640297895607,-0.9042154908315729
18.10132646560669,-0.07310234010219574,0.2104090452194214,-8.255647659301758,0.006521296570855012,0.002019166946411133,0.10028696060180664,3.926196847821721,-12.335454003632465,-0.17105925736352626,0.7485329203488358,-0.9076121250720711,0.005720822496760377,-0.008375823430346159,3.9408079814922545,3.9150981162501757,-12.354329328277268,-12.358397259104292,0.5015640297895607,-0.9042154908315729
18.11149501800537,-0.07310234010219574,0.2104090452194214,-8.255647659301758,0.006521296570855012,0.0021982192993164062,0.10028696060180664,3.925218637349285,-12.32625711206693,-0.19105925736352627,0.7477723280159719,-0.9647701397389268,0.005672201269066076,-0.00861431408790922,3.9473407519843935,3.908022069345183,-12.34872673797075,-12.355649188706707,0.5015640297895607,-0.9042154908315729
18.121512413024902,-0.059608571231365204,0.1995905637741089,-8.193446159362793,0.008207078783807734,0.0024971961975097656,0.10028696060180664,3.9239845513939597,-12.315632095696646,-0.2110592573635263,0.7494229458212907,-0.9062393329649693,0.005366584649335617,-0.009887929907685424,3.9555056751261106,3.8989690678359543,-12.340835495606305,-12.352304208410846,0.5015640297895607,-0.9042154908315729
18.13147735595703,-0.059608571231365204,0.1995905637741089,-8.193446159362793,0.008207078783807734,0.0021283626556396484,0.10028696060180664,3.922470293300372,-12.303576325678234,-0.2310592573635263,0.7486616883850997,-0.9670419575256787,0.005392255634007888,-0.010257840909936367,3.9656038840426246,3.8875912812758946,-12.330310527743796,-12.348723250215611,0.5015640297895607,-0.9042154908315729
18.14179253578186,-0.05081655830144882,0.19259952008724213,-8.152203559875488,0.00926860969500129,0.0024275779724121094,0.10028696060180664,3.9206516894399863,-12.290084107396153,-0.2510592573635263,0.7494237358265659,-0.9419930769464798,0.005309887554173089,-0.011026640256933465,3.9781022534618415,3.8733741635499674,-12.316665496684472,-12.345402560514565,0.5015640297895607,-0.9042154908315729
18.253602266311646,0.009999207220971584,0.1553972363471985,-7.843952655792236,0.016694095989253102,0.0031135082244873047,0.10099053382873535,3.9185048664745237,-12.275146676760567,-0.2710592573635263,0.7497128071496961,-0.12260676708266172,0.003002788035737637,-0.016932396839860503,3.993715797402114,3.855554398915195,-12.299210915328374,-12.343035508756232,0.4053360986748218,-0.7617350234926805
18.26134967803955,0.009999207220971584,0.1553972363471985,-7.843952655792236,0.016694095989253102,0.002320528030395508,0.10099053382873535,3.91600642894314,-12.258752206421281,-0.29105925736352634,0.7489833363264636,-0.2063243983902876,0.00374161864989931,-0.019090578472221904,4.01353717418531,3.832990745162865,-12.27692105254995,-12.342645625172134,0.4053360986748218,-0.7617350234926805
18.271278142929077,0.009999207220971584,0.1553972363471985,-7.843952655792236,0.016694095989253102,0.002110004425048828,0.10099053382873535,3.913133636640576,-12.240885821859374,-0.31105925736352635,0.7482574098338141,-0.2894193165822059,0.00405946875950763,-0.020144228258920246,4.039243801837584,3.8039572697495174,-12.248277833089455,-12.345742663729396,0.4053360986748218,-0.7617350234926805
18.28151774406433,0.02111910842359066,0.14811091125011444,-7.783448696136475,0.017930033973264224,0.0021851062774658203,0.10099053382873535,3.909864581261603,-12.221529627287213,-0.33105925736352637,0.7492449412898451,-0.07926604836933049,0.003767659635917077,-0.02121465606277321,4.073416211300744,3.7658253503850663,-12.210997357498497,-12.354596064856006,0.4053360986748218,-0.7617350234926805
18.291588306427002,0.02111910842359066,0.14811091125011444,-7.783448696136475,0.017930033973264224,0.0026319026947021484,0.10099053382873535,3.9061783617969965,-12.200662741257789,-0.3510592573635264,0.748527531954,-0.10266491703114455,0.0038692242165948476,-0.022191482494728056,4.12001379586545,3.714588280584261,-12.161564151070007,-12.37270070902827,0.4053360986748218,-0.7617350234926805
18.30136489868164,0.02834680862724781,0.14293430745601654,-7.743366718292236,0.018686811716281764,0.001980304718017578,0.10099053382873535,3.9020552581778585,-12.17826134185571,-0.3710592573635264,0.7487950360825544,0.03740371712146695,0.0036785557148655457,-0.023074054307545173,4.185041473929629,3.6441949620058685,-12.09445414736441,-12.40555395556373,0.4053360986748218,-0.7617350234926805
18.31153440475464,0.02834680862724781,0.14293430745601654,-7.743366718292236,0.018686811716281764,0.0022754669189453125,0.10099053382873535,3.8974769026782803,-12.154298721315044,-0.3910592573635264,0.7480848352310239,0.01431096105336982,0.0037823730641872787,-0.02379406498701501,4.277360783229748,3.5457391643740044,-12.000845318815053,-12.46194505402849,0.4053360986748218,-0.7617350234926805
18.321404933929443,0.03998103737831116,0.13691991567611694,-7.681699752807617,0.019809964665103798,0.00225067138671875,0.10099053382873535,3.925738208505905,-12.331034028599516,-0.18105925736352627,0.7489462420917207,0.20795545179190333,0.0039789747263935865,-0.024754972589857198,3.9408079814922545,3.9150981162501757,-12.354329328277268,-12.358397259104292,0.4053360986748218,-0.7617350234926805
18.331438541412354,0.03998103737831116,0.13691991567611694,-7.681699752807617,0.019809964665103798,0.002131938934326172,0.10099053382873535,3.924635098158655,-12.3211232120423,-0.20105925736352628,0.7482437192513862,0.1851505670454594,0.00418943232244155,-0.025762210027813297,3.9473407519843935,3.908022069345183,-12.34872673797075,-12.355649188706707,0.4053360986748218,-0.7617350234926805
18.34180521965027,0.04376889392733574,0.13472095131874084,-7.661278247833252,0.020172809075664704,0.0023393630981445312,0.10099053382873535,3.923263959674088,-12.30978333886104,-0.2210592573635263,0.7480742542746344,0.22851744099463955,0.004355906736260601,-0.026525830006471428,3.9555056751261106,3.8989690678359543,-12.340835495606305,-12.352304208410846,0.4053360986748218,-0.7617350234926805
18.351226091384888,0.0475141778588295,0.13242222368717194,-7.640920639038086,0.020519014998083222,0.0019156932830810547,0.10099053382873535,3.9216005357935515,-12.297010248409425,-0.24105925736352632,0.7479060692877204,0.2689951899953986,0.004459515629602273,-0.027273821674500404,3.9656038840426246,3.8875912812758946,-12.330310527743796,-12.348723250215611,0.26901715682535077,-1.0145004855055035
18.36153268814087,0.054879508912563324,0.12751944363117218,-7.600427150726318,0.021164573680075287,0.0023565292358398438,0.10099053382873535,3.919620780842906,-12.28279671117725,-0.2610592573635263,0.7482605797756773,0.36395278167620043,0.0045119735297234,-0.028203144761873224,3.9781022534618415,3.8733741635499674,-12.316665496684472,-12.345402560514565,0.26901715682535077,-1.0145004855055035
18.37149453163147,0.05850054696202278,0.12491310387849808,-7.580287456512451,0.02146505638025198,0.002888202667236328,0.10099053382873535,3.9173010382248563,-12.267132430049136,-0.2810592573635263,0.7480885691354767,0.39643526907846477,0.004673599500791986,-0.029036285214668923,3.993715797402114,3.855554398915195,-12.299210915328374,-12.343035508756232,0.26901715682535077,-1.0145004855055035
18.482798099517822,0.06208134442567825,0.12220244854688644,-7.56020450592041,0.021748326846898557,0.003095865249633789,0.10179018974304199,3.9146182179677487,-12.250004051464067,-0.30105925736352634,0.7429762757046576,0.3128896839355857,0.005086172544779349,-0.02975487847234604,4.01353717418531,3.832990745162865,-12.27692105254995,-12.342645625172134,0.26901715682535077,-1.0145004855055035
18.492445468902588,0.10907576233148575,0.06650719791650772,-7.260401248931885,0.02412442851565237,0.0021681785583496094,0.10179018974304199,3.911549973801876,-12.231395186421768,-0.32105925736352636,0.7499754695427178,0.7899528759287233,0.0018177256465234711,-0.0316526026056161,4.039243801837584,3.8039572697495174,-12.248277833089455,-12.345742663729396,0.22775750329725053,-1.206796768382003
18.501402139663696,0.10907576233148575,0.06650719791650772,-7.260401248931885,0.02412442851565237,0.002061128616333008,0.10179018974304199,3.9080748792433466,-12.21128644125158,-0.3410592573635264,0.7493680126023777,0.7692471504501223,0.0016630393054875067,-0.03149415178898555,4.073416211300744,3.7658253503850663,-12.210997357498497,-12.354596064856006,0.22775750329725053,-1.206796768382003
