time,x,y,z,yaw,ctrl_comp_time,rollout_comptime,x_ref,y_ref,z_ref,yaw_ref,throttle,roll_rate,pitch_rate,yaw_rate,save_tube_pyH,save_tube_pyL,save_tube_pzH,save_tube_pzL,wy,wz
15.055036306381226,0.00460388045758009,3.849644899368286,-12.349796295166016,-0.0031054569987240994,0.14310717582702637,6.0,nan,nan,nan,nan,0.5778613142100901,-1.0,0.02064504183238917,0.01771472312719402,3.8501448993682863,3.849144899368286,-12.349296295166015,-12.350296295166016,-0.8664513687798178,-0.04029484749385871
15.782928943634033,0.019459756091237068,3.8646020889282227,-12.22168254852295,0.001132358439575834,0.1984386444091797,6.0,nan,nan,nan,nan,0.6447810747835622,1.0,0.009179782517298913,0.04850729217097207,3.8524756893845145,3.847396549096428,-12.352223965040574,-12.353507679429686,-0.5315916719475211,-7.833869932185232
15.94153118133545,0.019459756091237068,3.8646020889282227,-12.22168254852295,0.001132358439575834,0.001522064208984375,6.0,nan,nan,nan,nan,0.6341441696860264,-1.0,0.024687027979319567,0.009598917818532594,3.8604412567138877,3.840323354938549,-12.348785443187733,-12.350950879807776,-0.4978278231958666,1.1245250375746254
15.947795152664185,0.020805073902010918,3.6667120456695557,-11.723211288452148,-0.0010100519966333432,0.0025167465209960938,6.0,nan,nan,nan,nan,0.7178162889761542,1.0,-0.09206523866891428,-0.16986848438348118,3.8745218909277006,3.827140850263611,-12.33810883492122,-12.34390217423547,-0.4978278231958666,1.1245250375746254
15.957473993301392,0.020033909007906914,3.6357059478759766,-11.676128387451172,-0.0013202875736694764,0.0025463104248046875,6.0,nan,nan,nan,nan,0.7208486535644472,1.0,-0.14091493946804434,-0.1405279247590399,3.8962190167591997,3.8060003278547256,-12.31830477996447,-12.334569378274747,-0.4978278231958666,1.1245250375746254
15.966782093048096,0.019758062437176704,3.6249446868896484,-11.660188674926758,-0.0013990782086743259,0.0014395713806152344,6.0,nan,nan,nan,nan,0.7213402998838168,1.0,-0.15580062417725635,-0.155654354089763,3.9292206867370574,3.7728333623125696,-12.28551478963729,-12.32703826918678,-0.4978278231958666,1.1245250375746254
15.976848125457764,0.01947236992418766,3.613976001739502,-11.644145965576172,-0.0014710717618362512,0.0014691352844238281,6.0,nan,nan,nan,nan,0.7217900882962762,1.0,-0.16702804262465815,-0.1696350144488819,3.9822685743762682,3.7184953969217864,-12.231332832524643,-12.329846935284099,-0.4978278231958666,1.1245250375746254
15.986696243286133,0.01947236992418766,3.613976001739502,-11.644145965576172,-0.0014710717618362512,0.0014050006866455078,6.0,nan,nan,nan,nan,0.7210174642833369,1.0,-0.1746893828987519,-0.182621017675074,3.8501448993682863,3.849144899368286,-12.349296295166015,-12.350296295166016,-0.4978278231958666,1.1245250375746254
15.997373104095459,0.01856629177927971,3.5798323154449463,-11.595466613769531,-0.0017240060008486546,0.0022132396697998047,6.0,nan,nan,nan,nan,0.7227942083986597,1.0,-0.18554783427452354,-0.18669234579326377,3.852475689384509,3.847396549096423,-12.352223965040574,-12.353507679429686,-0.4978278231958666,1.1245250375746254
16.006917715072632,0.01856629177927971,3.5798323154449463,-11.595466613769531,-0.0017240060008486546,0.002445220947265625,6.0,nan,nan,nan,nan,0.7220597506155888,1.0,-0.19086235938363824,-0.19466731595916523,3.860441256713863,3.840323354938524,-12.348785443187733,-12.350950879807776,-0.5793738995908377,-0.3140553275693123
16.01722502708435,0.01789396069943905,3.555964469909668,-11.562777519226074,-0.0017480773695342788,0.0020761489868164062,6.0,nan,nan,nan,nan,0.7223045693111065,1.0,-0.196250697996383,-0.19685844843065617,3.874521890927642,3.8271408502635524,-12.338108834921218,-12.343902174235467,-0.5793738995908377,-0.3140553275693123
16.02737784385681,0.01789396069943905,3.555964469909668,-11.562777519226074,-0.0017480773695342788,0.002335071563720703,6.0,nan,nan,nan,nan,0.7216018538393482,1.0,-0.19892621266745328,-0.20101040066030076,3.8962190167590935,3.8060003278546177,-12.318304779964468,-12.334569378274736,-0.5793738995908377,-0.3140553275693123
16.03702664375305,0.01677786000072956,3.5185110569000244,-11.513602256774902,-0.001606432580432332,0.002244710922241211,6.0,nan,nan,nan,nan,0.7222839889903547,1.0,-0.20026868868147002,-0.19772915726483073,3.9292206867368913,3.772833362312396,-12.285514789637293,-12.327038269186755,-0.5793738995908377,-0.3140553275693123
16.213062047958374,0.01677786000072956,3.5185110569000244,-11.513602256774902,-0.001606432580432332,0.002044200897216797,6.0,nan,nan,nan,nan,0.702684848790883,-1.0,-0.20036634191383249,-0.1972643522709938,3.9822685743760333,3.7184953969215244,-12.23133283252466,-12.32984693528404,-0.5793738995908377,-0.3140553275693123
16.22174620628357,-0.0066961562260985374,3.1866793632507324,-11.153985023498535,-0.007357757787690725,0.0016965866088867188,6.0,nan,nan,nan,nan,0.713822568628054,0.10460908609871988,-0.13982626763523975,-0.10217085890850494,3.865102088928223,3.8641020889282225,-12.221182548522949,-12.22218254852295,-1.095840662688703,-1.834300173587092
16.228758811950684,-0.00815960206091404,3.168337106704712,-11.136439323425293,-0.008099854465722311,0.0012912750244140625,6.0,nan,nan,nan,nan,0.7138278018189743,-0.063196719773706,-0.11163772993937514,-0.10271597467998886,3.864025036854839,3.858846618713397,-12.19039711015451,-12.193158012983288,-1.095840662688703,-1.834300173587092
16.237155199050903,-0.011034417897462845,3.131467580795288,-11.101439476013184,-0.009675157647857147,0.0019443035125732422,6.0,nan,nan,nan,nan,0.7145888122186539,-0.19911202583875576,-0.09210743355693932,-0.08924006668427237,3.867665280295662,3.8464230633286474,-12.151774294888224,-12.162004027449118,-1.095840662688703,-1.834300173587092
16.246724843978882,-0.01244410965591669,3.1129491329193115,-11.083968162536621,-0.01050657320558597,0.0011947154998779297,6.0,nan,nan,nan,nan,0.7146313388304706,-0.379357051355941,-0.07755492809806727,-0.07296552654771143,3.8773744946371793,3.825000873761551,-12.103660341300262,-12.130107848220403,-1.095840662688703,-1.834300173587092
16.25691866874695,-0.013834272511303425,3.0943808555603027,-11.066516876220703,-0.01135799200163571,0.0015017986297607422,6.0,nan,nan,nan,nan,0.7146636034713563,-0.5634883839696425,-0.06481901650331681,-0.05578439480469041,3.896461780270571,3.7908250793342293,-12.042934184728994,-12.100220889300235,-1.095840662688703,-1.834300173587092
16.26673722267151,-0.015203923918306828,3.075767755508423,-11.049087524414062,-0.012232229791724537,0.0012500286102294922,6.0,nan,nan,nan,nan,0.7146728444595949,-0.7488365900102094,-0.05291625821009966,-0.038343663286692316,3.9323482702022345,3.7360731523462185,-11.963397368183294,-12.07807209722761,-1.095840662688703,-1.834300173587092
16.27756690979004,-0.017880024388432503,3.038407564163208,-11.014298439025879,-0.014036933200113684,0.0024161338806152344,6.0,nan,nan,nan,nan,0.7154021353376321,-0.8879838301975602,-0.03880429349171951,-0.018773730909396436,4.001424577866821,3.6440086760090185,-11.852586888833677,-12.075559602758236,-1.095840662688703,-1.834300173587092
16.435486316680908,-0.017880024388432503,3.038407564163208,-11.014298439025879,-0.014036933200113684,0.001310586929321289,6.0,nan,nan,nan,nan,0.6856767852421685,-0.16673485704843394,-0.030044175697531154,-0.005171273835002223,3.865102088928223,3.8641020889282225,-12.221182548522949,-12.22218254852295,-1.095840662688703,-1.834300173587092
16.44344139099121,-0.047747302800416946,2.649162530899048,-10.658703804016113,-0.031705632438138356,0.001436471939086914,6.0,nan,nan,nan,nan,0.6962031483178321,1.0,-0.0005968062765648171,0.02460596807668656,3.864025036854839,3.858846618713397,-12.19039711015451,-12.193158012983288,-0.5713378569481535,-2.8884301116660884
16.44733762741089,-0.047747302800416946,2.649162530899048,-10.658703804016113,-0.031705632438138356,0.0015261173248291016,6.0,nan,nan,nan,nan,0.6953255032367607,1.0,0.010937578384671152,0.025279994960710206,3.867665280295662,3.8464230633286474,-12.151774294888224,-12.162004027449118,-0.5713378569481535,-2.8884301116660884
16.457032442092896,-0.050804074853658676,2.6106059551239014,-10.622458457946777,-0.03330121693185868,0.002744913101196289,6.0,nan,nan,nan,nan,0.6952062323297248,1.0,0.01627814370615268,0.032260184606037155,3.8773744946371793,3.825000873761551,-12.103660341300262,-12.130107848220403,-0.5713378569481535,-2.8884301116660884
16.46685004234314,-0.05228700861334801,2.5911927223205566,-10.604353904724121,-0.03415033244855521,0.0013527870178222656,6.0,nan,nan,nan,nan,0.6946934678200096,1.0,0.019551703392125364,0.03750018407150125,3.896461780270571,3.7908250793342293,-12.042934184728994,-12.100220889300235,-0.5713378569481535,-2.8884301116660884
16.476903200149536,-0.05519019067287445,2.552077054977417,-10.568178176879883,-0.035791816288115466,0.0014503002166748047,6.0,nan,nan,nan,nan,0.6944053395900777,1.0,0.022972030494396223,0.041342121481811524,3.9323482702022345,3.7360731523462185,-11.963397368183294,-12.07807209722761,-0.5713378569481535,-2.8884301116660884
16.486711263656616,-0.05661177635192871,2.5323634147644043,-10.550132751464844,-0.036623936053911205,0.0012845993041992188,6.0,nan,nan,nan,nan,0.6938511681158539,1.0,0.02529278621755476,0.04436965135280632,4.001424577866821,3.6440086760090185,-11.852586888833677,-12.075559602758236,-0.5713378569481535,-2.8884301116660884
16.4970760345459,-0.058004651218652725,2.5125396251678467,-10.532096862792969,-0.037434472350831194,0.0013427734375,6.0,nan,nan,nan,nan,0.6933911537399939,1.0,0.02724752117661811,0.04656607628398987,3.865102088928223,3.8641020889282225,-12.221182548522949,-12.22218254852295,-0.5713378569481535,-2.8884301116660884
16.50678515434265,-0.05936882644891739,2.4926044940948486,-10.51406192779541,-0.038225825983776024,0.0014214515686035156,6.0,nan,nan,nan,nan,0.6930402032265944,1.0,0.02904491625777713,0.048232696452595855,3.864025036854839,3.858846618713397,-12.19039711015451,-12.193158012983288,-0.6791177634989425,-2.1128793830176713
16.657427310943604,-0.05936882644891739,2.4926044940948486,-10.51406192779541,-0.038225825983776024,0.001455068588256836,6.0,nan,nan,nan,nan,0.6980274571011121,1.0,0.029463838602998237,0.049588213360503085,3.867665280295662,3.8464230633286474,-12.151774294888224,-12.162004027449118,-0.6791177634989425,-2.1128793830176713
16.667253255844116,-0.0895031988620758,2.0736594200134277,-10.141704559326172,-0.05267389156843832,0.0012536048889160156,6.0,nan,nan,nan,nan,0.7149616318747661,1.0,0.03057416182236707,0.056673809661677496,3.8773744946371793,3.825000873761551,-12.103660341300262,-12.130107848220403,-0.6177496180156545,-1.6821972376737317
16.67785382270813,-0.09238802641630173,2.030341386795044,-10.103585243225098,-0.05379570126727575,0.0024869441986083984,6.0,nan,nan,nan,nan,0.7165275630445063,1.0,0.030335633659532405,0.06058347264133314,3.896461780270571,3.7908250793342293,-12.042934184728994,-12.100220889300235,-0.6177496180156545,-1.6821972376737317
16.68720006942749,-0.0937848836183548,2.008639335632324,-10.084522247314453,-0.05431968686619265,0.0022432804107666016,6.0,nan,nan,nan,nan,0.7168801647613066,1.0,0.030165733803127977,0.0621840170802046,3.9323482702022345,3.7360731523462185,-11.963397368183294,-12.07807209722761,-0.6177496180156545,-1.6821972376737317
16.697057962417603,-0.09536176919937134,1.9868340492248535,-10.065032005310059,-0.054824567247310295,0.0016160011291503906,6.0,nan,nan,nan,nan,0.7171998691578653,1.0,0.029636647216522306,0.06309644103126566,4.001424577866821,3.6440086760090185,-11.852586888833677,-12.075559602758236,-0.6177496180156545,-1.6821972376737317
16.707552671432495,-0.09690509736537933,1.9650123119354248,-10.04554557800293,-0.05540261039546934,0.0023794174194335938,6.0,nan,nan,nan,nan,0.7174410694419775,1.0,0.028899811443024722,0.06366948251599182,3.865102088928223,3.8641020889282225,-12.221182548522949,-12.22218254852295,-0.3221805161599357,-0.4166358573791715
16.716699361801147,-0.09989141672849655,1.9213382005691528,-10.006607055664062,-0.05647869768950733,0.0012798309326171875,6.0,nan,nan,nan,nan,0.7187907332178234,1.0,0.02752194653611157,0.06442997098137905,3.864025036854839,3.858846618713397,-12.19039711015451,-12.193158012983288,-0.3221805161599357,-0.4166358573791715
16.726788997650146,-0.1013348177075386,1.8994957208633423,-9.987161636352539,-0.056980588290629255,0.0013387203216552734,6.0,nan,nan,nan,nan,0.7189652127455047,1.0,0.026693326115342822,0.0643044485194593,3.867665280295662,3.8464230633286474,-12.151774294888224,-12.162004027449118,-0.3221805161599357,-0.4166358573791715
16.902941942214966,-0.1013348177075386,1.8994957208633423,-9.987161636352539,-0.056980588290629255,0.0012829303741455078,6.0,nan,nan,nan,nan,0.6979513706218138,1.0,0.026249739391618773,0.06395142290552795,3.8773744946371793,3.825000873761551,-12.103660341300262,-12.130107848220403,-0.3221805161599357,-0.4166358573791715
16.911470651626587,-0.12900704145431519,1.4237611293792725,-9.555225372314453,-0.06169512495358838,0.0016033649444580078,6.0,nan,nan,nan,nan,0.724154491613362,0.6200428653947684,0.02262241505191246,0.058337318312257615,3.896461780270571,3.7908250793342293,-12.042934184728994,-12.100220889300235,-0.314909255077104,-1.95185320917196
16.9170184135437,-0.13108201324939728,1.3820847272872925,-9.515612602233887,-0.06162623046872763,0.001146554946899414,6.0,nan,nan,nan,nan,0.7260131009111571,0.5156608765527204,0.020367641046181745,0.06359216943148574,3.9323482702022345,3.7360731523462185,-11.963397368183294,-12.07807209722761,-0.314909255077104,-1.95185320917196
16.9267156124115,-0.1320597380399704,1.3614351749420166,-9.495820999145508,-0.0615650208991938,0.0012657642364501953,6.0,nan,nan,nan,nan,0.7263057801419304,0.46012187865477994,0.020782506604671524,0.06390857909113369,4.001424577866821,3.6440086760090185,-11.852586888833677,-12.075559602758236,-0.314909255077104,-1.95185320917196
16.936747074127197,-0.13299770653247833,1.3409172296524048,-9.47606086730957,-0.06148789460090594,0.0014612674713134766,6.0,nan,nan,nan,nan,0.7266282928164575,0.4051896715980694,0.021246854943099643,0.06459014087115465,3.865102088928223,3.8641020889282225,-12.221182548522949,-12.22218254852295,-0.314909255077104,-1.95185320917196
16.946763515472412,-0.13402828574180603,1.3205959796905518,-9.45629596710205,-0.06139226195844216,0.001354217529296875,6.0,nan,nan,nan,nan,0.72693185367437,0.3507334165890348,0.021696921774348104,0.06541725020685124,3.864025036854839,3.858846618713397,-12.19039711015451,-12.193158012983288,-0.314909255077104,-1.95185320917196
16.95692205429077,-0.13596312701702118,1.280380129814148,-9.416788101196289,-0.06118578744344039,0.0017154216766357422,6.0,nan,nan,nan,nan,0.728740264138269,0.2387264717923676,0.022500999433052653,0.0656336197370983,3.867665280295662,3.8464230633286474,-12.151774294888224,-12.162004027449118,-0.314909255077104,-1.95185320917196
17.11486291885376,-0.13596312701702118,1.280380129814148,-9.416788101196289,-0.06118578744344039,0.001329660415649414,6.0,nan,nan,nan,nan,0.7085921118890596,1.0,0.02255512673720555,0.06820049867747856,3.8773744946371793,3.825000873761551,-12.103660341300262,-12.130107848220403,-0.314909255077104,-1.95185320917196
17.122792959213257,-0.14828328788280487,0.9507163166999817,-9.061609268188477,-0.056793693951968705,0.0015954971313476562,6.0,nan,nan,nan,nan,0.7342681833089129,0.24109355898352536,0.042508899360266285,0.0035903200934558756,3.896461780270571,3.7908250793342293,-12.042934184728994,-12.100220889300235,0.01251147168289446,-1.9715666913818155
17.126774072647095,-0.14828328788280487,0.9507163166999817,-9.061609268188477,-0.056793693951968705,0.0013086795806884766,6.0,nan,nan,nan,nan,0.7330117730337533,0.3095087732790045,0.024705669278253045,0.06616398657326118,3.9323482702022345,3.7360731523462185,-11.963397368183294,-12.07807209722761,0.01251147168289446,-1.9715666913818155
17.136680841445923,-0.149990975856781,0.9022753834724426,-9.00196361541748,-0.05574089278047173,0.0012357234954833984,6.0,nan,nan,nan,nan,0.7362284141104187,0.2327605714741956,0.03488271111926944,0.05214954616622456,4.001424577866821,3.6440086760090185,-11.852586888833677,-12.075559602758236,0.01251147168289446,-1.9715666913818155
17.14683985710144,-0.1508907526731491,0.8708915710449219,-8.962224006652832,-0.05499392846480408,0.0013377666473388672,6.0,nan,nan,nan,nan,0.7379535780545183,0.20428111472769106,0.03553075012976376,0.061157015213383556,3.865102088928223,3.8641020889282225,-12.221182548522949,-12.22218254852295,0.01251147168289446,-1.9715666913818155
17.15677809715271,-0.1508907526731491,0.8708915710449219,-8.962224006652832,-0.05499392846480408,0.0014674663543701172,6.0,nan,nan,nan,nan,0.736715641579303,0.28297544062636026,0.03760115894508502,0.06298027291668137,3.864025036854839,3.858846618713397,-12.19039711015451,-12.193158012983288,0.01251147168289446,-1.9715666913818155
17.166801929473877,-0.15189336240291595,0.8251950144767761,-8.902552604675293,-0.05382115195436224,0.0013089179992675781,6.0,nan,nan,nan,nan,0.7398731952232842,0.1849568704886846,0.04107887465938187,0.06016031817101975,3.867665280295662,3.8464230633286474,-12.151774294888224,-12.162004027449118,0.01251147168289446,-1.9715666913818155
17.17717409133911,-0.15189336240291595,0.8251950144767761,-8.902552604675293,-0.05382115195436224,0.00279998779296875,6.0,nan,nan,nan,nan,0.7386463420720331,0.27065629294325255,0.04121908848705844,0.06550390005875671,3.8773744946371793,3.825000873761551,-12.103660341300262,-12.130107848220403,0.01251147168289446,-1.9715666913818155
17.186985969543457,-0.15231993794441223,0.7956962585449219,-8.862784385681152,-0.052983764529338895,0.002354860305786133,6.0,nan,nan,nan,nan,0.7401920280042098,0.2280715500932402,0.0442823550196876,0.061844589119481416,3.896461780270571,3.7908250793342293,-12.042934184728994,-12.100220889300235,0.01251147168289446,-1.9715666913818155
17.331841230392456,-0.15231993794441223,0.7956962585449219,-8.862784385681152,-0.052983764529338895,0.0014107227325439453,6.0,nan,nan,nan,nan,0.7262635736498965,1.0,0.04405681184702641,0.06583787783623686,3.9323482702022345,3.7360731523462185,-11.963397368183294,-12.07807209722761,0.01251147168289446,-1.9715666913818155
17.339972257614136,-0.1517498791217804,0.5860763788223267,-8.494190216064453,-0.043589849202091774,0.001531839370727539,6.0,nan,nan,nan,nan,0.7494822765063112,-0.2624822742544717,0.06582944042908101,-0.016727561415559734,4.001424577866821,3.6440086760090185,-11.852586888833677,-12.075559602758236,-0.10354407034139879,-1.64328900107208
17.3467960357666,-0.15089960396289825,0.5769792199134827,-8.4736967086792,-0.04298363768712274,0.0014827251434326172,6.0,nan,nan,nan,nan,0.7496629340206178,-0.23830191866114214,0.04086718764905521,0.06229571778181464,3.865102088928223,3.8641020889282225,-12.221182548522949,-12.22218254852295,-0.10354407034139879,-1.64328900107208
17.356822729110718,-0.15001969039440155,0.5680669546127319,-8.453208923339844,-0.042374102018837484,0.0015635490417480469,6.0,nan,nan,nan,nan,0.7498436433715987,-0.21134339517555123,0.05282576856118131,0.060974363940775524,3.864025036854839,3.858846618713397,-12.19039711015451,-12.193158012983288,-0.10354407034139879,-1.64328900107208
17.366716146469116,-0.1481723189353943,0.5508033037185669,-8.412243843078613,-0.04115010267207844,0.0013873577117919922,6.0,nan,nan,nan,nan,0.751228900257315,-0.27584485000372805,0.057619528424972546,0.06865948970745525,3.867665280295662,3.8464230633286474,-12.151774294888224,-12.162004027449118,-0.10354407034139879,-1.64328900107208
17.376919746398926,-0.14720547199249268,0.542456865310669,-8.39177131652832,-0.04055423273471834,0.0014290809631347656,6.0,nan,nan,nan,nan,0.7513237155328234,-0.2486928498724339,0.061932535353624835,0.07454957557914899,3.8773744946371793,3.825000873761551,-12.103660341300262,-12.130107848220403,-0.10354407034139879,-1.64328900107208
17.386684894561768,-0.14621008932590485,0.5343068838119507,-8.371313095092773,-0.039963357580805936,0.0012400150299072266,6.0,nan,nan,nan,nan,0.7513812963163488,-0.2179603066387772,0.06560795824303667,0.0782811903437665,3.896461780270571,3.7908250793342293,-12.042934184728994,-12.100220889300235,-0.10354407034139879,-1.64328900107208
17.397064924240112,-0.14518649876117706,0.5263566374778748,-8.350894927978516,-0.03936488798908541,0.0015873908996582031,6.0,nan,nan,nan,nan,0.7514312891632859,-0.18150253990511978,0.06850482659381725,0.08092414144654103,3.9323482702022345,3.7360731523462185,-11.963397368183294,-12.07807209722761,-0.10354407034139879,-1.64328900107208
17.407001495361328,-0.14307205379009247,0.5110712647438049,-8.310104370117188,-0.03813277757350214,0.0014088153839111328,6.0,nan,nan,nan,nan,0.7525376621835336,-0.22707263006619338,0.07143753402562365,0.08209005399445202,4.001424577866821,3.6440086760090185,-11.852586888833677,-12.075559602758236,-0.4001982316517685,-1.1340453954011718
17.416932821273804,-0.14197395741939545,0.5037312507629395,-8.2897310256958,-0.037501155319485974,0.0014085769653320312,6.0,nan,nan,nan,nan,0.7525906304134412,-0.1741126993728801,0.0731737309244072,0.08544229835891083,3.865102088928223,3.8641020889282225,-12.221182548522949,-12.22218254852295,-0.4001982316517685,-1.1340453954011718
17.426950216293335,-0.14084923267364502,0.4965933561325073,-8.26937198638916,-0.03685949704140731,0.0015323162078857422,6.0,nan,nan,nan,nan,0.7526447748080878,-0.11497585698613544,0.07500347013370286,0.08591380583074212,3.864025036854839,3.858846618713397,-12.19039711015451,-12.193158012983288,-0.4001982316517685,-1.1340453954011718
17.583075284957886,-0.14084923267364502,0.4965933561325073,-8.26937198638916,-0.03685949704140731,0.001386880874633789,6.0,nan,nan,nan,nan,0.7417438272542908,1.0,0.07560530256984568,0.08602760571742427,3.867665280295662,3.8464230633286474,-12.151774294888224,-12.162004027449118,-0.4001982316517685,-1.1340453954011718
17.59127902984619,-0.10114681720733643,0.41336438059806824,-7.849815845489502,-0.022236544278420173,0.0012958049774169922,6.0,nan,nan,nan,nan,0.759807939392372,-0.5178342011441412,0.10204983188137902,-0.03520504869291014,3.8773744946371793,3.825000873761551,-12.103660341300262,-12.130107848220403,-0.22840370379689023,-1.6178722972492539
17.597344398498535,-0.09936969727277756,0.41255882382392883,-7.828497409820557,-0.021484389177451046,0.0013103485107421875,6.0,nan,nan,nan,nan,0.7598009613615372,-0.4584316624954752,0.05762254267392109,0.06425228134650421,3.896461780270571,3.7908250793342293,-12.042934184728994,-12.100220889300235,-0.22840370379689023,-1.6178722972492539
17.60672950744629,-0.09574665874242783,0.4113779664039612,-7.785995960235596,-0.01997282363183786,0.0014748573303222656,6.0,nan,nan,nan,nan,0.7605565575995197,-0.48571637428114256,0.0725533454042048,0.06664633959740773,3.9323482702022345,3.7360731523462185,-11.963397368183294,-12.07807209722761,-0.729261289873194,-0.7339186980309428
17.61670446395874,-0.09390202909708023,0.4110036790370941,-7.764814853668213,-0.01921235671852961,0.0013093948364257812,6.0,nan,nan,nan,nan,0.76050546104881,-0.4225868000093673,0.07745834266772923,0.07914124933876018,4.001424577866821,3.6440086760090185,-11.852586888833677,-12.075559602758236,-0.729261289873194,-0.7339186980309428
17.626819610595703,-0.09204547852277756,0.41077721118927,-7.743684768676758,-0.018467282415881497,0.0014507770538330078,6.0,nan,nan,nan,nan,0.7604059043438248,-0.3612303726221091,0.08236944865989097,0.08642930660496127,3.865102088928223,3.8641020889282225,-12.221182548522949,-12.22218254852295,-0.729261289873194,-0.7339186980309428
17.636683702468872,-0.0901774987578392,0.4107024669647217,-7.722611904144287,-0.017733352010714604,0.0012290477752685547,6.0,nan,nan,nan,nan,0.7602544081584564,-0.2988036993451275,0.08594301913065622,0.09168086223493428,3.864025036854839,3.858846618713397,-12.19039711015451,-12.193158012983288,-0.729261289873194,-0.7339186980309428
17.647993564605713,-0.08640924841165543,0.41101908683776855,-7.6807026863098145,-0.016292403946786133,0.002499818801879883,6.0,nan,nan,nan,nan,0.7606468437584928,-0.32884935040415986,0.08882545757991044,0.09484251288876129,3.867665280295662,3.8464230633286474,-12.151774294888224,-12.162004027449118,-0.729261289873194,-0.7339186980309428
17.657541751861572,-0.08450991660356522,0.4114117920398712,-7.659836292266846,-0.01556821675332476,0.0015530586242675781,6.0,nan,nan,nan,nan,0.7605073152763372,-0.25070297952980125,0.09071521072367014,0.09879196653413239,3.8773744946371793,3.825000873761551,-12.103660341300262,-12.130107848220403,-0.729261289873194,-0.7339186980309428
17.807054042816162,-0.08450991660356522,0.4114117920398712,-7.659836292266846,-0.01556821675332476,0.0013837814331054688,6.0,nan,nan,nan,nan,0.7482579169850259,0.4112386306277367,0.09241328696690489,0.09941845484475795,3.896461780270571,3.7908250793342293,-12.042934184728994,-12.100220889300235,-0.729261289873194,-0.7339186980309428
17.817224502563477,-0.04499059170484543,0.468741238117218,-7.251689910888672,-0.0005481582308909938,0.001317739486694336,6.0,nan,nan,nan,nan,0.7582122851110132,-1.0,0.08387619772202935,0.07750214325691213,3.9323482702022345,3.7360731523462185,-11.963397368183294,-12.07807209722761,-0.35352127494264884,-1.848201889203215
17.82817006111145,-0.04296453669667244,0.4732060730457306,-7.2317938804626465,0.00023609957162773476,0.00275421142578125,6.0,nan,nan,nan,nan,0.7579868832216645,-1.0,0.07304105557256393,0.08463286865110652,4.001424577866821,3.6440086760090185,-11.852586888833677,-12.075559602758236,-0.35352127494264884,-1.848201889203215
17.83846402168274,-0.04010869190096855,0.47870537638664246,-7.212223052978516,0.0010235819065201601,0.0024633407592773438,6.0,nan,nan,nan,nan,0.7577278933999947,-1.0,0.0728181402454003,0.08453439986594306,3.865102088928223,3.8641020889282225,-12.221182548522949,-12.22218254852295,-0.35352127494264884,-1.848201889203215
17.84841752052307,-0.03443945571780205,0.4899860620498657,-7.173253059387207,0.0024156849348550002,0.0023741722106933594,6.0,nan,nan,nan,nan,0.7578168650267517,-1.0,0.07229329959329339,0.08393118945376105,3.864025036854839,3.858846618713397,-12.19039711015451,-12.193158012983288,-0.35352127494264884,-1.848201889203215
17.85773801803589,-0.031626198440790176,0.4957695007324219,-7.153834819793701,0.0031039349277435235,0.002209901809692383,6.0,nan,nan,nan,nan,0.7575217119204851,-1.0,0.07170389136352595,0.08296337648435335,3.867665280295662,3.8464230633286474,-12.151774294888224,-12.162004027449118,-0.35352127494264884,-1.848201889203215
17.867730855941772,-0.028827358037233353,0.5016480684280396,-7.134462833404541,0.0037874906535665387,0.002332925796508789,6.0,nan,nan,nan,nan,0.757254350762714,-1.0,0.07094120474934774,0.08165043180749375,3.8773744946371793,3.825000873761551,-12.103660341300262,-12.130107848220403,-0.35352127494264884,-1.848201889203215
17.877753496170044,-0.02604306861758232,0.5076197981834412,-7.1151347160339355,0.004464775483904171,0.0026786327362060547,6.0,nan,nan,nan,nan,0.7570193663748557,-1.0,0.07000082731527953,0.07991352250754367,3.896461780270571,3.7908250793342293,-12.042934184728994,-12.100220889300235,-0.35352127494264884,-1.848201889203215
17.888205766677856,-0.02050066739320755,0.5198296904563904,-7.0766072273254395,0.005809373462065226,0.002838134765625,6.0,nan,nan,nan,nan,0.7572459767601747,-1.0,0.06831527507429232,0.07678940205993637,3.9323482702022345,3.7360731523462185,-11.963397368183294,-12.07807209722761,-0.35352127494264884,-1.848201889203215
18.037630796432495,-0.02050066739320755,0.5198296904563904,-7.0766072273254395,0.005809373462065226,0.002402067184448242,6.0,nan,nan,nan,nan,0.7481626503470813,-1.0,0.06718126722322094,0.07416142431041728,4.001424577866821,3.6440086760090185,-11.852586888833677,-12.075559602758236,-0.35352127494264884,-1.848201889203215
18.049203872680664,0.023126229643821716,0.6670525670051575,-6.695256233215332,0.01906659642759391,0.0022733211517333984,6.0,nan,nan,nan,nan,0.756295447424135,-1.0,0.035637182816141325,0.028162493105661088,3.865102088928223,3.8641020889282225,-12.221182548522949,-12.22218254852295,-0.5732546035608435,-1.6529590947270258
18.05799961090088,0.024995116516947746,0.6748945713043213,-6.676605224609375,0.019724207684505654,0.0013954639434814453,6.0,nan,nan,nan,nan,0.7561395581174696,-1.0,0.02402906413471974,0.003663721483279982,3.864025036854839,3.858846618713397,-12.19039711015451,-12.193158012983288,-0.5732546035608435,-1.6529590947270258
18.066624402999878,0.024995116516947746,0.6748945713043213,-6.676605224609375,0.019724207684505654,0.0012688636779785156,6.0,nan,nan,nan,nan,0.7554658993054506,-1.0,0.01906658895579255,-0.00860645533203312,3.867665280295662,3.8464230633286474,-12.151774294888224,-12.162004027449118,-0.5732546035608435,-1.6529590947270258
18.07745099067688,0.028714565560221672,0.6905022859573364,-6.639464855194092,0.021029249491133745,0.0018427371978759766,6.0,nan,nan,nan,nan,0.755891435337773,-1.0,0.013830685054953917,-0.017775953976830093,3.8773744946371793,3.825000873761551,-12.103660341300262,-12.130107848220403,-0.5732546035608435,-1.6529590947270258
18.086984872817993,0.028714565560221672,0.6905022859573364,-6.639464855194092,0.021029249491133745,0.0024805068969726562,6.0,nan,nan,nan,nan,0.7552111133644083,-1.0,0.012220211466395625,-0.02157892545598185,3.896461780270571,3.7908250793342293,-12.042934184728994,-12.100220889300235,-0.5732546035608435,-1.6529590947270258
18.09754180908203,0.03331289067864418,0.7173858880996704,-6.584094047546387,0.02281045290571551,0.002528667449951172,6.0,nan,nan,nan,nan,0.756225821409656,-0.9949180521741168,0.007588940101165909,-0.026735637327122336,3.9323482702022345,3.7360731523462185,-11.963397368183294,-12.07807209722761,-0.5732546035608435,-1.6529590947270258
18.108309507369995,0.03331289067864418,0.7173858880996704,-6.584094047546387,0.02281045290571551,0.002301931381225586,6.0,nan,nan,nan,nan,0.7555376159873167,-0.9979195945956367,0.006935858349043755,-0.027655496358607222,4.001424577866821,3.6440086760090185,-11.852586888833677,-12.075559602758236,-0.8657791444276187,-0.8367190169043688
18.116755723953247,0.036396488547325134,0.7349652051925659,-6.547472953796387,0.023871492294388764,0.0014109611511230469,6.0,nan,nan,nan,nan,0.7559733252560689,-0.9289948750852732,0.00575853052323842,-0.028891024143990827,3.5190110569000246,3.5180110569000242,-11.513102256774902,-11.514102256774903,-0.8657791444276187,-0.8367190169043688
18.272489547729492,0.036396488547325134,0.7349652051925659,-6.547472953796387,0.023871492294388764,0.0015978813171386719,6.0,nan,nan,nan,nan,0.7479933092520529,-1.0,0.005837427322207584,-0.02914205127213771,3.4878191885907297,3.4823948780671063,-11.41572933060075,-11.419517005546309,-0.8657791444276187,-0.8367190169043688
18.281087398529053,0.07033146917819977,0.8826962113380432,-6.211312294006348,0.029888522866981376,0.001379251480102539,6.0,nan,nan,nan,nan,0.7575198450457664,0.11252781873168294,0.017756742183519202,-0.016070926340985635,3.463031619543608,3.4390036009084213,-11.308912890532133,-11.324617825465658,-0.860416745139367,-1.267803121730335
18.286583423614502,0.07240433245897293,0.8892087936401367,-6.194152355194092,0.030013175307429252,0.0012083053588867188,6.0,nan,nan,nan,nan,0.7573978695017438,0.1503661860680876,0.016635762450361805,-0.025108075065562712,3.448355378522892,3.3836802811153284,-11.189687477619076,-11.231655808290963,-0.860416745139367,-1.267803121730335
18.29705238342285,0.07651589065790176,0.9017423987388611,-6.159919738769531,0.030225149679695085,0.001585245132446289,6.0,nan,nan,nan,nan,0.7578815913644731,0.282528772633307,0.01783480094942202,-0.02991332710856211,3.4512550061088136,3.3079532645913234,-11.052427044738321,-11.145666657231939,-0.860416745139367,-1.267803121730335
18.306870698928833,0.07855479419231415,0.9077551960945129,-6.142867565155029,0.030315630943819824,0.0013883113861083984,6.0,nan,nan,nan,nan,0.7577685159657206,0.3229408654101471,0.018596219037379697,-0.031811458527129056,3.4855670983034552,3.1929933581833962,-10.885890836945492,-11.078778628242423,-0.8440432680215362,-0.557997609540738
18.31671166419983,0.08059140294790268,0.9136077165603638,-6.125842094421387,0.03039694632782297,0.0013241767883300781,6.0,nan,nan,nan,nan,0.7576178412499768,0.3621790662124975,0.01932300186846128,-0.03279792755669951,3.5819556370339116,3.0024942333312565,-10.665533755709653,-11.057409030779606,-0.8440432680215362,-0.557997609540738
18.326909065246582,0.08261692523956299,0.9192785620689392,-6.108850002288818,0.030467788731215445,0.001466512680053711,6.0,nan,nan,nan,nan,0.7574106288169493,0.3971425583975501,0.019965052933313437,-0.033320237351599155,3.5190110569000246,3.5180110569000242,-11.513102256774902,-11.514102256774903,-0.8440432680215362,-0.557997609540738
18.336719512939453,0.08593669533729553,0.9301605820655823,-6.074965476989746,0.0305624839812082,0.001260519027709961,6.0,nan,nan,nan,nan,0.7576988708660125,0.5114408483424535,0.020194071159653208,-0.03398711416151668,3.4878191885907297,3.4823948780671063,-11.41572933060075,-11.419517005546309,-0.8440432680215362,-0.557997609540738
18.346862316131592,0.08724682033061981,0.935363233089447,-6.058069705963135,0.030606532802088193,0.0015213489532470703,6.0,nan,nan,nan,nan,0.7575018266358684,0.5232867572358231,0.019727620306648524,-0.0335263387803303,3.463031619543608,3.4390036009084213,-11.308912890532133,-11.324617825465658,-0.8440432680215362,-0.557997609540738
18.50308656692505,0.08724682033061981,0.935363233089447,-6.058069705963135,0.030606532802088193,0.0014188289642333984,6.0,nan,nan,nan,nan,0.7559739020035642,-1.0,0.019938000470009626,-0.03319836445778016,3.448355378522892,3.3836802811153284,-11.189687477619076,-11.231655808290963,-0.8440432680215362,-0.557997609540738
18.515114307403564,0.11648640036582947,0.9912384152412415,-5.723946571350098,0.029604589705431658,0.0024421215057373047,6.0,nan,nan,nan,nan,0.765415462271416,-0.3465562729077887,-0.0021731157465416603,-0.0494472201081402,3.4512550061088136,3.3079532645913234,-11.052427044738321,-11.145666657231939,-1.0104191966021734,-0.9314761883294003
18.524059772491455,0.11821426451206207,0.9913549423217773,-5.707278728485107,0.02946419398090666,0.002041339874267578,6.0,nan,nan,nan,nan,0.7653007721065356,-0.44059479102993504,0.0009406127319997396,-0.03681439376916386,3.4855670983034552,3.1929933581833962,-10.885890836945492,-11.078778628242423,-1.0104191966021734,-0.9314761883294003
18.52855134010315,0.11821426451206207,0.9913549423217773,-5.707278728485107,0.02946419398090666,0.0013124942779541016,6.0,nan,nan,nan,nan,0.7647485693155053,-0.5570366965173245,3.110304578796058e-05,-0.033224666147438915,3.5819556370339116,3.0024942333312565,-10.665533755709653,-11.057409030779606,-1.0104191966021734,-0.9314761883294003
18.537943363189697,0.12332818657159805,0.9909631609916687,-5.657526016235352,0.029028201434643797,0.002416849136352539,6.0,nan,nan,nan,nan,0.7653802078087873,-0.6197928181448562,-0.003276568500141187,-0.03189842595036377,3.5190110569000246,3.5180110569000242,-11.513102256774902,-11.514102256774903,-1.0104191966021734,-0.9314761883294003
18.546753644943237,0.12500523030757904,0.9905943274497986,-5.641046047210693,0.028883592966539043,0.0016160011291503906,6.0,nan,nan,nan,nan,0.765119597659354,-0.7129527971840923,-0.004041322386122621,-0.028394965773439813,3.4878191885907297,3.4823948780671063,-11.41572933060075,-11.419517005546309,-1.0104191966021734,-0.9314761883294003
18.556926727294922,0.12666624784469604,0.9901106357574463,-5.624646186828613,0.028736910801302695,0.0016970634460449219,6.0,nan,nan,nan,nan,0.7648522932460365,-0.799271692257429,-0.005033756987208577,-0.026020732067301426,3.463031619543608,3.4390036009084213,-11.308912890532133,-11.324617825465658,-1.0104191966021734,-0.9314761883294003
18.566738605499268,0.1283111870288849,0.9895130395889282,-5.608306884765625,0.028590485250991456,0.0013909339904785156,6.0,nan,nan,nan,nan,0.7645755748801929,-0.8796173485988648,-0.005752919388273055,-0.02366652789810305,3.448355378522892,3.3836802811153284,-11.189687477619076,-11.231655808290963,-1.0104191966021734,-0.9314761883294003
18.576807498931885,0.13155244290828705,0.9879749417304993,-5.575809478759766,0.02829872226378744,0.0015015602111816406,6.0,nan,nan,nan,nan,0.7645281506245368,-0.8939143506184597,-0.006697575884945552,-0.02162222157012681,3.4512550061088136,3.3079532645913234,-11.052427044738321,-11.145666657231939,-1.0104191966021734,-0.9314761883294003
18.731322526931763,0.13155244290828705,0.9879749417304993,-5.575809478759766,0.02829872226378744,0.0013461112976074219,6.0,nan,nan,nan,nan,0.755958557648681,-1.0,-0.006585890118845801,-0.02004836293773806,3.4855670983034552,3.1929933581833962,-10.885890836945492,-11.078778628242423,-1.0104191966021734,-0.9314761883294003
18.738590717315674,0.15860353410243988,0.9286941289901733,-5.251518726348877,0.02524204270528993,0.0015232563018798828,6.0,nan,nan,nan,nan,0.7604693916272616,1.0,-0.000493767830522874,0.0013003223333552865,3.5819556370339116,3.0024942333312565,-10.665533755709653,-11.057409030779606,-0.8297671988679212,-1.3775904685521323
18.74729347229004,0.15981991589069366,0.9239230155944824,-5.235797882080078,0.025083212777463698,0.0021715164184570312,6.0,nan,nan,nan,nan,0.7601308150166041,1.0,-0.006317628200079284,-0.014548098639873745,3.5190110569000246,3.5180110569000242,-11.513102256774902,-11.514102256774903,-0.8297671988679212,-1.3775904685521323
18.75730848312378,0.1610257625579834,0.9189767837524414,-5.22014045715332,0.024924561204165488,0.0024471282958984375,6.0,nan,nan,nan,nan,0.7597883168787328,1.0,-0.003094781586429724,-0.02346164045124622,3.4878191885907297,3.4823948780671063,-11.41572933060075,-11.419517005546309,-0.8297671988679212,-1.3775904685521323
18.767956972122192,0.16222123801708221,0.9138511419296265,-5.204521179199219,0.02476896624859029,0.0023546218872070312,6.0,nan,nan,nan,nan,0.7594539428370327,1.0,-0.0012579761569170348,-0.02792980359952224,3.463031619543608,3.4390036009084213,-11.308912890532133,-11.324617825465658,-0.8297671988679212,-1.3775904685521323
18.778526782989502,0.16458183526992798,0.9030417203903198,-5.173393249511719,0.02446684254783496,0.002662181854248047,6.0,nan,nan,nan,nan,0.7591108807425067,1.0,0.00042899698763564336,-0.030402040285549072,3.448355378522892,3.3836802811153284,-11.189687477619076,-11.231655808290963,-0.8297671988679212,-1.3775904685521323
18.789124011993408,0.165746808052063,0.8973413109779358,-5.157899856567383,0.024318059620480365,0.002722501754760742,6.0,nan,nan,nan,nan,0.7586205976514651,1.0,0.0013196119284529626,-0.03189989535347535,3.4512550061088136,3.3079532645913234,-11.052427044738321,-11.145666657231939,-0.8297671988679212,-1.3775904685521323
18.800315856933594,0.1669016182422638,0.8914358615875244,-5.142457008361816,0.024167461326742357,0.0023467540740966797,6.0,nan,nan,nan,nan,0.7581709299699725,1.0,0.0019675528136267936,-0.03285374460717705,3.4855670983034552,3.1929933581833962,-10.885890836945492,-11.078778628242423,-0.8297671988679212,-1.3775904685521323
18.810643672943115,0.1669016182422638,0.8914358615875244,-5.142457008361816,0.024167461326742357,0.0024080276489257812,6.0,nan,nan,nan,nan,0.7577408660327924,1.0,0.0021958687281925125,-0.03344208291454037,3.5819556370339116,3.0024942333312565,-10.665533755709653,-11.057409030779606,-1.003982069663624,-1.3480183993545316
18.968121767044067,0.19093158841133118,0.7140316367149353,-4.82146692276001,0.020863271392702054,0.0022287368774414062,6.0,nan,nan,nan,nan,0.765728036202127,1.0,-0.005251709068576095,-0.02742847072594192,3.5190110569000246,3.5180110569000242,-11.513102256774902,-11.514102256774903,-1.003982069663624,-1.3480183993545316
18.9792001247406,0.19093158841133118,0.7140316367149353,-4.82146692276001,0.020863271392702054,0.002488851547241211,6.0,nan,nan,nan,nan,0.7653719421802232,1.0,-0.005264999809483962,-0.026595276264229868,3.4878191885907297,3.4823948780671063,-11.41572933060075,-11.419517005546309,-0.6146480618966463,-0.2856280250788201
18.98862361907959,0.19424684345722198,0.6773945689201355,-4.777150630950928,0.02041851132775152,0.0024590492248535156,6.0,nan,nan,nan,nan,0.7657571213150498,1.0,-0.007157881016069101,-0.024905199742122672,3.463031619543608,3.4390036009084213,-11.308912890532133,-11.324617825465658,-0.6146480618966463,-0.2856280250788201
18.99910259246826,0.19531391561031342,0.665061354637146,-4.76246452331543,0.020268416591696557,0.0023963451385498047,6.0,nan,nan,nan,nan,0.7656372195931962,1.0,-0.0077607350705067865,-0.024410080953998173,3.448355378522892,3.3836802811153284,-11.189687477619076,-11.231655808290963,-0.6146480618966463,-0.2856280250788201
19.009209394454956,0.19531391561031342,0.665061354637146,-4.76246452331543,0.020268416591696557,0.002344846725463867,6.0,nan,nan,nan,nan,0.7652710061924115,1.0,-0.007726968549478053,-0.024437796827827908,3.4512550061088136,3.3079532645913234,-11.052427044738321,-11.145666657231939,-0.6171162420202738,-0.4343752524941201
19.018292903900146,0.19838830828666687,0.6277635097503662,-4.718761920928955,0.01981949092442855,0.0023245811462402344,6.0,nan,nan,nan,nan,0.7655565984270409,1.0,-0.00939969440967748,-0.023156592579886948,3.4855670983034552,3.1929933581833962,-10.885890836945492,-11.078778628242423,-0.6171162420202738,-0.4343752524941201
19.027700662612915,0.19936655461788177,0.6152482628822327,-4.704301357269287,0.019663447633012206,0.0024144649505615234,6.0,nan,nan,nan,nan,0.7654011893640353,1.0,-0.009650121257663775,-0.023145371546777406,3.5819556370339116,3.0024942333312565,-10.665533755709653,-11.057409030779606,-0.6171162420202738,-0.4343752524941201
19.03756356239319,0.2003261297941208,0.6026975512504578,-4.689897060394287,0.01950801378544327,0.0021598339080810547,6.0,nan,nan,nan,nan,0.7652476073681597,1.0,-0.01000058817370187,-0.0229292140154881,3.5190110569000246,3.5180110569000242,-11.513102256774902,-11.514102256774903,-0.6171162420202738,-0.4343752524941201
19.047425746917725,0.20126724243164062,0.590116024017334,-4.675549030303955,0.01934898708625386,0.002350330352783203,6.0,nan,nan,nan,nan,0.7650975195311823,1.0,-0.010355313523988509,-0.022682062493718035,3.4878191885907297,3.4823948780671063,-11.41572933060075,-11.419517005546309,-0.6171162420202738,-0.4343752524941201
19.215362071990967,0.20126724243164062,0.590116024017334,-4.675549030303955,0.01934898708625386,0.002960205078125,6.0,nan,nan,nan,nan,0.7548825671069634,1.0,-0.01005703802226517,-0.022932686428219648,3.463031619543608,3.4390036009084213,-11.308912890532133,-11.324617825465658,-0.6171162420202738,-0.4343752524941201
19.225054502487183,0.2124209851026535,0.32026466727256775,-4.393857479095459,0.016122241727870572,0.0013608932495117188,6.0,nan,nan,nan,nan,0.7592068632022698,0.7733000532953667,-0.021622977924224407,-0.007233549894211322,3.448355378522892,3.3836802811153284,-11.189687477619076,-11.231655808290963,-0.6567949443474084,-1.2358140513004192
19.2302508354187,0.21234536170959473,0.27990108728408813,-4.351477146148682,0.015596986371685322,0.001430511474609375,6.0,nan,nan,nan,nan,0.7599699270974245,0.6667498090124885,-0.017545479377619327,-0.023783407647002132,3.4512550061088136,3.3079532645913234,-11.052427044738321,-11.145666657231939,-0.6567949443474084,-1.2358140513004192
19.23693561553955,0.21234536170959473,0.27990108728408813,-4.351477146148682,0.015596986371685322,0.0013072490692138672,6.0,nan,nan,nan,nan,0.7594224163975584,0.6868068364310066,-0.021167848593308513,-0.02013028538307631,3.4855670983034552,3.1929933581833962,-10.885890836945492,-11.078778628242423,-0.6567949443474084,-1.2358140513004192
19.247738361358643,0.2121330350637436,0.26649150252342224,-4.3371663093566895,0.015423631313144025,0.0023751258850097656,6.0,nan,nan,nan,nan,0.7593409792654008,0.6636177567383159,-0.020931371512703977,-0.02304818967557363,3.5819556370339116,3.0024942333312565,-10.665533755709653,-11.057409030779606,-0.6567949443474084,-1.2358140513004192
19.256847143173218,0.21191814541816711,0.2532024681568146,-4.322938919067383,0.015248778590373172,0.0024476051330566406,6.0,nan,nan,nan,nan,0.7592773217733623,0.6401571579254361,-0.022546153172492422,-0.022287931701887205,3.5190110569000246,3.5180110569000242,-11.513102256774902,-11.514102256774903,-0.6567949443474084,-1.2358140513004192
19.267144441604614,0.21147972345352173,0.22700412571430206,-4.294763565063477,0.014889024402773607,0.002187490463256836,6.0,nan,nan,nan,nan,0.759749748484705,0.5643813331181755,-0.0240454232899537,-0.022845501609338105,3.4878191885907297,3.4823948780671063,-11.41572933060075,-11.419517005546309,-0.6567949443474084,-1.2358140513004192
19.277648210525513,0.21125565469264984,0.21410447359085083,-4.280789375305176,0.014702724139811288,0.0022475719451904297,6.0,nan,nan,nan,nan,0.7597029207280361,0.5410167315546713,-0.024684232568110788,-0.02455650328234777,3.463031619543608,3.4390036009084213,-11.308912890532133,-11.324617825465658,-0.6567949443474084,-1.2358140513004192
19.43294620513916,0.21125565469264984,0.21410447359085083,-4.280789375305176,0.014702724139811288,0.0014491081237792969,6.0,nan,nan,nan,nan,0.7538886960678913,1.0,-0.024676519699033922,-0.025695574572051676,3.448355378522892,3.3836802811153284,-11.189687477619076,-11.231655808290963,-0.6567949443474084,-1.2358140513004192
19.441022872924805,0.2089642584323883,-0.018161609768867493,-4.013375759124756,0.010374282336976931,0.002084970474243164,6.0,nan,nan,nan,nan,0.76372403471413,0.005545001411221828,-0.034072836706270024,0.0006108137355415675,3.4512550061088136,3.3079532645913234,-11.052427044738321,-11.145666657231939,-0.43953766889150225,-1.2958471923187829
19.449455499649048,0.20884937047958374,-0.028085144236683846,-4.000542163848877,0.010135160758903444,0.0025534629821777344,6.0,nan,nan,nan,nan,0.7637331829772779,0.018956940904839792,-0.0221491095830434,-0.030795640579293276,3.4855670983034552,3.1929933581833962,-10.885890836945492,-11.078778628242423,-0.43953766889150225,-1.2958471923187829
19.457101106643677,0.20884937047958374,-0.028085144236683846,-4.000542163848877,0.010135160758903444,0.002038240432739258,6.0,nan,nan,nan,nan,0.7631950632857808,0.10071838682989198,-0.03144361152223942,-0.022808845607118784,3.5819556370339116,3.0024942333312565,-10.665533755709653,-11.057409030779606,-0.43953766889150225,-1.2958471923187829
19.466733694076538,0.20844587683677673,-0.056606754660606384,-3.962343454360962,0.009406632234973844,0.0012362003326416016,6.0,nan,nan,nan,nan,0.7642861593794154,-0.022347627383396462,-0.028420589814937395,-0.03229161553553593,3.5190110569000246,3.5180110569000242,-11.513102256774902,-11.514102256774903,-0.43953766889150225,-1.2958471923187829
19.476874351501465,0.2083147168159485,-0.06547658890485764,-3.949387788772583,0.00916460100751601,0.0015285015106201172,6.0,nan,nan,nan,nan,0.7642418956211576,-0.009718417114680467,-0.031512779192916986,-0.029960400787903636,3.4878191885907297,3.4823948780671063,-11.41572933060075,-11.419517005546309,-0.43953766889150225,-1.2958471923187829
19.486956357955933,0.2081729769706726,-0.07413193583488464,-3.936490535736084,0.00891937180577032,0.002250194549560547,6.0,nan,nan,nan,nan,0.7641745527405857,0.0060460186782295144,-0.03067010166884302,-0.033149851432041806,3.463031619543608,3.4390036009084213,-11.308912890532133,-11.324617825465658,-0.43953766889150225,-1.2958471923187829
19.497005224227905,0.208020880818367,-0.08257000893354416,-3.923651695251465,0.008670572321090558,0.0015938282012939453,6.0,nan,nan,nan,nan,0.7641089811757611,0.026660011265139172,-0.03170054030344565,-0.03231695954101118,3.448355378522892,3.3836802811153284,-11.189687477619076,-11.231655808290963,-0.43953766889150225,-1.2958471923187829
19.50680446624756,0.20768657326698303,-0.0987892597913742,-3.8981387615203857,0.008158424853254742,0.0014684200286865234,6.0,nan,nan,nan,nan,0.7645197604932292,-0.015902415833642936,-0.031138542274331854,-0.033423196497020705,3.4512550061088136,3.3079532645913234,-11.052427044738321,-11.145666657231939,-0.4361001208024069,-1.087741094926598
19.517655611038208,0.2074914574623108,-0.10658138245344162,-3.8854846954345703,0.007895171652851696,0.0023016929626464844,6.0,nan,nan,nan,nan,0.7644645214854664,0.01781114135960382,-0.031318614633690386,-0.03317990854945319,3.4855670983034552,3.1929933581833962,-10.885890836945492,-11.078778628242423,-0.4361001208024069,-1.087741094926598
19.67250919342041,0.2074914574623108,-0.10658138245344162,-3.8854846954345703,0.007895171652851696,0.0027005672454833984,6.0,nan,nan,nan,nan,0.7598337063138215,1.0,-0.03108308238548667,-0.03314609394130694,3.5819556370339116,3.0024942333312565,-10.665533755709653,-11.057409030779606,-0.4361001208024069,-1.087741094926598
19.683696269989014,0.200630784034729,-0.2079363614320755,-3.639275550842285,0.002080432037270291,0.0017361640930175781,6.0,nan,nan,nan,nan,0.7672264883128526,-0.25098351481770975,-0.027458692005810355,-0.003430264853446924,3.038907564163208,3.037907564163208,-11.013798439025878,-11.01479843902588,-0.3809555904605437,-1.2323902877036552
19.68806481361389,0.200630784034729,-0.2079363614320755,-3.639275550842285,0.002080432037270291,0.0014743804931640625,6.0,nan,nan,nan,nan,0.7668708590646341,-0.24576014608786023,-0.01360936826592996,-0.026361606266435803,2.9645202172113585,2.9591327525843467,-10.923280600310866,-10.925327091726118,-0.3809555904605437,-1.2323902877036552
19.699177980422974,0.19970715045928955,-0.21265800297260284,-3.615372896194458,0.001448986462107893,0.0026645660400390625,6.0,nan,nan,nan,nan,0.7670775774469415,-0.37522202529572923,-0.02084414127531937,-0.01592542821265268,2.89579286043157,2.8722495758365354,-10.827950789567906,-10.835782063028544,-0.3809555904605437,-1.2323902877036552
19.708279371261597,0.19970715045928955,-0.21265800297260284,-3.615372896194458,0.001448986462107893,0.001651763916015625,6.0,nan,nan,nan,nan,0.7667356090146257,-0.36948744805948786,-0.017072955387258313,-0.0214032598104722,2.8352459226776086,2.7733702676556775,-10.725527097938663,-10.749901664447837,-0.6430343193903196,-0.8251743824465292
19.71764302253723,0.19830188155174255,-0.21824198961257935,-3.5798752307891846,0.0004991618551222488,0.0015027523040771484,6.0,nan,nan,nan,nan,0.7670091266097124,-0.5791759700318171,-0.017466605227397073,-0.019503477826663777,2.7884500523106817,2.6560680526012987,-10.610655994092818,-10.674271720895321,-0.6430343193903196,-0.8251743824465292
19.72700309753418,0.19806168973445892,-0.21901041269302368,-3.567185401916504,0.00019154004585827944,0.0016527175903320312,6.0,nan,nan,nan,nan,0.766854475679472,-0.6528108184602497,-0.01628880274066798,-0.019258203605498618,2.767374155956127,2.5079711316157938,-10.471128838176204,-10.622122375290125,-0.6430343193903196,-0.8251743824465292
19.7368004322052,0.19781218469142914,-0.21958842873573303,-3.5545740127563477,-0.00010498397875705057,0.001749277114868164,6.0,nan,nan,nan,nan,0.7666939350336304,-0.7251847266873992,-0.015809736331224802,-0.018119720304700274,2.799109836605397,2.301969705325589,-10.278786726495918,-10.62242488115581,-0.6430343193903196,-0.8251743824465292
19.747217655181885,0.1972869634628296,-0.22017121315002441,-3.529578447341919,-0.0006771688309115675,0.001720428466796875,6.0,nan,nan,nan,nan,0.7667084197606311,-0.86799955164294,-0.014807205277401075,-0.01695985643010825,3.038907564163208,3.037907564163208,-11.013798439025878,-11.01479843902588,-0.6430343193903196,-0.8251743824465292
19.75675392150879,0.19701173901557922,-0.22017674148082733,-3.517188787460327,-0.0009545269998869621,0.002358675003051758,6.0,nan,nan,nan,nan,0.7665763329999259,-0.9304331565203401,-0.014119725498587109,-0.015094353908828295,2.9645202172113585,2.9591327525843467,-10.923280600310866,-10.925327091726118,-0.6430343193903196,-0.8251743824465292
19.921022653579712,0.19701173901557922,-0.22017674148082733,-3.517188787460327,-0.0009545269998869621,0.0014069080352783203,6.0,nan,nan,nan,nan,0.7618823045713115,-0.6150483236939746,-0.01333805260861384,-0.013434107049842216,2.89579286043157,2.8722495758365354,-10.827950789567906,-10.835782063028544,-0.6430343193903196,-0.8251743824465292
19.930284023284912,0.18687811493873596,-0.16883082687854767,-3.2685132026672363,-0.006407407209089222,0.002151966094970703,6.0,nan,nan,nan,nan,0.7643229314448718,-1.0,-0.009748582050886474,-0.007185230857560107,2.8352459226776086,2.7733702676556775,-10.725527097938663,-10.749901664447837,-0.45099421482837876,-1.3586193935129507
19.936771392822266,0.18622978031635284,-0.16435782611370087,-3.257242441177368,-0.006659512710301116,0.0012781620025634766,6.0,nan,nan,nan,nan,0.7641430429569755,-1.0,-0.007902816368581077,0.00020346585264931276,2.7884500523106817,2.6560680526012987,-10.610655994092818,-10.674271720895321,-0.45099421482837876,-1.3586193935129507
19.946850061416626,0.18496908247470856,-0.155159592628479,-3.234926700592041,-0.007157543075393888,0.0013973712921142578,6.0,nan,nan,nan,nan,0.7640294006422382,-1.0,-0.006404469103806253,0.004711543385648959,2.767374155956127,2.5079711316157938,-10.471128838176204,-10.622122375290125,-0.45099421482837876,-1.3586193935129507
19.956660747528076,0.1843443661928177,-0.15045301616191864,-3.2238821983337402,-0.007405054208122985,0.0017905235290527344,6.0,nan,nan,nan,nan,0.7638424493754016,-1.0,-0.0056596840974886,0.007057169500673994,2.799109836605397,2.301969705325589,-10.278786726495918,-10.62242488115581,-0.45099421482837876,-1.3586193935129507
19.966866970062256,0.18372324109077454,-0.14568151533603668,-3.212939500808716,-0.007649269431508662,0.0014064311981201172,6.0,nan,nan,nan,nan,0.7636495644129023,-1.0,-0.005202060653491618,0.008351614487384921,3.038907564163208,3.037907564163208,-11.013798439025878,-11.01479843902588,-0.45099421482837876,-1.3586193935129507
19.97774028778076,0.18356427550315857,-0.1396760642528534,-3.201714277267456,-0.007886343437294024,0.0026216506958007812,6.0,nan,nan,nan,nan,0.7634607235084294,-1.0,-0.004572868031572562,0.009225328572808722,2.9645202172113585,2.9591327525843467,-10.923280600310866,-10.925327091726118,-0.45099421482837876,-1.3586193935129507
19.987807512283325,0.18323758244514465,-0.12756581604480743,-3.1795144081115723,-0.00851157135231119,0.0017862319946289062,6.0,nan,nan,nan,nan,0.7633478781901886,-1.0,-0.003739604246088478,0.010149774343905849,2.89579286043157,2.8722495758365354,-10.827950789567906,-10.835782063028544,-0.45099421482837876,-1.3586193935129507
20.142459869384766,0.18323758244514465,-0.12756581604480743,-3.1795144081115723,-0.00851157135231119,0.0016179084777832031,6.0,nan,nan,nan,nan,0.75719328211464,-1.0,-0.003707410022844547,0.010246216027511065,2.8352459226776086,2.7733702676556775,-10.725527097938663,-10.749901664447837,-0.45099421482837876,-1.3586193935129507
20.15196132659912,0.18338355422019958,-0.014022266492247581,-2.989502429962158,-0.013113306228866329,0.002524137496948242,6.0,nan,nan,nan,nan,0.7582901366893936,-0.44825132905949494,0.003194046644588451,0.016583238663356578,2.7884500523106817,2.6560680526012987,-10.610655994092818,-10.674271720895321,-0.7053096563767398,-1.28950752042489
20.158623218536377,0.18338355422019958,-0.014022266492247581,-2.989502429962158,-0.013113306228866329,0.002416372299194336,6.0,nan,nan,nan,nan,0.7579777584151306,-0.47289419517221454,0.000870366118964859,0.014441823957898003,2.767374155956127,2.5079711316157938,-10.471128838176204,-10.622122375290125,-0.7053096563767398,-1.28950752042489
20.168490409851074,0.1847657859325409,0.005509920883923769,-2.9584054946899414,-0.01379537478357663,0.002301454544067383,6.0,nan,nan,nan,nan,0.7581260849531715,-0.33121370120127147,0.0033393136838769755,0.015292946809411963,2.799109836605397,2.301969705325589,-10.278786726495918,-10.62242488115581,-0.7053096563767398,-1.28950752042489
20.177953958511353,0.18560892343521118,0.018059570342302322,-2.9381587505340576,-0.01421612953441401,0.0025987625122070312,6.0,nan,nan,nan,nan,0.7581402064261169,-0.2354999128225359,0.004012388725853695,0.015038660866171238,3.038907564163208,3.037907564163208,-11.013798439025878,-11.01479843902588,-0.7053096563767398,-1.28950752042489
20.188152551651,0.18560892343521118,0.018059570342302322,-2.9381587505340576,-0.01421612953441401,0.0024344921112060547,6.0,nan,nan,nan,nan,0.7578173572991013,-0.26704538704640457,0.003913463077584818,0.015096564574298733,2.9645202172113585,2.9591327525843467,-10.923280600310866,-10.925327091726118,-0.7053096563767398,-1.28950752042489
20.198686361312866,0.18676334619522095,0.036085017025470734,-2.908381462097168,-0.014784783302055508,0.0026209354400634766,6.0,nan,nan,nan,nan,0.7580039944929593,-0.10107757835200748,0.005570111027217407,0.015207524509969893,2.89579286043157,2.8722495758365354,-10.827950789567906,-10.835782063028544,-0.7053096563767398,-1.28950752042489
20.209700107574463,0.18676334619522095,0.036085017025470734,-2.908381462097168,-0.014784783302055508,0.002621889114379883,6.0,nan,nan,nan,nan,0.7576753821294322,-0.13721888477801514,0.005252103895716066,0.015313742037356911,2.8352459226776086,2.7733702676556775,-10.725527097938663,-10.749901664447837,-0.926575862919196,-0.9910014984417902
20.219743967056274,0.18711960315704346,0.04185963422060013,-2.898611545562744,-0.014958282751973154,0.0023772716522216797,6.0,nan,nan,nan,nan,0.7575044081570287,-0.11111219929794647,0.005804992580250496,0.015314397120184352,2.7884500523106817,2.6560680526012987,-10.610655994092818,-10.674271720895321,-0.926575862919196,-0.9910014984417902
20.36404013633728,0.18711960315704346,0.04185963422060013,-2.898611545562744,-0.014958282751973154,0.0015828609466552734,6.0,nan,nan,nan,nan,0.7550645566046865,-0.7731296907599041,0.0057955834120766445,0.015224133328871053,2.767374155956127,2.5079711316157938,-10.471128838176204,-10.622122375290125,-0.926575862919196,-0.9910014984417902
20.375141143798828,0.19631114602088928,0.12622596323490143,-2.7300186157226562,-0.017451688396510512,0.0017430782318115234,6.0,nan,nan,nan,nan,0.7576814815014938,0.06872061916792238,0.00946826545227522,0.010025658792047785,2.799109836605397,2.301969705325589,-10.278786726495918,-10.62242488115581,-0.963888793728567,-1.113013170914981
20.381770133972168,0.19765304028987885,0.12822407484054565,-2.721618890762329,-0.017594166831643193,0.0017435550689697266,6.0,nan,nan,nan,nan,0.757525630693252,0.11524178288233289,0.010824401532682045,0.012858214357331508,3.038907564163208,3.037907564163208,-11.013798439025878,-11.01479843902588,-0.963888793728567,-1.113013170914981
20.38805079460144,0.19896022975444794,0.13009130954742432,-2.713263750076294,-0.017732446740111582,0.0014927387237548828,6.0,nan,nan,nan,nan,0.7573672667797925,0.16189018716928383,0.01081119659733789,0.013815283570756388,2.9645202172113585,2.9591327525843467,-10.923280600310866,-10.925327091726118,-0.963888793728567,-1.113013170914981
20.398176908493042,0.20147304236888885,0.13343077898025513,-2.696685314178467,-0.01798779188787651,0.002692699432373047,6.0,nan,nan,nan,nan,0.7573243026226901,0.25545744789081193,0.011892416046035649,0.014837430523016745,2.89579286043157,2.8722495758365354,-10.827950789567906,-10.835782063028544,-0.963888793728567,-1.113013170914981
20.408907175064087,0.20147304236888885,0.13343077898025513,-2.696685314178467,-0.01798779188787651,0.0025522708892822266,6.0,nan,nan,nan,nan,0.7570470870002777,0.256026949843024,0.011503043662666582,0.01561331730088812,2.8352459226776086,2.7733702676556775,-10.725527097938663,-10.749901664447837,-0.9047647436647139,-0.6940193997473421
20.41866183280945,0.20385423302650452,0.13623923063278198,-2.6802890300750732,-0.01822148804048876,0.0023665428161621094,6.0,nan,nan,nan,nan,0.7569067593095353,0.35751050532716955,0.01252042022879965,0.016201245856730436,2.7884500523106817,2.6560680526012987,-10.610655994092818,-10.674271720895321,-0.9047647436647139,-0.6940193997473421
