time,x,y,z,yaw,ctrl_comp_time,rollout_comptime,y_ref,z_ref,yaw_ref,throttle,roll_rate,pitch_rate,yaw_rate,save_tube_pyH,save_tube_pyL,save_tube_pzH,save_tube_pzL,wy,wz
15.015045166015625,0.009168506599962711,3.838576555252075,-12.500978469848633,0.002036988039624767,0.17219185829162598,0.1536393165588379,3.8429410093525735,-12.448550116725094,-0.15975241343202107,0.5845272446287489,-1.0,0.03606808655245457,0.015222118546926927,3.8890005733997657,3.796617448745127,-12.44439407617585,-12.46445614805278,-0.08429330088892226,0.020605121150035016
15.687009334564209,0.03650113195180893,3.8375508785247803,-12.466497421264648,-3.453761126707977e-05,0.18633580207824707,0.12432527542114258,3.8430987664028358,-12.435779023927267,-0.17975241343202109,0.6274598895077568,0.27473253495901107,0.12057115756862403,0.16484084860863096,3.904593836929585,3.781483547988938,-12.426451659016088,-12.45821752038112,-0.027321900084569556,-5.766126779975278
15.828624486923218,0.03650113195180893,3.8375508785247803,-12.466497421264648,-3.453761126707977e-05,0.0024204254150390625,0.11797595024108887,3.8430928419331583,-12.421648776046741,-0.1997524134320211,0.6219954795627691,-1.0,0.23220935685133962,0.29644067728008333,3.924043940257119,3.762191904350365,-12.404300391011603,-12.453467045242059,0.017822263423815668,-1.3205535962522355
15.836991548538208,0.07240458577871323,3.7356691360473633,-12.115347862243652,-0.004015240203436632,0.002553224563598633,0.11797595024108887,3.8428966861319807,-12.406159419566324,-0.21975241343202112,0.7021944457193119,1.0,0.2176225530263247,0.4505928287803018,3.948746514978806,3.7372938915788794,-12.376643674040897,-12.451504537631504,0.017822263423815668,-1.3205535962522355
15.847124814987183,0.07306995242834091,3.7295520305633545,-12.102588653564453,-0.004080713625143312,0.0028100013732910156,0.11797595024108887,3.842483778176174,-12.38930786496962,-0.23975241343202114,0.7026932620117476,1.0,0.23937172879806054,0.38219378262227743,3.9808485826674196,3.7045893727140196,-12.341520624210053,-12.454287841607092,0.017822263423815668,-1.3205535962522355
15.858210563659668,0.07306995242834091,3.7295520305633545,-12.102588653564453,-0.004080713625143312,0.0028281211853027344,0.11797595024108887,3.841827805675709,-12.371087878954498,-0.25975241343202116,0.7016797461369951,1.0,0.22633816654546476,0.37387428189903366,4.023659624094661,3.6607159888185823,-12.295933407568665,-12.464805468996495,0.7335442121567904,0.9058826713325661
15.867786645889282,0.0743534043431282,3.716644287109375,-12.076556205749512,-0.004163978292221732,0.0027289390563964844,0.11797595024108887,3.8409028446448255,-12.351490086649099,-0.2797524134320212,0.7033999297389981,1.0,0.20927914543865445,0.35441200880752666,4.082253612620819,3.6005474851400674,-12.23527643654286,-12.487647397396653,0.7335442121567904,0.9058826713325661
15.876274585723877,0.0743534043431282,3.716644287109375,-12.076556205749512,-0.004163978292221732,0.0028717517852783203,0.11797595024108887,3.839683539461754,-12.330501983803224,-0.2997524134320212,0.7024165535220009,1.0,0.19686003389820445,0.33201939689080856,4.164269755853117,3.5163933295168657,-12.152270613244918,-12.530070841282319,0.7335442121567904,0.9058826713325661
15.887119054794312,0.07612574100494385,3.6955816745758057,-12.03659439086914,-0.004083950116112928,0.002706766128540039,0.11797595024108887,3.838145282286508,-12.308107958896482,-0.3197524134320212,0.7039183949892635,1.0,0.17115632863140756,0.30466146137068645,4.280753679267927,3.3971578882651023,-12.034691247068494,-12.604272368728862,0.7335442121567904,0.9058826713325661
15.896792650222778,0.07612574100494385,3.6955816745758057,-12.03659439086914,-0.004083950116112928,0.002814054489135742,0.11797595024108887,3.8362643914155727,-12.284289325074312,-0.3397524134320212,0.7029721222224038,1.0,0.15320338262143446,0.27260190315629923,4.446441220979553,3.2280569893113227,-11.863731613521374,-12.729024396649612,0.7335442121567904,0.9058826713325661
15.905966758728027,0.07719346135854721,3.6803507804870605,-12.009527206420898,-0.0038490009170071005,0.0029561519622802734,0.11797595024108887,3.8340182880633713,-12.25902436179388,-0.35975241343202125,0.7033984916995057,1.0,0.12773847657237508,0.24015286140485415,4.682101247527824,2.988275461667075,-11.612042380307523,-12.931635838328752,0.7335442121567904,0.9058826713325661
15.916341304779053,0.07719346135854721,3.6803507804870605,-12.009527206420898,-0.0038490009170071005,0.002763986587524414,0.11797595024108887,3.831385671073048,-12.232288366034089,-0.37975241343202126,0.7024849198410831,1.0,0.1083852427699842,0.2066128170620195,5.020667844387348,2.644835296534567,-11.246112334941781,-13.245571468702352,0.7335442121567904,0.9058826713325661
15.926196575164795,0.07829958945512772,3.653292655944824,-11.967766761779785,-0.0029983280478796392,0.0026557445526123047,0.11797595024108887,3.8424551374686624,-12.465150571351522,-0.12975241343202104,0.703476013244147,1.0,0.07808735655790731,0.17122982909657086,3.870935963133923,3.8135434893640325,-12.465238105519813,-12.474760070094122,0.7335442121567904,0.9058826713325661
15.936001062393188,0.07829958945512772,3.653292655944824,-11.967766761779785,-0.0029983280478796392,0.002681255340576172,0.11797595024108887,3.8428090110723705,-12.454425112114311,-0.14975241343202106,0.7026017003198571,1.0,0.05610554259497316,0.13310854329286553,3.882351550665943,3.8029403917491864,-12.452070668007782,-12.46784711147624,0.7335442121567904,0.9058826713325661
15.946223497390747,0.07891279458999634,3.6342103481292725,-11.939627647399902,-0.0021173158914440937,0.002995729446411133,0.11797595024108887,3.8430386924591637,-12.442334589698598,-0.16975241343202108,0.7030071534620768,1.0,0.028368547581611937,0.09772871245624445,3.8963810597741078,3.789500958930863,-12.43588672267753,-12.461213510772644,0.7335442121567904,0.9058826713325661
16.100433111190796,0.07667387276887894,3.42209529876709,-11.672128677368164,0.0121500948560683,0.0026149749755859375,0.14128470420837402,3.84311792230362,-12.428883718126823,-0.1897524134320211,0.710561490604915,-0.13592824451071905,-0.04805229186178241,0.0562600487718893,3.9137634530680168,3.7724340797374336,-12.415970898797385,-12.455587149057134,-0.02406477197781154,-0.7715411814443736
16.108264207839966,0.07667387276887894,3.42209529876709,-11.672128677368164,0.0121500948560683,0.0032625198364257812,0.14128470420837402,3.8430202032786935,-12.414074105836189,-0.2097524134320211,0.7098854175360207,-0.3394835415737949,-0.0998375965805636,-0.02362275740584619,3.9356260828262717,3.7505596010397726,-12.391263640425874,-12.452033911667586,-0.02406477197781154,-0.7715411814443736
16.11806035041809,0.07540755718946457,3.394397020339966,-11.640898704528809,0.0139128971216049,0.002710103988647461,0.14128470420837402,3.8427189776905397,-12.397904232908557,-0.22975241343202113,0.7109092296364847,-0.4872266456882781,-0.15143752786562853,-0.10838865044718234,3.9636990381832495,3.7220943340803814,-12.360172937259,-12.452145901873621,-0.02406477197781154,-0.7715411814443736
16.12632989883423,0.07540755718946457,3.394397020339966,-11.640898704528809,0.0139128971216049,0.003088712692260742,0.14128470420837402,3.842187806456408,-12.380369438282559,-0.24975241343202115,0.71023201428997,-0.6969216748027354,-0.19662437290433532,-0.1922436925467291,4.000648229547874,3.68431932680408,-12.320276890944287,-12.458338838994917,-0.02406477197781154,-0.7715411814443736
16.136061906814575,0.07331511378288269,3.3522279262542725,-11.59377384185791,0.016556614752719842,0.002637147903442383,0.14128470420837402,3.8414005488801926,-12.361461916969729,-0.26975241343202117,0.7121250374304307,-0.8346248071850391,-0.2499863657372373,-0.2793778271467039,4.05057688174208,3.6330787296088745,-12.267859857426124,-12.474315900482825,-0.02406477197781154,-0.7715411814443736
16.146134614944458,0.07256163656711578,3.3380236625671387,-11.578044891357422,0.017437185428500868,0.002759218215942383,0.14128470420837402,3.8403315426847002,-12.341170727263586,-0.2897524134320212,0.7121643698770613,-1.0,-0.299336066422302,-0.361462766294042,4.119731804090262,3.5620738851988483,-12.197215732869191,-12.505764440428951,-0.02406477197781154,-0.7715411814443736
16.157735109329224,0.07177896052598953,3.323751211166382,-11.562302589416504,0.018311920915308408,0.0030260086059570312,0.14128470420837402,3.8389557837661794,-12.319481807898638,-0.3097524134320212,0.7121458574844142,-1.0,-0.3448544518371824,-0.4349700589066225,4.217363698232242,3.46200338069064,-12.098789076671334,-12.562214890935046,0.08693981062487692,-1.2356527680247669
16.167585372924805,0.07096631079912186,3.3094139099121094,-11.546551704406738,0.019189994615170708,0.0026731491088867188,0.14128470420837402,3.837249105145055,-12.296378005085444,-0.3297524134320212,0.7120837240240391,-1.0,-0.3820581647608479,-0.4936888388256148,4.356398051627175,3.319892512945123,-11.95738933178186,-12.658826586011019,0.08693981062487692,-1.2356527680247669
16.17719841003418,0.06842632591724396,3.2779791355133057,-11.514636039733887,0.02094621435274134,0.002559185028076172,0.14128470420837402,3.835188354597014,-12.27183910931808,-0.34975241343202124,0.712517910342365,-1.0,-0.407708519083648,-0.529246570860132,4.553781324476345,3.118747458353983,-11.75001115935408,-12.81856749079444,0.08693981062487692,-1.2356527680247669
16.186432361602783,0.06712709367275238,3.262209415435791,-11.498676300048828,0.021796794112914325,0.003026723861694336,0.14128470420837402,3.838974691521358,-12.3682808383143,-0.28698994047543247,0.7123397087937646,-1.0,-0.42207862388970097,-0.5474070684153911,3.8650117359643854,3.8135961901836275,-12.366627439581704,-12.388842567530169,0.08693981062487692,-1.2356527680247669
16.336297035217285,0.06712709367275238,3.262209415435791,-11.498676300048828,0.021796794112914325,0.0026378631591796875,0.1399848461151123,3.838042507630063,-12.34839622615888,-0.3069899404754325,0.6819687499436012,-1.0,-0.4330543777567588,-0.5639146452729805,3.8754552158244,3.8016554915286758,-12.341837885781718,-12.375166264363816,0.08693981062487692,-1.2356527680247669
16.349705696105957,0.03608694300055504,2.9366326332092285,-11.179966926574707,0.023716278851212677,0.004533290863037109,0.1399848461151123,3.836722868548107,-12.327192333498841,-0.3269899404754325,0.6880814800231337,1.0,-0.12119902576457876,0.09205300342547018,3.8887364066611068,3.7861291521462928,-12.313639865219969,-12.3622813471398,0.029158353523689597,-2.671556887347199
16.36174464225769,0.03608694300055504,2.9366326332092285,-11.179966926574707,0.023716278851212677,0.0027952194213867188,0.1399848461151123,3.834989698135083,-12.304645332173264,-0.3469899404754325,0.6873156413452514,1.0,-0.03951506270163202,-0.03236423357651779,3.905805379179292,3.7660137282321564,-12.28123514540241,-12.350941518320715,-0.06635594512893908,-2.5486934892467863
16.371119022369385,0.030762875452637672,2.885003089904785,-11.131805419921875,0.021572990651178126,0.0027337074279785156,0.1399848461151123,3.8328182737688437,-12.280728309756766,-0.36698994047543254,0.6868587436644443,1.0,0.003440526529108671,-0.043570120439389654,3.9280804574126047,3.7398400529727933,-12.24348151571991,-12.342238233126727,-0.06635594512893908,-2.5486934892467863
16.380234003067017,0.030762875452637672,2.885003089904785,-11.131805419921875,0.021572990651178126,0.003035306930541992,0.1399848461151123,3.8301854009686975,-12.255411333474532,-0.38698994047543256,0.6861436187134438,1.0,0.018964781850811758,-0.033037473755079656,3.9576762608325,3.705445546514431,-12.198760010673327,-12.337733594708228,-0.06635594512893908,-2.5486934892467863
16.389612197875977,0.027324378490447998,2.849902868270874,-11.099456787109375,0.020017651414965615,0.0032014846801757812,0.1399848461151123,3.827069584832992,-12.22866152339558,-0.4069899404754326,0.685774012881182,1.0,0.04563166061408953,-0.02441004284509695,3.9977313200413134,3.659646946447398,-12.144638685114778,-12.339796716066283,-0.06635594512893908,-2.5486934892467863
16.39785861968994,0.027324378490447998,2.849902868270874,-11.099456787109375,0.020017651414965615,0.0029718875885009766,0.1399848461151123,3.8234511978329104,-12.200443134678583,-0.4269899404754326,0.6850995796012916,1.0,0.05643049081387756,-0.012734441272750202,4.052938499115268,3.597710224806855,-12.076939925531132,-12.352536564267592,-0.06635594512893908,-2.5486934892467863
16.40756916999817,0.022372310981154442,2.7961249351501465,-11.050621032714844,0.01756212919215175,0.003263235092163086,0.1399848461151123,3.8193126435222515,-12.170717648621611,-0.4469899404754326,0.6848777289584913,1.0,0.08935465564754277,-0.007280685313545228,4.130246015952855,3.5126498993357185,-11.989343287525134,-12.382199296323849,-0.06635594512893908,-2.5486934892467863
16.417768239974976,0.020783867686986923,2.7778818607330322,-11.034242630004883,0.01651998959976489,0.0027053356170654297,0.1399848461151123,3.8146385157419975,-12.139443872245797,-0.46698994047543263,0.6845507623190074,1.0,0.10964945635192028,0.0012745782028647944,4.239587189639117,3.3944996091375583,-11.871660303564992,-12.43889364214559,-0.06635594512893908,-2.5486934892467863
16.57717776298523,0.020783867686986923,2.7778818607330322,-11.034242630004883,0.01651998959976489,0.0024073123931884766,0.15026116371154785,3.809415752918447,-12.10657804612316,-0.48698994047543265,0.7037984110881076,-0.286494888446998,0.11756988959410343,0.009369988273804671,4.3942186397849925,3.229974228937709,-11.707396952470946,-12.53902864254189,-0.06635594512893908,-2.5486934892467863
16.58642840385437,-0.014496560208499432,2.3681020736694336,-10.671613693237305,-0.018489405986172422,0.0025441646575927734,0.15026116371154785,3.8036337870744834,-12.072073960140804,-0.5069899404754327,0.7188829911748874,1.0,0.10942845417583509,-0.006067146391348514,4.612948814254749,3.00024164475768,-11.470627033011944,-12.7084404992948,0.04385870024977026,-1.48542999235223
16.59607744216919,-0.01588059589266777,2.3467321395874023,-10.653185844421387,-0.019817683899889152,0.0026950836181640625,0.15026116371154785,3.8385553536765387,-12.35850207507277,-0.2969899404754325,0.7193274025776921,1.0,0.10254609530391892,0.01659812439944073,3.8650117359643854,3.8135961901836275,-12.366627439581704,-12.388842567530169,0.04385870024977026,-1.48542999235223
16.60600233078003,-0.018555287271738052,2.303788661956787,-10.616276741027832,-0.02235571010921318,0.003161907196044922,0.15026116371154785,3.8374327794037004,-12.337960606179887,-0.3169899404754325,0.720666912484395,1.0,0.09483316900765021,0.028623420570685596,3.8754552158244,3.8016554915286758,-12.341837885781718,-12.375166264363816,0.04385870024977026,-1.48542999235223
16.61635684967041,-0.019846320152282715,2.2822208404541016,-10.597773551940918,-0.02356985570910966,0.0027103424072265625,0.15026116371154785,3.835909553705725,-12.316088331861565,-0.3369899404754325,0.7208221320092574,1.0,0.08925771083325741,0.033767613646129215,3.8887364066611068,3.7861291521462928,-12.313639865219969,-12.3622813471398,0.04385870024977026,-1.48542999235223
16.6263108253479,-0.021106785163283348,2.260592222213745,-10.579256057739258,-0.0247428866406134,0.0027642250061035156,0.15026116371154785,3.8339602551926997,-12.292859874423321,-0.35698994047543253,0.7208877780894276,1.0,0.08448956948579307,0.03624488891430381,3.905805379179292,3.7660137282321564,-12.28123514540241,-12.350941518320715,0.04385870024977026,-1.48542999235223
16.636005640029907,-0.022338606417179108,2.2389161586761475,-10.5607328414917,-0.025869265371465056,0.0027251243591308594,0.15026116371154785,3.831560903673466,-12.26824680269078,-0.37698994047543255,0.720909519024821,1.0,0.08004798679570356,0.0376790722033997,3.9280804574126047,3.7398400529727933,-12.24348151571991,-12.342238233126727,0.04385870024977026,-1.48542999235223
16.646242141723633,-0.023541469126939774,2.217184066772461,-10.542206764221191,-0.026956730593321106,0.0030176639556884766,0.15026116371154785,3.8286891332443562,-12.242217700590531,-0.39698994047543257,0.7209199802922094,1.0,0.07579050718951129,0.038705861599465936,3.9576762608325,3.705445546514431,-12.198760010673327,-12.337733594708228,0.04385870024977026,-1.48542999235223
16.657466888427734,-0.025863049551844597,2.1735663414001465,-10.505245208740234,-0.028978859031668684,0.0029897689819335938,0.15026116371154785,3.8253243619610626,-12.214738244899364,-0.4169899404754326,0.7216978709957577,1.0,0.06939996741068982,0.04103697423510139,3.9977313200413134,3.659646946447398,-12.144638685114778,-12.339796716066283,0.273384111325724,-1.2512564711301608
16.8088960647583,-0.025863049551844597,2.1735663414001465,-10.505245208740234,-0.028978859031668684,0.0028324127197265625,0.14209747314453125,3.8214479576442875,-12.185771291924492,-0.4369899404754326,0.6967760101055073,1.0,0.06690171418362047,0.040335758179484295,4.052938499115268,3.597710224806855,-12.076939925531132,-12.352536564267592,0.273384111325724,-1.2512564711301608
16.82085347175598,-0.03483716771006584,1.7159759998321533,-10.138235092163086,-0.03652743116942881,0.0027549266815185547,0.14209747314453125,3.817043399388339,-12.155276972855292,-0.4569899404754326,0.7129363087004639,1.0,0.04096842143926663,0.06295962528217335,4.130246015952855,3.5126498993357185,-11.989343287525134,-12.382199296323849,0.235387960799279,-2.0485177111417965
16.829759120941162,-0.03483716771006584,1.7159759998321533,-10.138235092163086,-0.03652743116942881,0.0029070377349853516,0.14209747314453125,3.8120964343613517,-12.12321279750642,-0.47698994047543264,0.7118270947844426,1.0,0.03720710316665041,0.05160077607721482,4.239587189639117,3.3944996091375583,-11.871660303564992,-12.43889364214559,0.235387960799279,-2.0485177111417965
16.839017391204834,-0.03443562984466553,1.6696416139602661,-10.101424217224121,-0.036389283897156344,0.004141330718994141,0.14209747314453125,3.8065952295062155,-12.089533766153375,-0.49698994047543266,0.7131033065951213,1.0,0.03411705474158696,0.04673408029940354,4.3942186397849925,3.229974228937709,-11.707396952470946,-12.53902864254189,0.235387960799279,-2.0485177111417965
16.848855018615723,-0.03443562984466553,1.6696416139602661,-10.101424217224121,-0.036389283897156344,0.0029213428497314453,0.14209747314453125,3.8005305177724327,-12.05419248914426,-0.5169899404754327,0.7119624210850986,1.0,0.032892582550700294,0.043606925983210275,4.612948814254749,3.00024164475768,-11.470627033011944,-12.7084404992948,0.235387960799279,-2.0485177111417965
16.860069036483765,-0.033739108592271805,1.6008225679397583,-10.046173095703125,-0.03602186808138454,0.0029664039611816406,0.14209747314453125,3.838042507630063,-12.34839622615888,-0.3069899404754325,0.7147323840666202,1.0,0.030355121293828835,0.042783101539420845,3.8650117359643854,3.8135961901836275,-12.366627439581704,-12.388842567530169,0.446361574125483,-1.573933475059306
16.86777973175049,-0.033739108592271805,1.6008225679397583,-10.046173095703125,-0.03602186808138454,0.0026938915252685547,0.14209747314453125,3.836722868548107,-12.327192333498841,-0.3269899404754325,0.713548818059133,1.0,0.02967854485227435,0.040793705114978734,3.8754552158244,3.8016554915286758,-12.341837885781718,-12.375166264363816,0.446361574125483,-1.573933475059306
16.87775421142578,-0.03321962058544159,1.5554440021514893,-10.009249687194824,-0.03569422584168674,0.002854585647583008,0.14209747314453125,3.834989698135083,-12.304645332173264,-0.3469899404754325,0.7151406481459613,0.9732932179169373,0.028385110470609536,0.04004867321138576,3.8887364066611068,3.7861291521462928,-12.313639865219969,-12.3622813471398,0.446361574125483,-1.573933475059306
17.036665678024292,-0.03321962058544159,1.5554440021514893,-10.009249687194824,-0.03569422584168674,0.002792835235595703,0.14946413040161133,3.8328182737688437,-12.280728309756766,-0.36698994047543254,0.6971408649592872,1.0,0.02789652734044162,0.03932975482033703,3.905805379179292,3.7660137282321564,-12.28123514540241,-12.350941518320715,0.446361574125483,-1.573933475059306
17.04829239845276,-0.0290414709597826,1.1312992572784424,-9.641602516174316,-0.031109732412914065,0.002866029739379883,0.14946413040161133,3.8301854009686975,-12.255411333474532,-0.38698994047543256,0.7261117963954873,0.029355051426602552,0.02571219192589027,0.02923512496302357,3.9280804574126047,3.7398400529727933,-12.24348151571991,-12.342238233126727,0.547591770422371,-1.7506227687668392
17.05716371536255,-0.0290414709597826,1.1312992572784424,-9.641602516174316,-0.031109732412914065,0.002959728240966797,0.14946413040161133,3.827069584832992,-12.22866152339558,-0.4069899404754326,0.7247318056579852,0.05545518238911107,0.022543952303719816,0.03805773970120854,3.9576762608325,3.705445546514431,-12.198760010673327,-12.337733594708228,0.3745713683545301,-0.717026156895116
17.066360473632812,-0.0279945507645607,1.0923992395401,-9.603923797607422,-0.03058195748638609,0.0026848316192626953,0.14946413040161133,3.8234511978329104,-12.200443134678583,-0.4269899404754326,0.7269204367695165,-0.07704890946430676,0.02251108291770715,0.03903761285973372,3.9977313200413134,3.659646946447398,-12.144638685114778,-12.339796716066283,0.3745713683545301,-0.717026156895116
17.07711911201477,-0.025637969374656677,1.035309076309204,-9.54671859741211,-0.029767180842490137,0.004898548126220703,0.14946413040161133,3.8193126435222515,-12.170717648621611,-0.4469899404754326,0.7310461485165107,-0.3074536298389614,0.023012451802493058,0.0394223588455354,4.052938499115268,3.597710224806855,-12.076939925531132,-12.352536564267592,0.3745713683545301,-0.717026156895116
17.090832233428955,-0.025637969374656677,1.035309076309204,-9.54671859741211,-0.029767180842490137,0.004894733428955078,0.14946413040161133,3.8146385157419975,-12.139443872245797,-0.46698994047543263,0.7296244480957613,-0.2710962763013285,0.023283921162953004,0.04073641708604486,4.130246015952855,3.5126498993357185,-11.989343287525134,-12.382199296323849,0.3745713683545301,-0.717026156895116
17.10518789291382,-0.02332424931228161,0.980205237865448,-9.489079475402832,-0.02896560306422985,0.004303932189941406,0.14946413040161133,3.809415752918447,-12.10657804612316,-0.48698994047543265,0.7333920739722815,-0.4928630612380651,0.02379236579532163,0.04097050626246259,4.239587189639117,3.3944996091375583,-11.871660303564992,-12.43889364214559,0.3745713683545301,-0.717026156895116
17.11645531654358,-0.022561918944120407,0.9623034596443176,-9.469805717468262,-0.028695095066062992,0.0028488636016845703,0.14946413040161133,3.8036337870744834,-12.072073960140804,-0.5069899404754327,0.7336453855469339,-0.5281285051834113,0.02404841842824587,0.04183126471961415,4.3942186397849925,3.229974228937709,-11.707396952470946,-12.53902864254189,0.3745713683545301,-0.717026156895116
17.272405862808228,-0.022561918944120407,0.9623034596443176,-9.469805717468262,-0.028695095066062992,0.002248525619506836,0.14712834358215332,3.7972846871950128,-12.03588307687728,-0.5269899404754327,0.7171330597493091,1.0,0.024277611343422375,0.042304701123300766,4.612948814254749,3.00024164475768,-11.470627033011944,-12.7084404992948,0.3745713683545301,-0.717026156895116
17.283535718917847,-0.0119597427546978,0.6638160347938538,-9.078629493713379,-0.02372348184892986,0.0026345252990722656,0.14712834358215332,3.8374327794037004,-12.337960606179887,-0.3169899404754325,0.7457239978298257,0.3334640646289855,0.016300657315113612,0.024992404311703013,3.8650117359643854,3.8135961901836275,-12.366627439581704,-12.388842567530169,0.6480978777055514,-1.2552942596833034
17.290550708770752,-0.0119597427546978,0.6638160347938538,-9.078629493713379,-0.02372348184892986,0.003827810287475586,0.14712834358215332,3.835909553705725,-12.316088331861565,-0.3369899404754325,0.7446530018565478,0.4362572892247589,0.00900628218048318,0.03259847251862058,3.8754552158244,3.8016554915286758,-12.341837885781718,-12.375166264363816,0.6480978777055514,-1.2552942596833034
17.30214524269104,-0.010720580816268921,0.6272666454315186,-9.019021034240723,-0.023094212759274507,0.002636432647705078,0.14712834358215332,3.8339602551926997,-12.292859874423321,-0.35698994047543253,0.7473157127573944,0.49822736470124873,0.006746722701606772,0.026561156881943618,3.8887364066611068,3.7861291521462928,-12.313639865219969,-12.3622813471398,0.6480978777055514,-1.2552942596833034
17.311550855636597,-0.010720580816268921,0.6272666454315186,-9.019021034240723,-0.023094212759274507,0.0027816295623779297,0.14712834358215332,3.831560903673466,-12.26824680269078,-0.37698994047543255,0.7462877305397629,0.607667838402469,0.0049300251074257135,0.023775790055979386,3.905805379179292,3.7660137282321564,-12.28123514540241,-12.350941518320715,0.6480978777055514,-1.2552942596833034
17.321028232574463,-0.010171865113079548,0.6058316230773926,-8.97829818725586,-0.022699522275972273,0.002838611602783203,0.14712834358215332,3.8286891332443562,-12.242217700590531,-0.39698994047543257,0.7476165050453922,0.6750020128150152,0.002385776612678168,0.02218131394888474,3.9280804574126047,3.7398400529727933,-12.24348151571991,-12.342238233126727,0.6480978777055514,-1.2552942596833034
17.330387830734253,-0.010171865113079548,0.6058316230773926,-8.97829818725586,-0.022699522275972273,0.002803802490234375,0.14712834358215332,3.8253243619610626,-12.214738244899364,-0.4169899404754326,0.7466182558139347,0.7912313049632027,0.0015830153556397864,0.018859309364307915,3.9576762608325,3.705445546514431,-12.198760010673327,-12.337733594708228,0.6480978777055514,-1.2552942596833034
17.340028285980225,-0.009340913966298103,0.5749419927597046,-8.917174339294434,-0.022162620324918225,0.0034437179565429688,0.14712834358215332,3.8214479576442875,-12.185771291924492,-0.4369899404754326,0.7488962008713457,0.7929102340376109,-0.001410569946847173,0.01922536583391224,3.9977313200413134,3.659646946447398,-12.144638685114778,-12.339796716066283,0.6480978777055514,-1.2552942596833034
17.350971460342407,-0.009340913966298103,0.5749419927597046,-8.917174339294434,-0.022162620324918225,0.002837657928466797,0.14712834358215332,3.817043399388339,-12.155276972855292,-0.4569899404754326,0.7479298293920693,0.9160750647597433,-0.0016971681185403906,0.015310394231237867,4.052938499115268,3.597710224806855,-12.076939925531132,-12.352536564267592,0.6480978777055514,-1.2552942596833034
17.506569623947144,-0.0021279205102473497,0.4089778959751129,-8.488746643066406,-0.019968304279123883,0.0034666061401367188,0.14365625381469727,3.8120964343613517,-12.12321279750642,-0.47698994047543264,0.7527654392809289,-1.0,0.003075280366421176,-0.0002356448043567171,4.130246015952855,3.5126498993357185,-11.989343287525134,-12.382199296323849,0.34067895309630847,-0.8308621740012317
17.517547369003296,-0.001719289692118764,0.4035332202911377,-8.46826171875,-0.019879547865006425,0.002733469009399414,0.14365625381469727,3.8065952295062155,-12.089533766153375,-0.49698994047543266,0.7527679764690505,-1.0,-1.8250127073237874e-05,0.01377462224718088,4.239587189639117,3.3944996091375583,-11.871660303564992,-12.43889364214559,0.34067895309630847,-0.8308621740012317
17.52717661857605,-0.0013100304640829563,0.39831215143203735,-8.447758674621582,-0.019787209136204048,0.0027642250061035156,0.14365625381469727,3.8005305177724327,-12.05419248914426,-0.5169899404754327,0.7527701045952431,-1.0,0.00284643779874117,0.019968219520891107,4.3942186397849925,3.229974228937709,-11.707396952470946,-12.53902864254189,0.34067895309630847,-0.8308621740012317
17.536847829818726,-0.0004886075621470809,0.3885643184185028,-8.406708717346191,-0.019608592517492918,0.002676725387573242,0.14365625381469727,3.793895738530893,-12.017139313955957,-0.5369899404754327,0.7536114293976939,-1.0,0.006414807684892577,0.02417028171875596,4.612948814254749,3.00024164475768,-11.470627033011944,-12.7084404992948,0.34067895309630847,-0.8308621740012317
17.546995639801025,-7.592314796056598e-05,0.3840576410293579,-8.38617992401123,-0.01952422166529927,0.002886533737182617,0.14365625381469727,3.836722868548107,-12.327192333498841,-0.3269899404754325,0.7533965647386721,-1.0,0.009304388984055948,0.027881408683519536,3.8650117359643854,3.8135961901836275,-12.366627439581704,-12.388842567530169,0.34067895309630847,-0.8308621740012317
17.556112051010132,-7.592314796056598e-05,0.3840576410293579,-8.38617992401123,-0.01952422166529927,0.002751588821411133,0.14365625381469727,3.834989698135083,-12.304645332173264,-0.3469899404754325,0.7523928470178641,-1.0,0.011254069626551517,0.031121850660004693,3.8754552158244,3.8016554915286758,-12.341837885781718,-12.375166264363816,0.42846826625582274,-1.2483380225621636
17.56766104698181,0.0008553175139240921,0.37662723660469055,-8.34627914428711,-0.01936781437917834,0.0027222633361816406,0.14365625381469727,3.8328182737688437,-12.280728309756766,-0.36698994047543254,0.7529610855305684,-1.0,0.01414594447723077,0.03376510000671689,3.8887364066611068,3.7861291521462928,-12.313639865219969,-12.3622813471398,0.42846826625582274,-1.2483380225621636
17.577773094177246,0.0017928124871104956,0.37017613649368286,-8.306303024291992,-0.019211499898313167,0.0027704238891601562,0.14365625381469727,3.8301854009686975,-12.255411333474532,-0.38698994047543256,0.7535949769733491,-1.0,0.01696598412942402,0.03659135591533408,3.905805379179292,3.7660137282321564,-12.28123514540241,-12.350941518320715,0.42846826625582274,-1.2483380225621636
17.587374925613403,0.0022642614785581827,0.36731597781181335,-8.286287307739258,-0.019119234971375965,0.002717733383178711,0.14365625381469727,3.827069584832992,-12.22866152339558,-0.4069899404754326,0.7534452967043686,-1.0,0.019153278585222686,0.03946420336059049,3.9280804574126047,3.7398400529727933,-12.24348151571991,-12.342238233126727,0.42846826625582274,-1.2483380225621636
17.756044149398804,0.0022642614785581827,0.36731597781181335,-8.286287307739258,-0.019119234971375965,0.0024480819702148438,0.159332275390625,3.8234511978329104,-12.200443134678583,-0.4269899404754326,0.7468630496066975,1.0,0.020740209645638483,0.04202211132526101,3.9576762608325,3.705445546514431,-12.198760010673327,-12.337733594708228,0.42846826625582274,-1.2483380225621636
17.766301155090332,0.011163241229951382,0.3703836500644684,-7.840360641479492,-0.01549286141461538,0.0026636123657226562,0.159332275390625,3.8193126435222515,-12.170717648621611,-0.4469899404754326,0.7630630881606522,0.1370280845498344,0.023662016085342817,0.004486542110334947,3.9977313200413134,3.659646946447398,-12.144638685114778,-12.339796716066283,0.47873774654007994,-1.3559475223415527
17.776238203048706,0.011875362135469913,0.37564170360565186,-7.799690246582031,-0.015140512448797383,0.0029649734497070312,0.159332275390625,3.8146385157419975,-12.139443872245797,-0.46698994047543263,0.7637221352101331,0.2872290919637013,0.008331383709730224,0.031565924943194074,4.052938499115268,3.597710224806855,-12.076939925531132,-12.352536564267592,0.47873774654007994,-1.3559475223415527
17.788159132003784,0.011875362135469913,0.37564170360565186,-7.799690246582031,-0.015140512448797383,0.004724264144897461,0.159332275390625,3.809415752918447,-12.10657804612316,-0.48698994047543265,0.7630804057066636,0.45717973151225477,0.01271592982618205,0.019275375790360236,4.130246015952855,3.5126498993357185,-11.989343287525134,-12.382199296323849,0.47873774654007994,-1.3559475223415527
17.804702758789062,0.012608719989657402,0.3813333511352539,-7.759113788604736,-0.014777891217095468,0.003824472427368164,0.159332275390625,3.8036337870744834,-12.072073960140804,-0.5069899404754327,0.76353120089709,0.4526894349695969,0.009465394192652866,0.02237802910901436,4.239587189639117,3.3944996091375583,-11.871660303564992,-12.43889364214559,0.47873774654007994,-1.3559475223415527
17.815701484680176,0.012982715852558613,0.384331613779068,-7.738882541656494,-0.014593435096993401,0.002895355224609375,0.159332275390625,3.7972846871950128,-12.03588307687728,-0.5269899404754327,0.7633845649287708,0.44692050805439654,0.00964505281298309,0.018683016926310195,4.3942186397849925,3.229974228937709,-11.707396952470946,-12.53902864254189,0.47873774654007994,-1.3559475223415527
17.825235843658447,0.013366018421947956,0.3937668204307556,-7.699295997619629,-0.01423522624550555,0.0035321712493896484,0.159332275390625,3.7903632966096263,-11.997954662252118,-0.5469899404754327,0.763589737894851,0.3769841620519141,0.007645300311391385,0.01954491737712022,4.612948814254749,3.00024164475768,-11.470627033011944,-12.7084404992948,0.47873774654007994,-1.3559475223415527
17.982378721237183,0.01696951501071453,0.495624303817749,-7.352123260498047,-0.011636764170625757,0.002741098403930664,0.14544034004211426,3.835909553705725,-12.316088331861565,-0.3369899404754325,0.7510650971582217,-1.0,0.008131252747468827,0.01546713356339928,3.8650117359643854,3.8135961901836275,-12.366627439581704,-12.388842567530169,0.47873774654007994,-1.3559475223415527
17.991116523742676,0.01696951501071453,0.495624303817749,-7.352123260498047,-0.011636764170625757,0.00307464599609375,0.14544034004211426,3.8339602551926997,-12.292859874423321,-0.35698994047543253,0.750321129834325,-1.0,0.007276222433930429,0.019476852327052506,3.8754552158244,3.8016554915286758,-12.341837885781718,-12.375166264363816,0.06246844820300751,-1.3599601985175962
18.000956773757935,0.01731492020189762,0.5169641375541687,-7.296162128448486,-0.011272439843655932,0.0026853084564208984,0.14544034004211426,3.831560903673466,-12.26824680269078,-0.37698994047543255,0.750357224010915,-1.0,0.008540896352184668,0.02225388699062763,3.8887364066611068,3.7861291521462928,-12.313639865219969,-12.3622813471398,0.06246844820300751,-1.3599601985175962
18.008300304412842,0.01731492020189762,0.5169641375541687,-7.296162128448486,-0.011272439843655932,0.0030732154846191406,0.14544034004211426,3.8286891332443562,-12.242217700590531,-0.39698994047543257,0.7496217464273633,-1.0,0.009561762862878541,0.024379797711395996,3.905805379179292,3.7660137282321564,-12.28123514540241,-12.350941518320715,0.06246844820300751,-1.3599601985175962
18.01886796951294,0.01760791800916195,0.5316141843795776,-7.25893497467041,-0.011028856150141389,0.0026993751525878906,0.14544034004211426,3.8253243619610626,-12.214738244899364,-0.4169899404754326,0.7493639912043396,-1.0,0.010717043521619528,0.026339601891780477,3.9280804574126047,3.7398400529727933,-12.24348151571991,-12.342238233126727,0.06246844820300751,-1.3599601985175962
18.026612043380737,0.01760791800916195,0.5316141843795776,-7.25893497467041,-0.011028856150141389,0.0028650760650634766,0.14544034004211426,3.8214479576442875,-12.185771291924492,-0.4369899404754326,0.748635186643683,-1.0,0.011512068277562081,0.02795508652842098,3.9576762608325,3.705445546514431,-12.198760010673327,-12.337733594708228,0.06246844820300751,-1.3599601985175962
18.036216497421265,0.01812407374382019,0.5542750954627991,-7.203415870666504,-0.010645935188899489,0.00273895263671875,0.14544034004211426,3.817043399388339,-12.155276972855292,-0.4569899404754326,0.7485552809047762,-1.0,0.012690679965099818,0.0296707125528723,3.9977313200413134,3.659646946447398,-12.144638685114778,-12.339796716066283,0.06246844820300751,-1.3599601985175962
18.04663372039795,0.01852790080010891,0.5698686242103577,-7.16648006439209,-0.010375339343912202,0.0028679370880126953,0.14544034004211426,3.8120964343613517,-12.12321279750642,-0.47698994047543264,0.7485133988199496,-1.0,0.013611711461196675,0.03122424415968871,4.052938499115268,3.597710224806855,-12.076939925531132,-12.352536564267592,0.06246844820300751,-1.3599601985175962
18.186944484710693,0.01852790080010891,0.5698686242103577,-7.16648006439209,-0.010375339343912202,0.0023412704467773438,0.12952375411987305,3.8065952295062155,-12.089533766153375,-0.49698994047543266,0.745658885009096,-1.0,0.01432147583558487,0.03256983343092595,4.130246015952855,3.5126498993357185,-11.989343287525134,-12.382199296323849,0.033328731325169295,-1.257848144543446
18.196120738983154,0.029310518875718117,0.7184233069419861,-6.838588714599609,-0.006749837070971834,0.0028982162475585938,0.12952375411987305,3.8005305177724327,-12.05419248914426,-0.5169899404754327,0.7534534920533317,-1.0,0.013282813083619985,0.026828956551976545,4.239587189639117,3.3944996091375583,-11.871660303564992,-12.43889364214559,0.033328731325169295,-1.257848144543446
18.207407236099243,0.03058524802327156,0.7282558679580688,-6.8210368156433105,-0.006564128736955194,0.003415822982788086,0.12952375411987305,3.793895738530893,-12.017139313955957,-0.5369899404754327,0.7533001210867365,-1.0,0.012119282138802836,0.02260847591605939,4.3942186397849925,3.229974228937709,-11.707396952470946,-12.53902864254189,0.033328731325169295,-1.257848144543446
18.21609354019165,0.03058524802327156,0.7282558679580688,-6.8210368156433105,-0.006564128736955194,0.0028963088989257812,0.12952375411987305,3.7866871718457937,-11.978322459349009,-0.5569899404754327,0.752607417121349,-1.0,0.011115415335805198,0.01998784392152228,4.612948814254749,3.00024164475768,-11.470627033011944,-12.7084404992948,0.033328731325169295,-1.257848144543446
18.22789239883423,0.034295909106731415,0.7577195763587952,-6.768485069274902,-0.005999765858795164,0.0026807785034179688,0.12952375411987305,3.834989698135083,-12.304645332173264,-0.3469899404754325,0.7535948347933126,-1.0,0.011238143244623822,0.017460635040930934,3.8650117359643854,3.8135961901836275,-12.366627439581704,-12.388842567530169,0.033328731325169295,-1.257848144543446
18.236191034317017,0.034295909106731415,0.7577195763587952,-6.768485069274902,-0.005999765858795164,0.0027000904083251953,0.12952375411987305,3.8328182737688437,-12.280728309756766,-0.36698994047543254,0.7528922340855295,-1.0,0.010740744831056718,0.015808562198426558,3.8754552158244,3.8016554915286758,-12.341837885781718,-12.375166264363816,0.033328731325169295,-1.257848144543446
18.248200178146362,0.036679040640592575,0.7772890329360962,-6.733485698699951,-0.005616307521826848,0.00496363639831543,0.12952375411987305,3.8301854009686975,-12.255411333474532,-0.38698994047543256,0.7533027203362614,-1.0,0.010796034575974878,0.014234333861642804,3.8887364066611068,3.7861291521462928,-12.313639865219969,-12.3622813471398,0.033328731325169295,-1.257848144543446
18.264832735061646,0.036679040640592575,0.7772890329360962,-6.733485698699951,-0.005616307521826848,0.0045397281646728516,0.12952375411987305,3.827069584832992,-12.22866152339558,-0.4069899404754326,0.7525916769475582,-1.0,0.010520396933154673,0.013247771517378007,3.905805379179292,3.7660137282321564,-12.28123514540241,-12.350941518320715,-0.12900344277717446,-0.8099464594307302
18.279679536819458,0.041202154010534286,0.8160629868507385,-6.663678169250488,-0.004860324502855802,0.002818584442138672,0.12952375411987305,3.8234511978329104,-12.200443134678583,-0.4269899404754326,0.7541497296156454,-1.0,0.011015555966672023,0.011420882088598913,3.9280804574126047,3.7398400529727933,-12.24348151571991,-12.342238233126727,-0.12900344277717446,-0.8099464594307302
18.44276213645935,0.041202154010534286,0.8160629868507385,-6.663678169250488,-0.004860324502855802,0.0034847259521484375,0.152726411819458,3.8193126435222515,-12.170717648621611,-0.4469899404754326,0.7474929732005173,-1.0,0.010838322788862622,0.010230378082284466,3.9576762608325,3.705445546514431,-12.198760010673327,-12.337733594708228,-0.12900344277717446,-0.8099464594307302
18.45399308204651,0.0647045224905014,1.0139766931533813,-6.3091607093811035,-0.0016138995389553962,0.0026264190673828125,0.152726411819458,3.8146385157419975,-12.139443872245797,-0.46698994047543263,0.7586497790310334,0.18363719792434852,0.010562571587732885,-0.0006579846259917274,3.9977313200413134,3.659646946447398,-12.144638685114778,-12.339796716066283,-0.1701989753987328,-0.971552758893258
18.463271141052246,0.06552515178918839,1.0222744941711426,-6.292366981506348,-0.0015001045181898404,0.002728700637817383,0.152726411819458,3.809415752918447,-12.10657804612316,-0.48698994047543265,0.7585573750819334,0.2255703392687618,0.011689779065878305,0.0024801544714819074,4.052938499115268,3.597710224806855,-12.076939925531132,-12.352536564267592,-0.1701989753987328,-0.971552758893258
18.470590591430664,0.06552515178918839,1.0222744941711426,-6.292366981506348,-0.0015001045181898404,0.002605915069580078,0.152726411819458,3.8036337870744834,-12.072073960140804,-0.5069899404754327,0.7577925118270317,0.17389419172473541,0.0117528755110818,0.00421442547254474,4.130246015952855,3.5126498993357185,-11.989343287525134,-12.382199296323849,-0.1701989753987328,-0.971552758893258
18.480053186416626,0.06790590286254883,1.046173095703125,-6.2421040534973145,-0.0011716282126691263,0.002707958221435547,0.152726411819458,3.7972846871950128,-12.03588307687728,-0.5269899404754327,0.7590766179051797,0.4092412276690094,0.010962458168485576,0.003653598334592851,4.239587189639117,3.3944996091375583,-11.871660303564992,-12.43889364214559,-0.1701989753987328,-0.971552758893258
18.487443447113037,0.06790590286254883,1.046173095703125,-6.2421040534973145,-0.0011716282126691263,0.002877473831176758,0.152726411819458,3.7903632966096263,-11.997954662252118,-0.5469899404754327,0.7583071644663976,0.3515448872362261,0.010899110075504627,0.004497767891548337,4.3942186397849925,3.229974228937709,-11.707396952470946,-12.53902864254189,-0.1701989753987328,-0.971552758893258
18.497417449951172,0.06942115724086761,1.0612226724624634,-6.208637714385986,-0.000986912713110466,0.002784252166748047,0.152726411819458,3.7828673640779824,-11.958235923096561,-0.5657408906766793,0.758758304832316,0.4924350792270431,0.010102833818717941,0.003964940824128934,4.612948814254749,3.00024164475768,-11.470627033011944,-12.7084404992948,-0.1701989753987328,-0.971552758893258
18.50690984725952,0.07089100033044815,1.0755165815353394,-6.175217151641846,-0.0008206238410677774,0.003038167953491211,0.152726411819458,3.8339602551926997,-12.292859874423321,-0.35698994047543253,0.7591144260064095,0.6121427683082419,0.009101363490146073,0.003730147874281508,3.8650117359643854,3.8135961901836275,-12.366627439581704,-12.388842567530169,-0.1701989753987328,-0.971552758893258
18.657252550125122,0.07089100033044815,1.0755165815353394,-6.175217151641846,-0.0008206238410677774,0.0028638839721679688,0.14104127883911133,3.831560903673466,-12.26824680269078,-0.37698994047543255,0.7580840273355969,-1.0,0.0091474208720319,0.003992574232601035,3.8754552158244,3.8016554915286758,-12.341837885781718,-12.375166264363816,-0.1701989753987328,-0.971552758893258
18.6690034866333,0.08790867030620575,1.171589732170105,-5.858041286468506,-0.0004652493014236647,0.0033502578735351562,0.14104127883911133,3.8286891332443562,-12.242217700590531,-0.39698994047543257,0.7674986140739265,-0.4027238184032831,0.0002799469114249855,-0.011917082329684067,3.8887364066611068,3.7861291521462928,-12.313639865219969,-12.3622813471398,-0.29001922505204447,-0.9549544958079891
18.677809238433838,0.08790867030620575,1.171589732170105,-5.858041286468506,-0.0004652493014236647,0.002968311309814453,0.14104127883911133,3.8253243619610626,-12.214738244899364,-0.4169899404754326,0.7669291917912273,-0.5196081165190123,0.003859830225130298,-0.0018913647400367695,3.905805379179292,3.7660137282321564,-12.28123514540241,-12.350941518320715,-0.29001922505204447,-0.9549544958079891
18.687389612197876,0.08951763808727264,1.1772804260253906,-5.826984882354736,-0.0004899833933389303,0.002695798873901367,0.14104127883911133,3.8214479576442875,-12.185771291924492,-0.4369899404754326,0.767129072422756,-0.6250546825134105,0.0020992732659024125,-0.0021399064066652384,3.9280804574126047,3.7398400529727933,-12.24348151571991,-12.342238233126727,-0.29001922505204447,-0.9549544958079891
18.69662570953369,0.08951763808727264,1.1772804260253906,-5.826984882354736,-0.0004899833933389303,0.0027780532836914062,0.14104127883911133,3.817043399388339,-12.155276972855292,-0.4569899404754326,0.7665738999141031,-0.7476682020951241,0.002223010085237256,-0.000606781815737553,3.9576762608325,3.705445546514431,-12.198760010673327,-12.337733594708228,-0.29001922505204447,-0.9549544958079891
18.706133365631104,0.08945737779140472,1.181704044342041,-5.781702518463135,-0.0005274907402355172,0.0027267932891845703,0.14104127883911133,3.8120964343613517,-12.12321279750642,-0.47698994047543264,0.7667114150974803,-0.7924701742081464,-0.000814537157386397,-0.002689307454811987,3.9977313200413134,3.659646946447398,-12.144638685114778,-12.339796716066283,-0.29001922505204447,-0.9549544958079891
18.716148614883423,0.08944723010063171,1.1829500198364258,-5.766678810119629,-0.0005380090989376002,0.002825498580932617,0.14104127883911133,3.8065952295062155,-12.089533766153375,-0.49698994047543266,0.7663926245513867,-0.8780040518043105,-0.0010290756162047916,-3.330157162760395e-05,4.052938499115268,3.597710224806855,-12.076939925531132,-12.352536564267592,-0.29001922505204447,-0.9549544958079891
18.726211071014404,0.08944113552570343,1.1840829849243164,-5.751664161682129,-0.000547521371186091,0.0031359195709228516,0.14104127883911133,3.8005305177724327,-12.05419248914426,-0.5169899404754327,0.7660799759019967,-0.9591803686123774,-0.002176417697451141,-0.0003096111451422934,4.130246015952855,3.5126498993357185,-11.989343287525134,-12.382199296323849,-0.29001922505204447,-0.9549544958079891
18.73677968978882,0.0894385278224945,1.1851027011871338,-5.736659049987793,-0.0005539847150171223,0.002596616744995117,0.14104127883911133,3.793895738530893,-12.017139313955957,-0.5369899404754327,0.7657737502573568,-1.0,-0.002685402606097495,0.0006124001565909981,4.239587189639117,3.3944996091375583,-11.871660303564992,-12.43889364214559,-0.29001922505204447,-0.9549544958079891
18.74669361114502,0.08944175392389297,1.1867989301681519,-5.70667839050293,-0.0005647776465815962,0.002829313278198242,0.14104127883911133,3.7866871718457937,-11.978322459349009,-0.5569899404754327,0.7656988817656625,-1.0,-0.004268964638690814,-0.00021911096874212082,4.3942186397849925,3.229974228937709,-11.707396952470946,-12.53902864254189,-0.29001922505204447,-0.9549544958079891
18.89404320716858,0.08944175392389297,1.1867989301681519,-5.70667839050293,-0.0005647776465815962,0.0028591156005859375,0.13642287254333496,3.7788784042148067,-11.937693122646872,-0.5726962614018332,0.7577231803362134,-1.0,-0.0036257758777359815,0.0025149899929274317,4.612948814254749,3.00024164475768,-11.470627033011944,-12.7084404992948,-0.10679994766881945,-0.8401121696629369
18.904258728027344,0.08852104842662811,1.171522617340088,-5.43603515625,-0.0001912359223141813,0.002697467803955078,0.13642287254333496,3.8328182737688437,-12.280728309756766,-0.36698994047543254,0.7614640494879048,1.0,-0.01564532906883811,-0.014112931488835334,3.8650117359643854,3.8135961901836275,-12.366627439581704,-12.388842567530169,-0.10679994766881945,-0.8401121696629369
18.914201021194458,0.08830709010362625,1.1660573482513428,-5.405928134918213,-0.00012209355480519157,0.003325223922729492,0.13642287254333496,3.8301854009686975,-12.255411333474532,-0.38698994047543256,0.7613055138232703,1.0,-0.010898470270579788,-0.006355517023409317,3.8754552158244,3.8016554915286758,-12.341837885781718,-12.375166264363816,-0.10679994766881945,-0.8401121696629369
18.92391610145569,0.08819921314716339,1.163037657737732,-5.3909382820129395,-8.722930956817088e-05,0.0030019283294677734,0.13642287254333496,3.827069584832992,-12.22866152339558,-0.4069899404754326,0.7609730598035804,1.0,-0.012884445777276075,-0.002107880080228704,3.8887364066611068,3.7861291521462928,-12.313639865219969,-12.3622813471398,-0.10679994766881945,-0.8401121696629369
18.933698415756226,0.08809050172567368,1.1598199605941772,-5.375947952270508,-5.3436572412024486e-05,0.0028274059295654297,0.13642287254333496,3.8234511978329104,-12.200443134678583,-0.4269899404754326,0.7606524940809563,1.0,-0.014249380158169435,0.000554228450686298,3.905805379179292,3.7660137282321564,-12.28123514540241,-12.350941518320715,-0.10679994766881945,-0.8401121696629369
18.940855979919434,0.08809050172567368,1.1598199605941772,-5.375947952270508,-5.3436572412024486e-05,0.002946615219116211,0.13642287254333496,3.8193126435222515,-12.170717648621611,-0.4469899404754326,0.7601876946358886,1.0,-0.014806907527982248,0.0020797618804647687,3.9280804574126047,3.7398400529727933,-12.24348151571991,-12.342238233126727,-0.10679994766881945,-0.8401121696629369
18.950793027877808,0.08765537291765213,1.1468353271484375,-5.332428932189941,5.885325909465999e-05,0.0028085708618164062,0.13642287254333496,3.8146385157419975,-12.139443872245797,-0.46698994047543263,0.7596672227147931,1.0,-0.016903768051850322,0.0040001107070761766,3.9576762608325,3.705445546514431,-12.198760010673327,-12.337733594708228,-0.10679994766881945,-0.8401121696629369
18.959650993347168,0.08765537291765213,1.1468353271484375,-5.332428932189941,5.885325909465999e-05,0.0029070377349853516,0.13642287254333496,3.809415752918447,-12.10657804612316,-0.48698994047543265,0.759229375922269,1.0,-0.01740174772731454,0.005441041990504782,3.9977313200413134,3.659646946447398,-12.144638685114778,-12.339796716066283,-0.3271812646188321,-1.3920006590439065
18.96904754638672,0.08733072876930237,1.1364470720291138,-5.303935527801514,0.00015913086139265897,0.002689361572265625,0.13642287254333496,3.8036337870744834,-12.072073960140804,-0.5069899404754327,0.7588154439575069,1.0,-0.018727117833534257,0.006769003965394903,4.052938499115268,3.597710224806855,-12.076939925531132,-12.352536564267592,-0.3271812646188321,-1.3920006590439065
18.97636079788208,0.08733072876930237,1.1364470720291138,-5.303935527801514,0.00015913086139265897,0.003070831298828125,0.13642287254333496,3.7972846871950128,-12.03588307687728,-0.5269899404754327,0.7583994683528225,1.0,-0.01909217865107168,0.0077931288806949855,4.130246015952855,3.5126498993357185,-11.989343287525134,-12.382199296323849,-0.3271812646188321,-1.3920006590439065
19.136853218078613,0.08678852766752243,0.9699371457099915,-5.007079601287842,0.002035634051388388,0.0026454925537109375,0.1477818489074707,3.7903632966096263,-11.997954662252118,-0.5469899404754327,0.7690367369668777,1.0,-0.014815166886646712,0.002754137668486214,4.239587189639117,3.3944996091375583,-11.871660303564992,-12.43889364214559,-0.3271812646188321,-1.3920006590439065
19.148120164871216,0.08678852766752243,0.9699371457099915,-5.007079601287842,0.002035634051388388,0.002760171890258789,0.1477818489074707,3.7828673640779824,-11.958235923096561,-0.5657408906766793,0.7687257411959664,1.0,-0.014294861973605636,0.0008370743415738002,4.3942186397849925,3.229974228937709,-11.707396952470946,-12.53902864254189,0.044441592235945515,-0.4624085291328779
19.15703558921814,0.08678852766752243,0.9699371457099915,-5.007079601287842,0.002035634051388388,0.0025985240936279297,0.1477818489074707,3.7746827496119324,-11.916695390375546,-0.5779522490278011,0.7684149954842885,1.0,-0.013995010792938002,-9.955925825111712e-05,4.612948814254749,3.00024164475768,-11.470627033011944,-12.7084404992948,0.12885277163798947,-0.2568674537238537
19.166677713394165,0.0871238186955452,0.9389472603797913,-4.965263366699219,0.00234258497552825,0.002824544906616211,0.1477818489074707,3.831560903673466,-12.26824680269078,-0.37698994047543255,0.7687174797513429,1.0,-0.012235080417670243,-0.001804846253007863,3.8650117359643854,3.8135961901836275,-12.366627439581704,-12.388842567530169,0.12885277163798947,-0.2568674537238537
19.17617177963257,0.08722104132175446,0.9284522533416748,-4.95138692855835,0.0024436428313008435,0.003119945526123047,0.1477818489074707,3.8286891332443562,-12.242217700590531,-0.39698994047543257,0.7685745393880332,1.0,-0.011589109617976377,-0.0025964666789350262,3.8754552158244,3.8016554915286758,-12.341837885781718,-12.375166264363816,0.12885277163798947,-0.2568674537238537
19.186254739761353,0.08730970323085785,0.9178811311721802,-4.9375224113464355,0.0025417854659221806,0.0025184154510498047,0.1477818489074707,3.8253243619610626,-12.214738244899364,-0.4169899404754326,0.768410423092871,1.0,-0.011006796713959797,-0.0031835299172601832,3.8887364066611068,3.7861291521462928,-12.313639865219969,-12.3622813471398,0.12885277163798947,-0.2568674537238537
19.196080684661865,0.08709744364023209,0.8817588090896606,-4.896876335144043,0.0028263384720225715,0.0027856826782226562,0.1477818489074707,3.8214479576442875,-12.185771291924492,-0.4369899404754326,0.7684283583640397,1.0,-0.010273989280198683,-0.004128983693361346,3.905805379179292,3.7660137282321564,-12.28123514540241,-12.350941518320715,0.12885277163798947,-0.2568674537238537
19.206055879592896,0.08709744364023209,0.8817588090896606,-4.896876335144043,0.0028263384720225715,0.0025680065155029297,0.1477818489074707,3.817043399388339,-12.155276972855292,-0.4569899404754326,0.7681055292298673,1.0,-0.010254506990255034,-0.004255659807173968,3.9280804574126047,3.7398400529727933,-12.24348151571991,-12.342238233126727,0.12885277163798947,-0.2568674537238537
19.216134786605835,0.08694704622030258,0.8689883947372437,-4.883496284484863,0.0029278911372866145,0.003054380416870117,0.1477818489074707,3.8120964343613517,-12.12321279750642,-0.47698994047543264,0.7678891224683707,1.0,-0.010114867873702775,-0.004536625878412787,3.9576762608325,3.705445546514431,-12.198760010673327,-12.337733594708228,0.12885277163798947,-0.2568674537238537
19.36614727973938,0.08467072248458862,0.6248760223388672,-4.634084224700928,0.004196908628536774,0.003125905990600586,0.13845038414001465,3.8065952295062155,-12.089533766153375,-0.49698994047543266,0.7586601481574203,0.9092369327365666,-0.009041297131755211,-0.008084673927846734,3.9977313200413134,3.659646946447398,-12.144638685114778,-12.339796716066283,0.12885277163798947,-0.2568674537238537
19.37782859802246,0.08463291078805923,0.6120628118515015,-4.621217727661133,0.0042329138418729685,0.0027532577514648438,0.13845038414001465,3.8005305177724327,-12.05419248914426,-0.5169899404754327,0.7584229678300793,0.8808914469457505,-0.009585945160375822,-0.007482717744288471,4.052938499115268,3.597710224806855,-12.076939925531132,-12.352536564267592,0.1695527916447762,-0.9067754371287446
19.38736319541931,0.08458760380744934,0.5993344187736511,-4.608383655548096,0.00426533516048154,0.0025920867919921875,0.13845038414001465,3.793895738530893,-12.017139313955957,-0.5369899404754327,0.7581915860395572,0.8521427244048281,-0.009283496020889865,-0.0081856525555428,4.130246015952855,3.5126498993357185,-11.989343287525134,-12.382199296323849,0.1695527916447762,-0.9067754371287446
19.397069454193115,0.08446422219276428,0.5741509199142456,-4.582813262939453,0.004324833195312391,0.002721071243286133,0.13845038414001465,3.7866871718457937,-11.978322459349009,-0.5569899404754327,0.7582709467515257,0.7839637489132169,-0.009360213907188454,-0.008109922497970466,4.239587189639117,3.3944996091375583,-11.871660303564992,-12.43889364214559,0.1695527916447762,-0.9067754371287446
19.40643048286438,0.08438653498888016,0.5617051124572754,-4.570075035095215,0.004343853849298369,0.0026102066040039062,0.13845038414001465,3.7788784042148067,-11.937693122646872,-0.5726962614018332,0.7580875777634242,0.7525992964763403,-0.009276960851502357,-0.008375175961314103,4.3942186397849925,3.229974228937709,-11.707396952470946,-12.53902864254189,0.1695527916447762,-0.9067754371287446
19.416321992874146,0.08430195599794388,0.5493625998497009,-4.557363986968994,0.0043624706482445,0.002757549285888672,0.13845038414001465,3.7702439359690243,-11.89524530826407,-0.5816016695124916,0.7579283507994289,0.7215110351179933,-0.009256333165817181,-0.008452345492997764,4.612948814254749,3.00024164475768,-11.470627033011944,-12.7084404992948,0.1695527916447762,-0.9067754371287446
19.426053285598755,0.08421070128679276,0.5371279716491699,-4.544678688049316,0.00437559272614535,0.003162384033203125,0.13845038414001465,3.8301854009686975,-12.255411333474532,-0.38698994047543256,0.7577896964195389,0.6908900381643179,-0.009216092959635757,-0.008562267441315826,3.8650117359643854,3.8135961901836275,-12.366627439581704,-12.388842567530169,0.1695527916447762,-0.9067754371287446
19.436113834381104,0.08411288261413574,0.5250056982040405,-4.532075881958008,0.004385042459791967,0.002646923065185547,0.13845038414001465,3.827069584832992,-12.22866152339558,-0.4069899404754326,0.7576592977108,0.6612037782541753,-0.009259581153717637,-0.00860718626464059,3.8754552158244,3.8016554915286758,-12.341837885781718,-12.375166264363816,0.1695527916447762,-0.9067754371287446
19.446924448013306,0.0838976800441742,0.5011158585548401,-4.506931304931641,0.0043986547037014115,0.0029206275939941406,0.13845038414001465,3.8234511978329104,-12.200443134678583,-0.4269899404754326,0.7579783325652124,0.584496899335464,-0.009303302192076555,-0.008755874110668055,3.8887364066611068,3.7861291521462928,-12.313639865219969,-12.3622813471398,0.1695527916447762,-0.9067754371287446
19.583183526992798,0.0838976800441742,0.5011158585548401,-4.506931304931641,0.0043986547037014115,0.0027747154235839844,0.1254127025604248,3.8193126435222515,-12.170717648621611,-0.4469899404754326,0.7519522579523079,1.0,-0.009258269122178687,-0.008971278905904519,3.905805379179292,3.7660137282321564,-12.28123514540241,-12.350941518320715,0.19961626831062557,-0.7904884185038795
19.59164309501648,0.08279857039451599,0.31301504373550415,-4.311333179473877,0.004065363854455134,0.0033495426177978516,0.1254127025604248,3.8146385157419975,-12.139443872245797,-0.46698994047543263,0.7580782274686759,0.20962291391246857,-0.00775223567629261,-0.007745231175031982,3.9280804574126047,3.7398400529727933,-12.24348151571991,-12.342238233126727,0.19961626831062557,-0.7904884185038795
19.599695444107056,0.08279857039451599,0.31301504373550415,-4.311333179473877,0.004065363854455134,0.002786397933959961,0.1254127025604248,3.809415752918447,-12.10657804612316,-0.48698994047543265,0.7575311553835924,0.277368331437855,-0.00738862398647716,-0.009051710434420723,3.9576762608325,3.705445546514431,-12.198760010673327,-12.337733594708228,0.19961626831062557,-0.7904884185038795
19.608948707580566,0.08232985436916351,0.2846083641052246,-4.276924133300781,0.00392588054824182,0.00435948371887207,0.1254127025604248,3.8036337870744834,-12.072073960140804,-0.5069899404754327,0.7583743010842519,0.15927218372884477,-0.007543592719621305,-0.00873773270151431,3.9977313200413134,3.659646946447398,-12.144638685114778,-12.339796716066283,0.19961626831062557,-0.7904884185038795
19.618584156036377,0.08232985436916351,0.2846083641052246,-4.276924133300781,0.00392588054824182,0.002672433853149414,0.1254127025604248,3.7972846871950128,-12.03588307687728,-0.5269899404754327,0.7578284535371675,0.23283493834601765,-0.007429271503696753,-0.009172180197098851,4.052938499115268,3.597710224806855,-12.076939925531132,-12.352536564267592,0.19961626831062557,-0.7904884185038795
19.62837815284729,0.08198895305395126,0.26663291454315186,-4.25395393371582,0.0038395537562627147,0.0029931068420410156,0.1254127025604248,3.7903632966096263,-11.997954662252118,-0.5469899404754327,0.7582004379507051,0.17309052459515295,-0.007379157086770783,-0.008999753678556535,4.130246015952855,3.5126498993357185,-11.989343287525134,-12.382199296323849,0.19961626831062557,-0.7904884185038795
19.636054277420044,0.08198895305395126,0.26663291454315186,-4.25395393371582,0.0038395537562627147,0.0027251243591308594,0.1254127025604248,3.7828673640779824,-11.958235923096561,-0.5657408906766793,0.7576582601986632,0.25244146864657946,-0.007327417318821346,-0.009086987527728324,4.239587189639117,3.3944996091375583,-11.871660303564992,-12.43889364214559,0.19961626831062557,-0.7904884185038795
