time,x,y,z,yaw,ctrl_comp_time,rollout_comptime,y_ref,z_ref,yaw_ref,throttle,roll_rate,pitch_rate,yaw_rate,save_tube_pyH,save_tube_pyL,save_tube_pzH,save_tube_pzL,wy,wz
15.066843032836914,0.033006682991981506,3.75199556350708,-12.305882453918457,-0.0023476627453285805,0.20116949081420898,0.15245366096496582,3.7428919342014226,-12.313489056097493,-0.0039256015987178434,0.5797347715263398,-1.0,0.008349817899114353,0.018555061731096154,3.7425103549957277,3.7415103549957274,-12.311316215515136,-12.312316215515137,0.017800869129383515,-0.14651295495166547
15.735130548477173,0.04300086572766304,3.75075364112854,-12.260854721069336,0.0004515126141629508,0.21077656745910645,0.13002300262451172,3.7463025709868103,-12.316439785808042,-0.04392560159871785,0.6124120455490459,-0.22574403078024552,0.03410827178208407,0.06456254683327109,3.7480131100634058,3.7429306693636524,-12.31567739382741,-12.316837127201113,0.017800869129383515,-0.14651295495166547
16.049936771392822,0.04300086572766304,3.75075364112854,-12.260854721069336,0.0004515126141629508,0.0024755001068115234,0.14472341537475586,3.7494119744815246,-12.313538170342522,-0.08392560159871784,0.6052943488626481,-1.0,0.07601134602538112,0.12667828146670324,3.758717731736673,3.7386260774197013,-12.313505641720258,-12.31610180147091,0.06507923186787323,-0.5705601395636481
16.189735651016235,0.09430054575204849,3.3078982830047607,-11.336838722229004,0.006129028531388969,0.004491329193115234,0.12815570831298828,3.7520493060095323,-12.304925979151452,-0.12392560159871782,0.7495114461770357,1.0,-0.12793472859757832,-0.4325389584225388,3.7750721277466184,3.727816271551859,-12.303739364356296,-12.311477282938416,0.035818059489978626,-0.8703213615111611
16.19822406768799,0.09430054575204849,3.3078982830047607,-11.336838722229004,0.006129028531388969,0.002760648727416992,0.12815570831298828,3.7540283454843104,-12.290699670848962,-0.16392560159871786,0.7484522029049425,1.0,-0.11398184701097043,-0.2577193849543927,3.798583975055101,3.7086278556414176,-12.284395362223778,-12.305162754012413,0.035818059489978626,-0.8703213615111611
16.206114530563354,0.09388844668865204,3.2935922145843506,-11.316631317138672,0.006177388856598187,0.0026009082794189453,0.12815570831298828,3.7551527648515113,-12.270908454797736,-0.2039256015987179,0.7484851746791765,1.0,-0.10223450662317651,-0.16354576636622137,3.832999890500648,3.6769255971039545,-12.25153028189739,-12.301223908754586,0.035818059489978626,-0.8703213615111611
16.217547178268433,0.09265425056219101,3.2495663166046143,-11.255122184753418,0.006342945287281243,0.0026099681854248047,0.12815570831298828,3.755221607222337,-12.245552963827272,-0.24392560159871793,0.7504496445712292,1.0,-0.10099743310916603,-0.10852046000564176,3.887197307121539,3.623431418900094,-12.196714868180754,-12.30811573695872,3.0405032535966523,3.8868037565384594
16.223487377166748,0.09265425056219101,3.2495663166046143,-11.255122184753418,0.006342945287281243,0.002615213394165039,0.12815570831298828,3.7529361749800336,-12.30760425927039,-0.005701318900428221,0.7494398959581698,1.0,-0.1007727512952096,-0.08070738700044926,3.7524955635070802,3.75149556350708,-12.305382453918456,-12.306382453918458,3.0405032535966523,3.8868037565384594
16.233280420303345,0.09224448353052139,3.2345147132873535,-11.234312057495117,0.00636648999578493,0.0025632381439208984,0.12815570831298828,3.7565673371738995,-12.31075666036613,-0.04570131890042822,0.7493636339581253,1.0,-0.10408783276732336,-0.06536756118534562,3.758225379328773,3.7531423952384846,-12.309939169451333,-12.311106677098929,3.0405032535966523,3.8868037565384594
16.24339485168457,0.09183096140623093,3.219254493713379,-11.213357925415039,0.006348577934348565,0.0028553009033203125,0.12815570831298828,3.759871821867319,-12.30806412546364,-0.08570131890042822,0.7488275277078545,1.0,-0.10941681770626652,-0.05636736108215423,3.769129696592134,3.7490410945348662,-12.30795080359124,-12.310602900682902,3.0405032535966523,3.8868037565384594
16.253278970718384,0.09098097681999207,3.1879546642303467,-11.171277046203613,0.006334988157871424,0.002630949020385742,0.12815570831298828,3.762678344127449,-12.299665839339163,-0.1257013189004282,0.7471105056271111,1.0,-0.11903821100809542,-0.04905499560019631,3.785652329613838,3.7384144356513644,-12.298348890095212,-12.306239907949966,3.0405032535966523,3.8868037565384594
16.263473987579346,0.09054069221019745,3.171865224838257,-11.150184631347656,0.006420832493894191,0.0030264854431152344,0.12815570831298828,3.764800481303334,-12.285655618422982,-0.16570131890042825,0.7454891028967637,1.0,-0.12707315953167075,-0.0433857297512357,3.8092975718910895,3.7193918774446963,-12.279145395737306,-12.300216454635772,3.0405032535966523,3.8868037565384594
16.273188591003418,0.09008888155221939,3.155468225479126,-11.129074096679688,0.006589704925929252,0.0028502941131591797,0.12815570831298828,3.7660419533698586,-12.26607999817702,-0.20570131890042828,0.743835420171734,1.0,-0.13393081166361806,-0.03840774547125198,3.84380711175662,3.6878430856137547,-12.246395009811254,-12.296594855227308,3.0405032535966523,3.8868037565384594
16.283320903778076,0.0896250531077385,3.138758897781372,-11.107951164245605,0.006827252656316063,0.0026273727416992188,0.12815570831298828,3.7662021061175817,-12.240936932192307,-0.24570131890042832,0.7421841679509861,1.0,-0.13985747263639559,-0.03372046246956487,3.898048844040927,3.63449999891324,-12.191675556425807,-12.303817659421835,3.0405032535966523,3.8868037565384594
16.293346166610718,0.0886615440249443,3.10439133644104,-11.06569766998291,0.007444054550543977,0.0027599334716796875,0.12815570831298828,3.751520075341704,-12.258679905463485,-0.10728098716396299,0.7397941695176051,1.0,-0.14672544680885088,-0.027718807551392943,3.75125364112854,3.75025364112854,-12.260354721069335,-12.261354721069337,3.0405032535966523,3.8868037565384594
16.440572023391724,0.075347401201725,2.727837085723877,-10.662867546081543,0.016164420715195638,0.0030722618103027344,0.13751220703125,3.7541776014099844,-12.246668449566755,-0.147280987163963,0.7486249621662372,1.0,-0.14860534110194942,-0.0009265435066521299,3.7561377528447957,3.751024646615558,-12.249182775503778,-12.2511497071329,3.0405032535966523,3.8868037565384594
16.450037956237793,0.075347401201725,2.727837085723877,-10.662867546081543,0.016164420715195638,0.0024178028106689453,0.13751220703125,3.7560184040791778,-12.229391535215994,-0.18728098716396305,0.7486895271794395,1.0,-0.15305518317208686,0.012059731551849853,3.7659246884237665,3.7453690292613957,-12.230984068716818,-12.237422481051448,0.5068704766870287,-0.8143440588476933
16.457382678985596,0.07201796025037766,2.652458429336548,-10.593344688415527,0.017068157335737827,0.0031735897064208984,0.13751220703125,3.756820776342789,-12.206854045037618,-0.22728098716396308,0.7487467183387758,1.0,-0.15455060968162612,0.022787753652760596,3.7814066874504113,3.7320527110659283,-12.204502163874267,-12.22146428245324,0.5068704766870287,-0.8143440588476933
16.464970588684082,0.07201796025037766,2.652458429336548,-10.593344688415527,0.017068157335737827,0.002640247344970703,0.13751220703125,3.7563634176722673,-12.179010402237575,-0.2672809871639631,0.7488011628429593,1.0,-0.15677733345048875,0.028543092441665967,3.804802447399729,3.7084131176604447,-12.16742608781619,-12.205520236192934,0.5068704766870287,-0.8143440588476933
16.473206281661987,0.07090218365192413,2.6269924640655518,-10.570261001586914,0.017354661778859942,0.002997159957885742,0.13751220703125,3.7544311735721347,-12.145764433076888,-0.3072809871639631,0.7488886273250263,1.0,-0.157624855686468,0.033005378444465466,3.841326509530216,3.6688012465036275,-12.1149134328864,-12.19426565701972,0.5068704766870287,-0.8143440588476933
16.48330020904541,0.069784015417099,2.601362943649292,-10.547223091125488,0.017629762581817587,0.0027458667755126953,0.13751220703125,3.7508207821957185,-12.10696986517288,-0.34728098716396316,0.7489859613932303,1.0,-0.1575198133452066,0.03646641636834852,3.902851921729881,3.6009305065395147,-12.036952034589525,-12.19744505144812,0.5068704766870287,-0.8143440588476933
16.49346375465393,0.06754188239574432,2.549626588821411,-10.501320838928223,0.018137642685056216,0.003005504608154297,0.13751220703125,3.751520075341704,-12.258679905463485,-0.10728098716396299,0.7490950651240285,1.0,-0.1555409402306945,0.040055661357156346,3.75125364112854,3.75025364112854,-12.260354721069335,-12.261354721069337,0.5068704766870287,-0.8143440588476933
16.503350973129272,0.0664251446723938,2.5235416889190674,-10.478463172912598,0.018388332366234356,0.002496480941772461,0.13751220703125,3.754177601409976,-12.246668449566755,-0.147280987163963,0.7491448507570149,1.0,-0.15379643982742147,0.04229795426148932,3.7561377528447912,3.7510246466155537,-12.249182775503778,-12.2511497071329,0.5068704766870287,-0.8143440588476933
16.514058113098145,0.06530587375164032,2.4973058700561523,-10.45566177368164,0.01861323483609173,0.0029382705688476562,0.13751220703125,3.7560184040791484,-12.229391535215994,-0.18728098716396305,0.7491904508854971,1.0,-0.15182598745311496,0.0438535826768986,3.7659246884237447,3.7453690292613735,-12.230984068716818,-12.237422481051446,0.4893841120601081,-1.0552583839309948
16.52318024635315,0.0641845092177391,2.4709231853485107,-10.432917594909668,0.01883915161888658,0.0028238296508789062,0.13751220703125,3.756820776342726,-12.206854045037616,-0.22728098716396308,0.7492347688406054,1.0,-0.1495102577123852,0.04493291141394346,3.7814066874503576,3.7320527110658746,-12.204502163874265,-12.221464282453235,0.4893841120601081,-1.0552583839309948
16.533355951309204,0.0641845092177391,2.4709231853485107,-10.432917594909668,0.01883915161888658,0.0027332305908203125,0.13751220703125,3.756363417672156,-12.17901040223757,-0.2672809871639631,0.7492137445315974,1.0,-0.14858052895051105,0.04500011057178946,3.8048024473996302,3.708413117660346,-12.167426087816185,-12.205520236192925,0.4893841120601081,-1.0552583839309948
16.54341959953308,0.06081274151802063,2.390935182571411,-10.365036964416504,0.019496876494831977,0.0032830238342285156,0.13751220703125,3.7544311735719598,-12.145764433076877,-0.3072809871639631,0.7494526645625056,1.0,-0.14277380593927752,0.04638579038641251,3.8413265095300586,3.6688012465034676,-12.114913432886377,-12.19426565701972,0.4893841120601081,-1.0552583839309948
16.703365564346313,0.03619661182165146,1.8001612424850464,-9.91146183013916,0.018623739074375936,0.0024476051330566406,0.14911174774169922,3.7508207821954627,-12.10696986517286,-0.34728098716396316,0.7229034281141564,1.0,-0.09577364507039235,0.03677397207587745,3.9028519217296527,3.6009305065392727,-12.036952034589467,-12.197445051448137,0.4893841120601081,-1.0552583839309948
16.714264154434204,0.03619661182165146,1.8001612424850464,-9.91146183013916,0.018623739074375936,0.0027108192443847656,0.14911174774169922,3.7522490452173,-12.256172824304596,-0.11728098716396299,0.722230636416291,1.0,-0.07492309413646142,0.02912281564125295,3.75125364112854,3.75025364112854,-12.260354721069335,-12.261354721069337,0.5222097803638093,-2.329391538858756
16.723210334777832,0.03452146425843239,1.7692848443984985,-9.889336585998535,0.01839790324564651,0.0031235218048095703,0.14911174774169922,3.7547229836396503,-12.242841809673797,-0.15728098716396302,0.7220778599132615,1.0,-0.0638887638728081,0.02218167654684034,3.7561377528447912,3.7510246466155537,-12.249182775503778,-12.2511497071329,0.5222097803638093,-2.329391538858756
16.73320436477661,0.03285081312060356,1.7384246587753296,-9.867287635803223,0.018180778363031606,0.002869844436645508,0.14911174774169922,3.756325045479336,-12.224251256350637,-0.19728098716396306,0.721930584378072,1.0,-0.05631507186168842,0.016258909959345882,3.7659246884237447,3.7453690292613735,-12.230984068716818,-12.237422481051446,0.5222097803638093,-2.329391538858756
16.743383169174194,0.029526814818382263,1.6767696142196655,-9.823413848876953,0.017757038906973603,0.0030641555786132812,0.14911174774169922,3.7568330902383855,-12.200393479836338,-0.2372809871639631,0.7224138515892978,1.0,-0.04726156286152911,0.009857444376564078,3.7814066874503576,3.7320527110658746,-12.204502163874265,-12.221464282453235,0.5222097803638093,-2.329391538858756
16.75326633453369,0.027875429019331932,1.6459832191467285,-9.80158805847168,0.017552192564922596,0.002629995346069336,0.14911174774169922,3.756026814366441,-12.171210242098603,-0.2772809871639631,0.722319771762061,1.0,-0.04036497252847109,0.0044220915637852125,3.8048024473996302,3.708413117660346,-12.167426087816185,-12.205520236192925,0.5222097803638093,-2.329391538858756
16.763859272003174,0.02623233012855053,1.6152304410934448,-9.77985954284668,0.017351843624625288,0.003001689910888672,0.14911174774169922,3.7536934990073463,-12.136592773295128,-0.31728098716396314,0.7223021808402966,1.0,-0.034285559420300864,-0.0003572965141341068,3.8413265095300586,3.6688012465034676,-12.114913432886377,-12.19426565701972,0.5222097803638093,-2.329391538858756
16.773120880126953,0.024598408490419388,1.5845160484313965,-9.758188247680664,0.017152747057730018,0.004324674606323242,0.14911174774169922,3.749633747759023,-12.09638242812334,-0.35728098716396317,0.7223488722080766,1.0,-0.02869613725609283,-0.004634862625877954,3.9028519217296527,3.6009305065392727,-12.036952034589467,-12.197445051448137,0.5222097803638093,-2.329391538858756
16.78412652015686,0.024598408490419388,1.5845160484313965,-9.758188247680664,0.017152747057730018,0.0027725696563720703,0.14911174774169922,3.752937211921306,-12.253334619237709,-0.127280987163963,0.7215285767923856,1.0,-0.026316055570226628,-0.007092002766271057,3.75125364112854,3.75025364112854,-12.260354721069335,-12.261354721069337,0.5222097803638093,-2.329391538858756
16.94080090522766,-0.015080392360687256,0.9117315411567688,-9.27920150756836,0.010763554571672294,0.004537105560302734,0.14546823501586914,3.7552138924740417,-12.238686692859332,-0.16728098716396303,0.7300455327536801,1.0,-0.004666517723480135,-0.0248575863552026,3.7561377528447912,3.7510246466155537,-12.249182775503778,-12.2511497071329,0.5222097803638093,-2.329391538858756
16.951958656311035,-0.015080392360687256,0.9117315411567688,-9.27920150756836,0.010763554571672294,0.0025615692138671875,0.14546823501586914,3.7565633018800715,-12.218782023287936,-0.20728098716396307,0.7288460367077365,1.0,-0.0005964185757078669,-0.021272288885703632,3.7659246884237447,3.7453690292613735,-12.230984068716818,-12.237422481051446,0.8646965565883029,-0.5415683732575518
16.963295698165894,-0.017824344336986542,0.8518328070640564,-9.234529495239258,0.010172789203219998,0.004071474075317383,0.14546823501586914,3.7567632220533786,-12.193600320453484,-0.2472809871639631,0.7309956320290131,1.0,0.0014255300330075998,-0.017890143575716257,3.7814066874503576,3.7320527110658746,-12.204502163874265,-12.221464282453235,0.8646965565883029,-0.5415683732575518
16.97098970413208,-0.017824344336986542,0.8518328070640564,-9.234529495239258,0.010172789203219998,0.0028710365295410156,0.14546823501586914,3.7555947059921815,-12.163070686451785,-0.2872809871639631,0.7297603512697416,1.0,0.0015144838689242566,-0.015096757874800266,3.8048024473996302,3.708413117660346,-12.167426087816185,-12.205520236192925,0.8646965565883029,-0.5415683732575518
16.97999143600464,-0.021821007132530212,0.7632285952568054,-9.167821884155273,0.00932792090143561,0.0031626224517822266,0.14546823501586914,3.752847829416841,-12.127071796406975,-0.32728098716396314,0.7337212062333719,1.0,0.004501571928753565,-0.015536749772733071,3.8413265095300586,3.6688012465034676,-12.114913432886377,-12.19426565701972,0.8646965565883029,-0.5415683732575518
16.987051963806152,-0.021821007132530212,0.7632285952568054,-9.167821884155273,0.00932792090143561,0.002513408660888672,0.14546823501586914,3.748327415488807,-12.085432712258454,-0.3672809871639632,0.7324370716170523,1.0,0.004846587492178984,-0.013626018256213485,3.9028519217296527,3.6009305065392727,-12.036952034589467,-12.197445051448137,0.8646965565883029,-0.5415683732575518
16.99527382850647,-0.023118194192647934,0.7340401411056519,-9.145646095275879,0.00906367317908463,0.0028524398803710938,0.14546823501586914,3.753581199730172,-12.250166241318341,-0.137280987163963,0.7328872475706789,1.0,0.005852235593312907,-0.013183401907812146,3.75125364112854,3.75025364112854,-12.260354721069335,-12.261354721069337,0.8646965565883029,-0.5415683732575518
17.00393843650818,-0.02440476045012474,0.7050282955169678,-9.123502731323242,0.00881060970558871,0.002583742141723633,0.14546823501586914,3.755646858842559,-12.234203274884134,-0.17728098716396304,0.7333249439042797,1.0,0.006945478236248997,-0.012849228342654503,3.7561377528447912,3.7510246466155537,-12.249182775503778,-12.2511497071329,0.8646965565883029,-0.5415683732575518
17.162580490112305,-0.02440476045012474,0.7050282955169678,-9.123502731323242,0.00881060970558871,0.002872943878173828,0.14724326133728027,3.7567296992581163,-12.212983223163752,-0.21728098716396307,0.7140102165707366,1.0,0.0069113014795458665,-0.011786368050342687,3.7659246884237447,3.7453690292613735,-12.230984068716818,-12.237422481051446,0.8509080949707966,-0.6162016330723668
17.17101740837097,-0.05244681239128113,0.13926582038402557,-8.659411430358887,0.0037979783387454835,0.0025527477264404297,0.14724326133728027,3.7566077825299886,-12.186473162004557,-0.2572809871639631,0.7506914842673147,-0.16591228750790354,0.013956696552027019,-0.010292096003058797,3.7814066874503576,3.7320527110658746,-12.204502163874265,-12.221464282453235,0.8509080949707966,-0.6162016330723668
17.177226781845093,-0.05244681239128113,0.13926582038402557,-8.659411430358887,0.0037979783387454835,0.0028488636016845703,0.14724326133728027,3.7550638780167636,-12.154589544953051,-0.2972809871639631,0.749259187765487,-0.14011568870050883,0.014864339299718398,-0.009350343969117953,3.8048024473996302,3.708413117660346,-12.167426087816185,-12.205520236192925,0.8509080949707966,-0.6162016330723668
17.185876607894897,-0.055228352546691895,0.09103205800056458,-8.614581108093262,0.003376802641308463,0.002602815628051758,0.14724326133728027,3.7518912141344636,-12.117198543018803,-0.33728098716396315,0.7520299403441068,-0.30423171717494846,0.015629486534367416,-0.007916768792097411,3.8413265095300586,3.6688012465034676,-12.114913432886377,-12.19426565701972,0.8509080949707966,-0.6162016330723668
17.19387936592102,-0.056810978800058365,0.06743808090686798,-8.591790199279785,0.0031751899945473006,0.002695322036743164,0.14724326133728027,3.7468991858876626,-12.074117015166994,-0.3772809871639632,0.7527212873115434,-0.3740570763807476,0.015970627216509825,-0.00748015441326229,3.9028519217296527,3.6009305065392727,-12.036952034589467,-12.197445051448137,0.8509080949707966,-0.6162016330723668
17.203380823135376,-0.05835305154323578,0.04411866515874863,-8.569007873535156,0.0029756737110784304,0.0026960372924804688,0.14724326133728027,3.754177601409976,-12.246668449566755,-0.147280987163963,0.7534135306955706,-0.4437396548804393,0.016236060311947437,-0.00718338131699073,3.75125364112854,3.75025364112854,-12.260354721069335,-12.261354721069337,0.8509080949707966,-0.6162016330723668
17.215497970581055,-0.059843745082616806,0.021075863391160965,-8.546259880065918,0.002777739670216328,0.002685070037841797,0.14724326133728027,3.7560184040791484,-12.229391535215994,-0.18728098716396305,0.7541306251253992,-0.512624778615905,0.016558734992527743,-0.007002938962252177,3.7561377528447912,3.7510246466155537,-12.249182775503778,-12.2511497071329,0.23380715317736378,0.13507357062927183
17.223546981811523,-0.06270434707403183,-0.024153973907232285,-8.500777244567871,0.0024066802930289566,0.0026772022247314453,0.14724326133728027,3.756820776342726,-12.206854045037616,-0.22728098716396308,0.7568013644315463,-0.6932828078100082,0.017257521089671185,-0.006600823774318147,3.7659246884237447,3.7453690292613735,-12.230984068716818,-12.237422481051446,0.23380715317736378,0.13507357062927183
17.23330855369568,-0.06407400965690613,-0.046321310102939606,-8.478059768676758,0.002239087912158072,0.0026884078979492188,0.14724326133728027,3.756363417672156,-12.17901040223757,-0.2672809871639631,0.7572567135051088,-0.7541555486386966,0.01765132346759855,-0.006901348955619438,3.7814066874503576,3.7320527110658746,-12.204502163874265,-12.221464282453235,0.23380715317736378,0.13507357062927183
17.243515491485596,-0.06540341675281525,-0.06818202883005142,-8.455364227294922,0.002083881371761187,0.003056764602661133,0.14724326133728027,3.7544311735719598,-12.145764433076877,-0.3072809871639631,0.7576719698553551,-0.8045961433848099,0.017979095459990622,-0.007069846368736339,3.8048024473996302,3.708413117660346,-12.167426087816185,-12.205520236192925,0.23380715317736378,0.13507357062927183
17.39302706718445,-0.08080050349235535,-0.4182516634464264,-8.014530181884766,0.0009257076558218114,0.0029158592224121094,0.13885498046875,3.7508207821954627,-12.10696986517286,-0.34728098716396316,0.7736689892777414,0.14480109444549827,0.02609479004398107,-0.00836017039037022,3.8413265095300586,3.6688012465034676,-12.114913432886377,-12.19426565701972,0.23380715317736378,0.13507357062927183
17.402255296707153,-0.08080050349235535,-0.4182516634464264,-8.014530181884766,0.0009257076558218114,0.002454519271850586,0.13885498046875,3.745346560582877,-12.062431453847728,-0.3872809871639632,0.7735103581281363,0.2506117539418048,0.027098542098175322,-0.002127205413830789,3.9028519217296527,3.6009305065392727,-12.036952034589467,-12.197445051448137,0.28212390782065633,0.10210937857067082
17.410789251327515,-0.08150541037321091,-0.4487644135951996,-7.967992782592773,0.000932917925672655,0.005521059036254883,0.13885498046875,3.7547229836396503,-12.242841809673797,-0.15728098716396302,0.7736689892777414,0.34361686833286775,0.02892677693123447,-0.00012123779262623702,3.75125364112854,3.75025364112854,-12.260354721069335,-12.261354721069337,0.28212390782065633,0.10210937857067082
17.422956228256226,-0.08150541037321091,-0.4487644135951996,-7.967992782592773,0.000932917925672655,0.0028314590454101562,0.13885498046875,3.756325045479336,-12.224251256350637,-0.19728098716396306,0.7736689892777414,0.4562042101204803,0.02939198388297096,0.0023025415256418286,3.7561377528447912,3.7510246466155537,-12.249182775503778,-12.2511497071329,0.27095268129239614,0.1018641379149432
17.432368993759155,-0.08257347345352173,-0.4903801679611206,-7.898149490356445,0.000977141209243082,0.0029191970825195312,0.13885498046875,3.7568330902383855,-12.200393479836338,-0.2372809871639631,0.7736689892777414,0.55271591552186,0.031052878393573225,0.002007343126564169,3.7659246884237447,3.7453690292613735,-12.230984068716818,-12.237422481051446,0.27095268129239614,0.1018641379149432
17.438894510269165,-0.08257347345352173,-0.4903801679611206,-7.898149490356445,0.000977141209243082,0.0026061534881591797,0.13885498046875,3.756026814366441,-12.171210242098603,-0.2772809871639631,0.7736689892777414,0.6719370025396905,0.03117808938219393,0.0038684434743583,3.7814066874503576,3.7320527110658746,-12.204502163874265,-12.221464282453235,0.27095268129239614,0.1018641379149432
17.4492826461792,-0.08344730734825134,-0.5139291882514954,-7.851293087005615,0.0010944855905915263,0.0048220157623291016,0.13885498046875,3.7536934990073463,-12.136592773295128,-0.31728098716396314,0.7736689892777414,0.7590454524540733,0.031989386383275205,0.00363823388507044,3.8048024473996302,3.708413117660346,-12.167426087816185,-12.205520236192925,0.27095268129239614,0.1018641379149432
17.459290027618408,-0.08344730734825134,-0.5139291882514954,-7.851293087005615,0.0010944855905915263,0.005078554153442383,0.13885498046875,3.749633747759023,-12.09638242812334,-0.35728098716396317,0.7736689892777414,0.8851170627172533,0.03198588008276723,0.004688358144219669,3.8413265095300586,3.6688012465034676,-12.114913432886377,-12.19426565701972,0.27095268129239614,0.1018641379149432
17.47522783279419,-0.08447805792093277,-0.54793381690979,-7.781784534454346,0.0013107093603876852,0.004969358444213867,0.13885498046875,3.7436671475584338,-12.050371967059945,-0.3972809871639632,0.7736689892777414,0.910761825670201,0.03270299602614867,0.0038480891785425356,3.9028519217296527,3.6009305065392727,-12.036952034589467,-12.197445051448137,0.27095268129239614,0.1018641379149432
17.48715853691101,-0.08474896848201752,-0.5589250326156616,-7.75879430770874,0.0013928780509505634,0.002986431121826172,0.13885498046875,3.7552138924740417,-12.238686692859332,-0.16728098716396303,0.7736689892777414,0.9933862159718785,0.03260861544801678,0.004862756959274182,3.75125364112854,3.75025364112854,-12.260354721069335,-12.261354721069337,0.27095268129239614,0.1018641379149432
17.49863362312317,-0.0853426456451416,-0.5908852815628052,-7.690373420715332,0.001661832674101138,0.0029993057250976562,0.13885498046875,3.7565633018800715,-12.218782023287936,-0.20728098716396307,0.7736689892777414,0.9319545594709433,0.032910019576619584,0.004401944771409623,3.7561377528447912,3.7510246466155537,-12.249182775503778,-12.2511497071329,0.27095268129239614,0.1018641379149432
17.654720544815063,-0.0853426456451416,-0.5908852815628052,-7.690373420715332,0.001661832674101138,0.004848480224609375,0.1479794979095459,3.7567632220533786,-12.193600320453484,-0.2472809871639631,0.7540853209007776,1.0,0.03269873408952038,0.0051655263526919435,3.7659246884237447,3.7453690292613735,-12.230984068716818,-12.237422481051446,0.27095268129239614,0.1018641379149432
17.668169498443604,-0.08500286191701889,-0.7536110877990723,-7.223840713500977,0.004182963576757015,0.0027344226837158203,0.1479794979095459,3.7555947059921815,-12.163070686451785,-0.2872809871639631,0.7717587020622164,-1.0,0.03094596892076802,0.011467940649369455,3.7814066874503576,3.7320527110658746,-12.204502163874265,-12.221464282453235,0.6246010477208586,-1.716710566609491
17.674509525299072,-0.08500286191701889,-0.7536110877990723,-7.223840713500977,0.004182963576757015,0.003152132034301758,0.1479794979095459,3.752847829416841,-12.127071796406975,-0.32728098716396314,0.7708569751594087,-1.0,0.03198588661767196,0.0046148847914469675,3.8048024473996302,3.708413117660346,-12.167426087816185,-12.205520236192925,0.6246010477208586,-1.716710566609491
17.684219360351562,-0.08500286191701889,-0.7536110877990723,-7.223840713500977,0.004182963576757015,0.002818584442138672,0.1479794979095459,3.748327415488807,-12.085432712258454,-0.3672809871639632,0.7699610713897037,-1.0,0.031021747412561505,0.0013810945377143898,3.8413265095300586,3.6688012465034676,-12.114913432886377,-12.19426565701972,0.6246010477208586,-1.716710566609491
17.69332480430603,-0.08370845019817352,-0.7629756927490234,-7.178812503814697,0.004466029360673418,0.0029807090759277344,0.1479794979095459,3.741858666330792,-12.037934317813335,-0.4072809871639632,0.7707293116034021,-1.0,0.031090864632915844,0.0009201238442617422,3.9028519217296527,3.6009305065392727,-12.036952034589467,-12.197445051448137,0.6246010477208586,-1.716710566609491
17.7034113407135,-0.08370845019817352,-0.7629756927490234,-7.178812503814697,0.004466029360673418,0.0025801658630371094,0.1479794979095459,3.755646858842559,-12.234203274884134,-0.17728098716396304,0.7698480564941356,-1.0,0.031013184451682392,0.0006983858859196859,3.75125364112854,3.75025364112854,-12.260354721069335,-12.261354721069337,0.6246010477208586,-1.716710566609491
17.713685989379883,-0.08166424185037613,-0.7751905918121338,-7.111764907836914,0.004917969798734267,0.0025243759155273438,0.1479794979095459,3.7567296992581163,-12.212983223163752,-0.21728098716396307,0.7713508400183888,-1.0,0.0319497681435173,0.002420513747340647,3.7561377528447912,3.7510246466155537,-12.249182775503778,-12.2511497071329,0.44451786695798745,-0.6524052911527974
17.72324013710022,-0.08166424185037613,-0.7751905918121338,-7.111764907836914,0.004917969798734267,0.0024657249450683594,0.1479794979095459,3.7566077825299886,-12.186473162004557,-0.2572809871639631,0.7704900181368759,-1.0,0.03247005796701082,0.0035004013434908263,3.7659246884237447,3.7453690292613735,-12.230984068716818,-12.237422481051446,0.44451786695798745,-0.6524052911527974
17.73345160484314,-0.08021412044763565,-0.7820242643356323,-7.067385673522949,0.005219888756221008,0.0028228759765625,0.1479794979095459,3.7550638780167636,-12.154589544953051,-0.2972809871639631,0.7709313825995382,-1.0,0.033475023212280984,0.005103471945164857,3.7814066874503576,3.7320527110658746,-12.204502163874265,-12.221464282453235,0.44451786695798745,-0.6524052911527974
17.882877111434937,-0.06567828357219696,-0.7867348194122314,-6.671939373016357,0.008075438260135376,0.0026617050170898438,0.13856863975524902,3.7518912141344636,-12.117198543018803,-0.33728098716396315,0.7736689892777414,-0.6911127110005124,0.03446580083399167,0.002552640152163369,3.8048024473996302,3.708413117660346,-12.167426087816185,-12.205520236192925,0.44451786695798745,-0.6524052911527974
17.891069173812866,-0.06567828357219696,-0.7867348194122314,-6.671939373016357,0.008075438260135376,0.0027129650115966797,0.13856863975524902,3.7468991858876626,-12.074117015166994,-0.3772809871639632,0.7736689892777414,-0.5145937351897687,0.034468937633884145,0.005124350664932757,3.8413265095300586,3.6688012465034676,-12.114913432886377,-12.19426565701972,-0.05608733352659012,-0.6656503935245154
17.89992332458496,-0.06391198188066483,-0.781764030456543,-6.62856388092041,0.00837494606985667,0.003023862838745117,0.13856863975524902,3.7399189530647767,-12.025114095995312,-0.4172809871639632,0.7736689892777414,-0.43619754615446715,0.03478711510273559,0.007404555943668229,3.9028519217296527,3.6009305065392727,-12.036952034589467,-12.197445051448137,-0.05608733352659012,-0.6656503935245154
17.906778573989868,-0.06391198188066483,-0.781764030456543,-6.62856388092041,0.00837494606985667,0.002796649932861328,0.13856863975524902,3.7560184040791484,-12.229391535215994,-0.18728098716396305,0.7736689892777414,-0.2534907061618985,0.03534180812543481,0.009279685059055466,3.75125364112854,3.75025364112854,-12.260354721069335,-12.261354721069337,-0.05608733352659012,-0.6656503935245154
17.92020893096924,-0.06115197390317917,-0.7730026245117188,-6.564059257507324,0.008812023392308965,0.0045909881591796875,0.13856863975524902,3.756820776342726,-12.206854045037616,-0.22728098716396308,0.7736689892777414,-0.1957004558827009,0.035220485059075136,0.01090028577367703,3.7561377528447912,3.7510246466155537,-12.249182775503778,-12.2511497071329,-0.2701633541659261,-0.7041378671029682
17.930200338363647,-0.06115197390317917,-0.7730026245117188,-6.564059257507324,0.008812023392308965,0.0027785301208496094,0.13856863975524902,3.756363417672156,-12.17901040223757,-0.2672809871639631,0.7736689892777414,-0.007311329156527657,0.035550849420784486,0.011794186131961726,3.7659246884237447,3.7453690292613735,-12.230984068716818,-12.237422481051446,-0.2701633541659261,-0.7041378671029682
17.9386088848114,-0.05923249572515488,-0.7663468718528748,-6.521414279937744,0.009057702229987391,0.002862215042114258,0.13856863975524902,3.7544311735719598,-12.145764433076877,-0.3072809871639631,0.7736689892777414,0.11270060456264264,0.03543547516803759,0.012910714079217706,3.7814066874503576,3.7320527110658746,-12.204502163874265,-12.221464282453235,-0.2701633541659261,-0.7041378671029682
17.948009967803955,-0.05923249572515488,-0.7663468718528748,-6.521414279937744,0.009057702229987391,0.00530552864074707,0.13856863975524902,3.7508207821954627,-12.10696986517286,-0.34728098716396316,0.7736689892777414,0.30723407509864487,0.03566763311864017,0.01351623763654953,3.8048024473996302,3.708413117660346,-12.167426087816185,-12.205520236192925,-0.2701633541659261,-0.7041378671029682
17.962405920028687,-0.05485977977514267,-0.7501062154769897,-6.45504903793335,0.009406556456261886,0.004362344741821289,0.13856863975524902,3.745346560582877,-12.062431453847728,-0.3872809871639632,0.7736689892777414,0.36730443112218003,0.036324941769700365,0.013254253382007333,3.8413265095300586,3.6688012465034676,-12.114913432886377,-12.19426565701972,-0.2701633541659261,-0.7041378671029682
17.973042011260986,-0.05485977977514267,-0.7501062154769897,-6.45504903793335,0.009406556456261886,0.004027843475341797,0.13856863975524902,3.7378459656262453,-12.011906721133807,-0.42728098716396323,0.7736689892777414,0.567523882232575,0.03629916243037365,0.013963986281828173,3.9028519217296527,3.6009305065392727,-12.036952034589467,-12.197445051448137,-0.2701633541659261,-0.7041378671029682
17.9858660697937,-0.05045953020453453,-0.7329221963882446,-6.389728546142578,0.009726471398293218,0.0026633739471435547,0.13856863975524902,3.756325045479336,-12.224251256350637,-0.19728098716396306,0.7736689892777414,0.6090748400380726,0.037075777064874624,0.01283965400137364,3.75125364112854,3.75025364112854,-12.260354721069335,-12.261354721069337,-0.2701633541659261,-0.7041378671029682
18.140506267547607,-0.025793056935071945,-0.5951931476593018,-5.988958835601807,0.011769831885989235,0.002708911895751953,0.14476823806762695,3.7568330902383855,-12.200393479836338,-0.2372809871639631,0.769706898617465,-1.0,0.037139533934617476,0.017073268569420902,3.7561377528447912,3.7510246466155537,-12.249182775503778,-12.2511497071329,-0.2701633541659261,-0.7041378671029682
18.1496798992157,-0.025793056935071945,-0.5951931476593018,-5.988958835601807,0.011769831885989235,0.002736330032348633,0.14476823806762695,3.756026814366441,-12.171210242098603,-0.2772809871639631,0.7691889442461285,-1.0,0.03748677170795573,0.009174698854880446,3.7659246884237447,3.7453690292613735,-12.230984068716818,-12.237422481051446,-0.09824791800909072,-0.9978632471434438
18.157485246658325,-0.0222159493714571,-0.5688198804855347,-5.927814483642578,0.012136081876823412,0.0032372474670410156,0.14476823806762695,3.7536934990073463,-12.136592773295128,-0.31728098716396314,0.7688961728231087,-1.0,0.035676703322777635,0.006732865086982377,3.7814066874503576,3.7320527110658746,-12.204502163874265,-12.221464282453235,-0.09824791800909072,-0.9978632471434438
18.16468071937561,-0.0222159493714571,-0.5688198804855347,-5.927814483642578,0.012136081876823412,0.0027523040771484375,0.14476823806762695,3.749633747759023,-12.09638242812334,-0.35728098716396317,0.7683981828868481,-1.0,0.034968339687635464,0.005068178683918546,3.8048024473996302,3.708413117660346,-12.167426087816185,-12.205520236192925,-0.09824791800909072,-0.9978632471434438
18.173197507858276,-0.021007664501667023,-0.5597831606864929,-5.9076433181762695,0.0122614277613185,0.0026254653930664062,0.14476823806762695,3.7436671475584338,-12.050371967059945,-0.3972809871639632,0.7679454242546602,-1.0,0.03447112863542927,0.004638292818369397,3.8413265095300586,3.6688012465034676,-12.114913432886377,-12.19426565701972,-0.09824791800909072,-0.9978632471434438
18.183419466018677,-0.01979212649166584,-0.5506173968315125,-5.88755464553833,0.012386950789048612,0.0029268264770507812,0.14476823806762695,3.7356377885682632,-11.998307445293488,-0.43728098716396324,0.7674859467967063,-1.0,0.03430791822036397,0.004942056466781567,3.9028519217296527,3.6009305065392727,-12.036952034589467,-12.197445051448137,-0.09824791800909072,-0.9978632471434438
18.19515109062195,-0.01733388751745224,-0.5314324498176575,-5.846933841705322,0.012642413642707157,0.0032548904418945312,0.14476823806762695,3.7565633018800715,-12.218782023287936,-0.20728098716396307,0.7668931591429861,-1.0,0.03436642267346772,0.006258304737141491,3.75125364112854,3.75025364112854,-12.260354721069335,-12.261354721069337,-0.09824791800909072,-0.9978632471434438
18.204925298690796,-0.016089042648673058,-0.5214129686355591,-5.8264288902282715,0.01277499604689683,0.002613544464111328,0.14476823806762695,3.7567632220533786,-12.193600320453484,-0.2472809871639631,0.766374576877591,-1.0,0.0346881751603205,0.007498730505855271,3.7561377528447912,3.7510246466155537,-12.249182775503778,-12.2511497071329,-0.09824791800909072,-0.9978632471434438
18.370622634887695,0.007930311374366283,-0.28036627173423767,-5.410439491271973,0.015803528678585685,0.004617452621459961,0.1494913101196289,3.7555947059921815,-12.163070686451785,-0.2872809871639631,0.7706828477764257,-1.0,0.023664478346140914,-0.0027605700047498623,3.7659246884237447,3.7453690292613735,-12.230984068716818,-12.237422481051446,0.1767015094961062,-1.578354045270578
18.383296489715576,0.007930311374366283,-0.28036627173423767,-5.410439491271973,0.015803528678585685,0.0053288936614990234,0.1494913101196289,3.752847829416841,-12.127071796406975,-0.32728098716396314,0.7702354192451344,-1.0,0.021868241491118434,-0.007567544886761762,3.7814066874503576,3.7320527110658746,-12.204502163874265,-12.221464282453235,0.1767015094961062,-1.578354045270578
18.39723300933838,0.010661693289875984,-0.24213919043540955,-5.352379322052002,0.016303385335756447,0.0029344558715820312,0.1494913101196289,3.748327415488807,-12.085432712258454,-0.3672809871639632,0.7709338091415773,-1.0,0.01824771841984738,-0.01249720790002627,3.8048024473996302,3.708413117660346,-12.167426087816185,-12.205520236192925,0.1767015094961062,-1.578354045270578
18.40567898750305,0.011583930812776089,-0.229308620095253,-5.33322286605835,0.016467452581428094,0.0025606155395507812,0.1494913101196289,3.741858666330792,-12.037934317813335,-0.4072809871639632,0.7708745336783409,-1.0,0.016653810271291463,-0.015219206816972265,3.8413265095300586,3.6688012465034676,-12.114913432886377,-12.19426565701972,0.1767015094961062,-1.578354045270578
18.416411876678467,0.012516634538769722,-0.21644550561904907,-5.314164638519287,0.016628407297395502,0.0027527809143066406,0.1494913101196289,3.7332926380476046,-11.984311356103255,-0.44728098716396325,0.7708145071236763,-1.0,0.015397895654903758,-0.016995483475035975,3.9028519217296527,3.6009305065392727,-12.036952034589467,-12.197445051448137,-0.17937542869142264,-0.5385342892663045
18.42435336112976,0.013454116880893707,-0.2035515010356903,-5.295242786407471,0.016788974109523708,0.0028600692749023438,0.1494913101196289,3.7567296992581163,-12.212983223163752,-0.21728098716396307,0.7707379938866377,-1.0,0.014347990721892172,-0.018212819999357404,3.75125364112854,3.75025364112854,-12.260354721069335,-12.261354721069337,-0.17937542869142264,-0.5385342892663045
18.433623790740967,0.015342054888606071,-0.1776910275220871,-5.25769567489624,0.01708711334897138,0.002706766128540039,0.1494913101196289,3.7566077825299886,-12.186473162004557,-0.2572809871639631,0.771050770498914,-1.0,0.012973129205273444,-0.019484647347078547,3.7561377528447912,3.7510246466155537,-12.249182775503778,-12.2511497071329,-0.17937542869142264,-0.5385342892663045
18.443459272384644,0.01631617546081543,-0.16395783424377441,-5.237742900848389,0.017226534778015362,0.005439043045043945,0.1494913101196289,3.7550638780167636,-12.154589544953051,-0.2972809871639631,0.7710282398172471,-1.0,0.01250423238831632,-0.019934615937263048,3.7659246884237447,3.7453690292613735,-12.230984068716818,-12.237422481051446,-0.17937542869142264,-0.5385342892663045
18.455644607543945,0.01631617546081543,-0.16395783424377441,-5.237742900848389,0.017226534778015362,0.002727031707763672,0.1494913101196289,3.7518912141344636,-12.117198543018803,-0.33728098716396315,0.7705338239254169,-1.0,0.01249932352813443,-0.01995836316796904,3.7814066874503576,3.7320527110658746,-12.204502163874265,-12.221464282453235,-0.17937542869142264,-0.5385342892663045
18.607442140579224,0.03811759874224663,0.10742054134607315,-4.863352298736572,0.01796037373727713,0.004121541976928711,0.13792705535888672,3.7468991858876626,-12.074117015166994,-0.3772809871639632,0.767964579742022,-0.5305015632300967,0.015877053331642188,-0.016455621786790782,3.8048024473996302,3.708413117660346,-12.167426087816185,-12.205520236192925,-0.17937542869142264,-0.5385342892663045
18.618507862091064,0.03811759874224663,0.10742054134607315,-4.863352298736572,0.01796037373727713,0.002641439437866211,0.13792705535888672,3.7399189530647767,-12.025114095995312,-0.4172809871639632,0.7673480788387276,-0.5406267209429139,0.014864480002855182,-0.020653794811674703,3.8413265095300586,3.6688012465034676,-12.114913432886377,-12.19426565701972,-0.39378857272470436,-0.8153745167371951
18.626440048217773,0.04073946550488472,0.13408061861991882,-4.827827453613281,0.017816621916479022,0.004681587219238281,0.13792705535888672,3.7308088666684633,-11.96991337991283,-0.45728098716396326,0.7678206783452304,-0.4439007881597403,0.016008939024287554,-0.021169287391467444,3.9028519217296527,3.6009305065392727,-12.036952034589467,-12.197445051448137,-0.39378857272470436,-0.8153745167371951
18.641138792037964,0.04469261318445206,0.17311231791973114,-4.775367259979248,0.017570825411507694,0.004343986511230469,0.13792705535888672,3.100553305988165,-11.03417708311627,-0.5806707053577354,0.7688892453756699,-0.27381538068529676,0.017393559968815732,-0.021606386674741213,3.10489133644104,3.10389133644104,-11.06519766998291,-11.06619766998291,-0.39378857272470436,-0.8153745167371951
18.649298429489136,0.04469261318445206,0.17311231791973114,-4.775367259979248,0.017570825411507694,0.0028009414672851562,0.13792705535888672,3.083867065727605,-10.90478125816044,-0.6176253549275625,0.7682459206311358,-0.2922172606134066,0.0172939736248856,-0.022634987143052697,3.0910287400309526,3.0854646206037417,-10.935213697177765,-10.940080955377258,-0.39378857272470436,-0.8153745167371951
18.657238483428955,0.04733729362487793,0.19843317568302155,-4.740879058837891,0.01737729120373642,0.002435445785522461,0.13792705535888672,3.0634092654569764,-10.769842975565297,-0.6259689169222585,0.7687516976673296,-0.17554518096774197,0.018280287190942365,-0.022813760805288442,3.0819298270697097,3.0562822958683995,-10.793950745319083,-10.814227927397836,-0.39378857272470436,-0.8153745167371951
18.666287422180176,0.04733729362487793,0.19843317568302155,-4.740879058837891,0.01737729120373642,0.0050048828125,0.13792705535888672,3.0350340436421015,-10.629735783784923,-0.6059319760953087,0.7680982101082882,-0.19901216984290349,0.01822053210660731,-0.023310618744726376,3.0789223000362727,3.0072445050282144,-10.639142827799462,-10.691254392210041,-0.39378857272470436,-0.8153745167371951
18.680670499801636,0.05131864920258522,0.23526723682880402,-4.689967155456543,0.01704747372997005,0.005000591278076172,0.13792705535888672,2.995137200211232,-10.485576206414404,-0.5672277318521306,0.7691470529142745,-0.014902826333001107,0.01948397352339698,-0.02333780992441896,3.0882526647712627,2.9244096567351003,-10.465332245092808,-10.578496370973287,-0.39378857272470436,-0.8153745167371951
18.69144344329834,0.05131864920258522,0.23526723682880402,-4.689967155456543,0.01704747372997005,0.0032715797424316406,0.13792705535888672,2.94221254370157,-10.338711356863255,-0.5272277318521306,0.7684807266771037,-0.04382230120015995,0.019404391625215605,-0.023650791399376963,3.1280976554391633,2.7852227253525976,-10.258683123903953,-10.492557879914973,-0.39378857272470436,-0.8153745167371951
18.840067148208618,0.08196745067834854,0.4268698990345001,-4.378562927246094,0.013749110080615301,0.002336740493774414,0.13793063163757324,2.8764106461468004,-10.190233192265408,-0.48722773185213053,0.7721886905725451,-0.061606309926473424,0.022668249297397972,-0.02231480276526349,3.2403773955304627,2.547731072832614,-9.987908669571436,-10.466983570430875,-0.39378857272470436,-0.8153745167371951
18.849409818649292,0.08196745067834854,0.4268698990345001,-4.378562927246094,0.013749110080615301,0.002668619155883789,0.13793063163757324,3.0965835939444233,-11.002335469649069,-0.5906707053577354,0.7716338871313879,-0.1409634760757852,0.02219442492966,-0.02427450129350096,3.10489133644104,3.10389133644104,-11.06519766998291,-11.06619766998291,-0.17071545049963444,-0.5276621512852675
18.8572895526886,0.08492989093065262,0.441623330116272,-4.346080780029297,0.013326031396401553,0.0026540756225585938,0.13793063163757324,3.0792657559227106,-10.87156437378623,-0.6227384415723434,0.7720741212755089,-0.12851531836934238,0.02218628057339935,-0.02454236855731563,3.0910287400309526,3.0854646206037417,-10.935213697177765,-10.940080955377258,-0.17071545049963444,-0.5276621512852675
18.865058183670044,0.08492989093065262,0.441623330116272,-4.346080780029297,0.013326031396401553,0.0032501220703125,0.13793063163757324,3.057213873425142,-10.735269858362647,-0.6233662600838289,0.771529641672577,-0.2136342372729645,0.02223865129215727,-0.02460716361262696,3.0819298270697097,3.0562822958683995,-10.793950745319083,-10.814227927397836,-0.17071545049963444,-0.5276621512852675
18.874485731124878,0.0864073783159256,0.44875368475914,-4.329964637756348,0.013113157816491375,0.0032088756561279297,0.13793063163757324,3.0262576924964946,-10.594016811477715,-0.5972277318521306,0.7714756863181086,-0.25415170955389055,0.022059184980418273,-0.024552087963009225,3.0789223000362727,3.0072445050282144,-10.639142827799462,-10.691254392210041,-0.17071545049963444,-0.5276621512852675
18.885087728500366,0.08935398608446121,0.4625215232372284,-4.29805850982666,0.012686161000634605,0.003058195114135742,0.13793063163757324,2.983125613205569,-10.449069833545153,-0.5572277318521306,0.7718839359650191,-0.24960768839942127,0.021653869445173418,-0.024296800534596683,3.0882526647712627,2.9244096567351003,-10.465332245092808,-10.578496370973287,-0.17071545049963444,-0.5276621512852675
18.893715858459473,0.09082262963056564,0.46915847063064575,-4.282224655151367,0.012469963253065,0.003309965133666992,0.13793063163757324,2.9269596427399773,-10.3017015533513,-0.5172277318521306,0.7717992198848552,-0.29510530234051124,0.021410715866575402,-0.023887673436708248,3.1280976554391633,2.7852227253525976,-10.258683123903953,-10.492557879914973,-0.17071545049963444,-0.5276621512852675
18.903584241867065,0.09228791296482086,0.47563016414642334,-4.2664713859558105,0.012254652595549254,0.002920389175415039,0.13793063163757324,2.857979635688905,-10.152984996241772,-0.4772277318521305,0.7717016283523536,-0.34280201479767625,0.021109364647489963,-0.023442559135842745,3.2403773955304627,2.547731072832614,-9.987908669571436,-10.466983570430875,-0.17071545049963444,-0.5276621512852675
18.91516637802124,0.09374642372131348,0.48190563917160034,-4.250800132751465,0.012035525687820195,0.002902984619140625,0.13793063163757324,3.092481516694655,-10.970162391691302,-0.6006707053577354,0.7715978857536775,-0.392290323942764,0.020769710262193125,-0.022904854261093285,3.10489133644104,3.10389133644104,-11.06519766998291,-11.06619766998291,-0.17571705467988963,-0.6887130696313458
18.92373752593994,0.09665177762508392,0.4939602315425873,-4.219736576080322,0.011599759959003711,0.0027234554290771484,0.13793063163757324,3.0743689894573274,-10.837998875347756,-0.6257605016152549,0.7718776406523682,-0.39060136467080053,0.01999279644699644,-0.022438794029408366,3.0910287400309526,3.0854646206037417,-10.935213697177765,-10.940080955377258,-0.17571705467988963,-0.6887130696313458
19.081478357315063,0.09665177762508392,0.4939602315425873,-4.219736576080322,0.011599759959003711,0.0028426647186279297,0.14865827560424805,3.050458150894973,-10.7003830333014,-0.6190945292261935,0.7661406452359275,-1.0,0.02018854611312456,-0.021344601280054876,3.0819298270697097,3.0562822958683995,-10.793950745319083,-10.814227927397836,-0.17571705467988963,-0.6887130696313458
19.091466426849365,0.13179369270801544,0.5622941851615906,-3.8936727046966553,0.006049522877299235,0.0022592544555664062,0.14865827560424805,3.0167052783253743,-10.558066942444942,-0.5872277318521306,0.7733989642640657,0.5417477201989875,0.01815458344640787,-0.00943636749930753,3.0789223000362727,3.0072445050282144,-10.639142827799462,-10.691254392210041,-0.2269639289609664,-0.9991568179726104
19.097461223602295,0.13179369270801544,0.5622941851615906,-3.8936727046966553,0.006049522877299235,0.0026552677154541016,0.14865827560424805,2.970298969709917,-10.41241227567335,-0.5472277318521306,0.7729831804559868,0.4282107865592193,0.013886907115303057,-0.014289554066764971,3.0882526647712627,2.9244096567351003,-10.465332245092808,-10.578496370973287,-0.2269639289609664,-0.9991568179726104
19.105432748794556,0.13390232622623444,0.5623589158058167,-3.8790342807769775,0.0057325811107994395,0.0024726390838623047,0.14865827560424805,2.910905442048551,-10.264607665178975,-0.5072277318521305,0.7728125049463164,0.4152622186324768,0.015417386264729991,-0.014888156733372186,3.1280976554391633,2.7852227253525976,-10.258683123903953,-10.492557879914973,-0.2269639289609664,-0.9991568179726104
19.1163227558136,0.1359909027814865,0.5622666478157043,-3.864466667175293,0.005418573545461602,0.004430055618286133,0.14865827560424805,2.838766487420464,-10.115717479142745,-0.4672277318521305,0.7726406676863481,0.40028201525810214,0.01564074686523944,-0.0160322344285396,3.2403773955304627,2.547731072832614,-9.987908669571436,-10.466983570430875,-0.07512842903090977,-0.6521362338648926
19.129156827926636,0.14212410151958466,0.5610435009002686,-3.821255683898926,0.004464786667971621,0.003261089324951172,0.14865827560424805,3.088246680317347,-10.93764732627751,-0.6103081205518324,0.7728420075075072,0.600703193862087,0.01630669275021053,-0.01653636888951204,3.10489133644104,3.10389133644104,-11.06519766998291,-11.06619766998291,-0.07512842903090977,-0.6521362338648926
19.137104749679565,0.14212410151958466,0.5610435009002686,-3.821255683898926,0.004464786667971621,0.0025739669799804688,0.14865827560424805,3.0691060614690544,-10.804089336358457,-0.626801646181546,0.7724583624043795,0.47441248609927955,0.016377624476363435,-0.016491607532457868,3.0910287400309526,3.0854646206037417,-10.935213697177765,-10.940080955377258,-0.07512842903090977,-0.6521362338648926
19.145196199417114,0.144129678606987,0.5603019595146179,-3.8070056438446045,0.004154717967588206,0.0027692317962646484,0.14865827560424805,3.0430834025322433,-10.66519861000475,-0.6132515119267264,0.7721762712115887,0.4563961705206745,0.01656742456719969,-0.016992066967773667,3.0819298270697097,3.0562822958683995,-10.793950745319083,-10.814227927397836,-0.07512842903090977,-0.6521362338648926
19.153313636779785,0.14611592888832092,0.5593855977058411,-3.792833089828491,0.0038484172950154216,0.0024013519287109375,0.14865827560424805,3.0063311607531813,-10.521914308033045,-0.5772277318521306,0.7718777387151673,0.4323545958077699,0.016877118372374413,-0.017328857554087123,3.0789223000362727,3.0072445050282144,-10.639142827799462,-10.691254392210041,-0.07512842903090977,-0.6521362338648926
19.163405895233154,0.1500309705734253,0.5570192337036133,-3.76471209526062,0.003251641192572846,0.003141164779663086,0.14865827560424805,2.9566601903958807,-10.375620501909458,-0.5372277318521306,0.7717043433838475,0.5901406070442023,0.01732906830154929,-0.017567053976018644,3.0882526647712627,2.9244096567351003,-10.465332245092808,-10.578496370973287,-0.07512842903090977,-0.6521362338648926
19.331518411636353,0.19403725862503052,0.47933804988861084,-3.474118947982788,-0.002483426416945614,0.002947092056274414,0.15653157234191895,2.894054234181539,-10.227446120001149,-0.49722773185213054,0.7718208194234675,1.0,0.01697375695966642,-0.013080839082489547,3.1280976554391633,2.7852227253525976,-10.258683123903953,-10.492557879914973,-0.07512842903090977,-0.6521362338648926
19.34036374092102,0.19403725862503052,0.47933804988861084,-3.474118947982788,-0.002483426416945614,0.0024275779724121094,0.15653157234191895,2.818776808803751,-10.078446414337497,-0.4572277318521305,0.7715541592356719,1.0,0.01526146466855343,-0.006696013595726521,3.2403773955304627,2.547731072832614,-9.987908669571436,-10.466983570430875,0.025353610581143826,-0.7255417159627174
19.34865665435791,0.19865535199642181,0.46544885635375977,-3.4482343196868896,-0.0029724434934758764,0.0026993751525878906,0.15653157234191895,3.083867065727605,-10.90478125816044,-0.6176253549275625,0.7713364417062624,1.0,0.014099769936925941,-0.002702875253598916,3.10489133644104,3.10389133644104,-11.06519766998291,-11.06619766998291,0.025353610581143826,-0.7255417159627174
19.355015516281128,0.19865535199642181,0.46544885635375977,-3.4482343196868896,-0.0029724434934758764,0.002736330032348633,0.15653157234191895,3.0634092654569764,-10.769842975565297,-0.6259689169222585,0.7710758884937928,1.0,0.013457004829786987,-0.0006776227273636401,3.0910287400309526,3.0854646206037417,-10.935213697177765,-10.940080955377258,0.025353610581143826,-0.7255417159627174
19.36342740058899,0.20312801003456116,0.45121997594833374,-3.4226346015930176,-0.003450078756078459,0.003124713897705078,0.15653157234191895,3.0350340436421015,-10.629735783784923,-0.6059319760953087,0.7708606518219467,1.0,0.012998027813602944,0.0009287150602211448,3.0819298270697097,3.0562822958683995,-10.793950745319083,-10.814227927397836,0.025353610581143826,-0.7255417159627174
19.373209238052368,0.20531116425991058,0.4439840018749237,-3.4099414348602295,-0.003682574095090943,0.002459287643432617,0.15653157234191895,2.995137200211232,-10.485576206414404,-0.5672277318521306,0.7706213106857112,1.0,0.012684539895048683,0.002002995137755357,3.0789223000362727,3.0072445050282144,-10.639142827799462,-10.691254392210041,0.025353610581143826,-0.7255417159627174
19.38331913948059,0.2074594348669052,0.4366697669029236,-3.3973617553710938,-0.003911083607103141,0.004502773284912109,0.15653157234191895,2.94221254370157,-10.338711356863255,-0.5272277318521306,0.7703590607109174,1.0,0.012459771904530834,0.0028018127637233292,3.0882526647712627,2.9244096567351003,-10.465332245092808,-10.578496370973287,0.025353610581143826,-0.7255417159627174
19.394789695739746,0.2074594348669052,0.4366697669029236,-3.3973617553710938,-0.003911083607103141,0.0047092437744140625,0.15653157234191895,2.8764106461468004,-10.190233192265408,-0.48722773185213053,0.7701065006898635,1.0,0.012364964815199267,0.0031763227684163684,3.1280976554391633,2.7852227253525976,-10.258683123903953,-10.492557879914973,0.025353610581143826,-0.7255417159627174
19.409621238708496,0.21571357548236847,0.40667054057121277,-3.3477861881256104,-0.004756475878627625,0.004846811294555664,0.15653157234191895,2.798016525984781,-10.041187394663893,-0.4472277318521305,0.7698884132520508,1.0,0.012013187155030271,0.0045474284983582644,3.2403773955304627,2.547731072832614,-9.987908669571436,-10.466983570430875,0.025353610581143826,-0.7255417159627174
19.58520483970642,0.21571357548236847,0.40667054057121277,-3.3477861881256104,-0.004756475878627625,0.003627300262451172,0.1579740047454834,3.0792657559227106,-10.87156437378623,-0.6227384415723434,0.7639128556626443,1.0,0.01213813100451129,0.005050390889331923,3.10489133644104,3.10389133644104,-11.06519766998291,-11.06619766998291,0.01850578473518638,-0.8620356365228667
19.594284534454346,0.25532567501068115,0.20173470675945282,-3.0902156829833984,-0.007900680156850614,0.005455970764160156,0.1579740047454834,3.057213873425142,-10.735269858362647,-0.6233662600838289,0.7642309453202197,0.8414487657279544,0.00833961896260255,0.013560337755950731,3.0910287400309526,3.0854646206037417,-10.935213697177765,-10.940080955377258,0.01850578473518638,-0.8620356365228667
19.604337215423584,0.25532567501068115,0.20173470675945282,-3.0902156829833984,-0.007900680156850614,0.0027875900268554688,0.1579740047454834,3.0262576924964946,-10.594016811477715,-0.5972277318521306,0.7639019102882741,0.8544025343398969,0.010470625220378636,0.01050946011533075,3.0819298270697097,3.0562822958683995,-10.793950745319083,-10.814227927397836,0.01850578473518638,-0.8620356365228667
19.616150617599487,0.25827720761299133,0.1710544228553772,-3.056349992752075,-0.008147486138763007,0.003068208694458008,0.1579740047454834,2.983125613205569,-10.449069833545153,-0.5572277318521306,0.7640105469269564,0.7578755346306494,0.007342870646859833,0.013721676140851478,3.0789223000362727,3.0072445050282144,-10.639142827799462,-10.691254392210041,0.16199803856498235,-1.0276581998809895
19.624802589416504,0.25827720761299133,0.1710544228553772,-3.056349992752075,-0.008147486138763007,0.0028667449951171875,0.1579740047454834,2.9269596427399773,-10.3017015533513,-0.5172277318521306,0.7636722284166969,0.7753086821159182,0.008684010421591015,0.010966720614408211,3.0882526647712627,2.9244096567351003,-10.465332245092808,-10.578496370973287,0.16199803856498235,-1.0276581998809895
19.63416290283203,0.26015281677246094,0.1511119157075882,-3.0342328548431396,-0.00829717920255299,0.002892017364501953,0.1579740047454834,2.857979635688905,-10.152984996241772,-0.4772277318521305,0.763664784349103,0.7073899942633087,0.006471548291304973,0.012803750193348305,3.1280976554391633,2.7852227253525976,-10.258683123903953,-10.492557879914973,0.16199803856498235,-1.0276581998809895
19.64323616027832,0.26015281677246094,0.1511119157075882,-3.0342328548431396,-0.00829717920255299,0.005198001861572266,0.1579740047454834,2.7764918794821547,-10.00395582584203,-0.4372277318521305,0.763319513738794,0.729063280371648,0.007374158264047952,0.010816582475960047,3.2403773955304627,2.547731072832614,-9.987908669571436,-10.466983570430875,0.16199803856498235,-1.0276581998809895
19.65552306175232,0.26015281677246094,0.1511119157075882,-3.0342328548431396,-0.00829717920255299,0.0044460296630859375,0.1579740047454834,3.0743689894573274,-10.837998875347756,-0.6257605016152549,0.7629733273031176,0.7525892302982259,0.0069101438512680574,0.011336698770578711,3.10489133644104,3.10389133644104,-11.06519766998291,-11.06619766998291,0.16199803856498235,-1.0276581998809895
19.808763027191162,0.2755841016769409,-0.044570259749889374,-2.799628734588623,-0.008764991172358627,0.0028269290924072266,0.14044594764709473,3.050458150894973,-10.7003830333014,-0.6190945292261935,0.7643718965726711,-0.24083620848902432,-0.008394511147517426,0.02271136541187021,3.0910287400309526,3.0854646206037417,-10.935213697177765,-10.940080955377258,0.16199803856498235,-1.0276581998809895
19.818612098693848,0.2755841016769409,-0.044570259749889374,-2.799628734588623,-0.008764991172358627,0.002571582794189453,0.14044594764709473,3.0167052783253743,-10.558066942444942,-0.5872277318521306,0.7640114759959525,-0.17748565361971202,-0.001915290619217658,0.011025330794939333,3.0819298270697097,3.0562822958683995,-10.793950745319083,-10.814227927397836,0.30258900596154525,-0.6427402412525142
19.82613778114319,0.27609676122665405,-0.051759328693151474,-2.789494514465332,-0.0087525192744769,0.002669811248779297,0.14044594764709473,2.970298969709917,-10.41241227567335,-0.5472277318521306,0.7639542308290701,-0.18816095857401227,-0.006053442106759433,0.01054875963974818,3.0789223000362727,3.0072445050282144,-10.639142827799462,-10.691254392210041,0.30258900596154525,-0.6427402412525142
19.83449363708496,0.27659791707992554,-0.05874692648649216,-2.7794175148010254,-0.008734252813610302,0.0025713443756103516,0.14044594764709473,2.910905442048551,-10.264607665178975,-0.5072277318521305,0.7638972859236094,-0.19825936302545122,-0.006101189897589116,0.0072172586707377785,3.0882526647712627,2.9244096567351003,-10.465332245092808,-10.578496370973287,0.30258900596154525,-0.6427402412525142
19.843217134475708,0.27724894881248474,-0.06574013084173203,-2.7688283920288086,-0.008712011368845682,0.0028793811798095703,0.14044594764709473,2.838766487420464,-10.115717479142745,-0.4672277318521305,0.763873757535649,-0.20703105261718524,-0.007395319374373594,0.006014709418848973,3.1280976554391633,2.7852227253525976,-10.258683123903953,-10.492557879914973,0.30258900596154525,-0.6427402412525142
