time,x,y,z,yaw,ctrl_comp_time,rollout_comptime,y_ref,z_ref,yaw_ref,throttle,roll_rate,pitch_rate,yaw_rate,save_tube_pyH,save_tube_pyL,save_tube_pzH,save_tube_pzL,wy,wz
15.00727105140686,0.004451963119208813,3.8040242195129395,-12.53210163116455,-0.0013681069867754296,0.1581897735595703,0.11822342872619629,3.8068432382011532,-12.49781766077845,-0.08824565820762438,0.5840471831646914,-1.0,0.02269991195559839,0.017470629842986907,3.819388429200666,3.793425833374719,-12.499768635163512,-12.502945184602583,-0.17426649735812286,0.14478033277875374
15.513808488845825,0.004451963119208813,3.8040242195129395,-12.53210163116455,-0.0013681069867754296,0.15354251861572266,0.09450149536132812,3.8076811257649235,-12.489698245204409,-0.10824565820762437,0.584311343951416,-1.0,0.05683680136514337,0.09044572684411667,3.8271819005057113,3.7873559418211062,-12.491158005655874,-12.496703635020692,-0.17426649735812286,0.14478033277875374
15.69261121749878,0.05110371112823486,3.8343920707702637,-12.543139457702637,-0.0013631315797658383,0.0018248558044433594,0.10007190704345703,3.808452619996626,-12.480202393448769,-0.12824565820762437,0.586894078155716,-1.0,0.19797851660571367,0.32844845058439814,3.8367941829400474,3.7793593052553316,-12.480366278283752,-12.48987693691627,-0.09296039591741989,-5.5834083536623975
15.699054956436157,0.05110371112823486,3.8343920707702637,-12.543139457702637,-0.0013631315797658383,0.0023767948150634766,0.10007190704345703,3.809132310381404,-12.469341237463983,-0.1482456582076244,0.5855488054971051,-1.0,0.37858496162399957,0.5642242252921992,3.848542992670496,3.769068116002846,-12.467048253477355,-12.482835547809158,-0.1016533074334916,-7.13311059591622
15.706607580184937,0.053223393857479095,3.8352713584899902,-12.540393829345703,-0.0013341981007413306,0.0018966197967529297,0.10007190704345703,3.8096941850006605,-12.457122876623632,-0.1682456582076244,0.5841832111494802,-1.0,0.5050094731367997,0.6821121126460996,3.8629139166012227,3.7559453217565952,-12.450708656351782,-12.476093985948632,-0.1016533074334916,-7.13311059591622
15.716341972351074,0.05388264358043671,3.8355724811553955,-12.539527893066406,-0.0013213275384459764,0.0026559829711914062,0.10007190704345703,3.810111803819789,-12.44355233445057,-0.18824565820762443,0.5828110376397004,-1.0,0.5935066311957599,0.7410560563230499,3.880644575985926,3.73920080565231,-12.430626053407034,-12.47038681732474,-0.1016533074334916,-7.13311059591622
15.726268529891968,0.05451621487736702,3.83587646484375,-12.538675308227539,-0.0013073930150919854,0.001995563507080078,0.10007190704345703,3.810358474454138,-12.428631525180952,-0.20824565820762445,0.5814288567001168,-1.0,0.6554546418370318,0.770528028161525,3.9028603059010907,3.7176560559857683,-12.405732385402416,-12.466789046058679,-0.1016533074334916,-7.13311059591622
15.736386060714722,0.055124424397945404,3.8361830711364746,-12.537833213806152,-0.0012744138616085105,0.0021593570709228516,0.10007190704345703,3.8104074298651676,-12.412359230256351,-0.22824565820762446,0.5801124997226538,-1.0,0.6988182492859223,0.7852640140807625,3.931288452227217,3.6895302228308156,-12.374423648294187,-12.46690537650256,-0.1016533074334916,-7.13311059591622
15.74638819694519,0.056265879422426224,3.8368053436279297,-12.536091804504395,-0.0011099524083883895,0.0023279190063476562,0.10007190704345703,3.810232007438705,-12.394731084801782,-0.24824565820762448,0.5794630813239818,-1.0,0.7291727745001457,0.7926320070403812,3.968591839910106,3.652107006689341,-12.33426080524033,-12.47316926419458,-0.1016533074334916,-7.13311059591622
15.756308555603027,0.056799937039613724,3.837120532989502,-12.535181045532227,-0.0009522544730114976,0.002074003219604492,0.10007190704345703,3.8098058288994046,-12.375739574113698,-0.26824565820762447,0.5784892129255492,-1.0,0.750420942150102,0.7963160035201906,4.018871401956663,3.6012323886242212,-12.281503490053833,-12.489309195369913,-0.1016533074334916,-7.13311059591622
15.766301155090332,0.056960202753543854,3.837620735168457,-12.534368515014648,-0.0006929269251088653,0.002582550048828125,0.10007190704345703,3.809102980519833,-12.35537404014909,-0.2882456582076245,0.5777902685417494,-1.0,0.7652946595050714,0.7981580017600953,4.0883749614296745,3.5306062085227805,-12.210417614576702,-12.521041082570049,-0.1016533074334916,-7.13311059591622
15.893359184265137,0.056960202753543854,3.837620735168457,-12.534368515014648,-0.0006929269251088653,0.0019867420196533203,0.11910009384155273,3.8080981930889735,-12.333620697974752,-0.3082456582076245,0.5873628631628168,-1.0,0.7757062616535499,0.7990790008800477,4.186362144743086,3.4309176121119536,-12.111962845121814,-12.57738081115345,-0.1016533074334916,-7.13311059591622
15.902999877929688,0.05590590834617615,3.844317674636841,-12.502419471740723,0.016255298503864708,0.002267122268676758,0.11910009384155273,3.808953657789815,-12.512294280029653,-0.08608199516085745,0.6118494599929968,-0.3988865976431657,0.7829943831574849,0.7995395004400241,3.8214373252614804,3.7954674882111332,-12.514312767959192,-12.517441853250524,-0.08764511394116689,-5.5910158248055355
15.908509969711304,0.05590590834617615,3.844317674636841,-12.502419471740723,0.016255298503864708,0.0017848014831542969,0.11910009384155273,3.8099272907241173,-12.504088816244167,-0.10608199516085744,0.6105504913906241,-0.4649430688642624,0.7880960682102395,0.7997697502200121,3.8293657592339407,3.7895268484879288,-12.505631366819337,-12.511096924254176,-0.08764511394116689,-5.5910158248055355
15.916779518127441,0.05436624214053154,3.845904588699341,-12.49109172821045,0.021181392972679083,0.0042684078216552734,0.11910009384155273,3.810841801285864,-12.494509286854509,-0.12608199516085744,0.6150082984547037,-0.34710375714167774,0.7916672477471677,0.799884875110006,3.839121039538213,3.781665979220939,-12.494773247959921,-12.504166786194816,-0.08764511394116689,-5.5910158248055355
15.926234245300293,0.053751833736896515,3.8463165760040283,-12.486968994140625,0.022906698927751518,0.0018663406372070312,0.11910009384155273,3.811671754764693,-12.483567247532097,-0.14608199516085746,0.6156606612565234,-0.3520408004727136,0.7941670734230174,0.799942437555003,3.851020388540739,3.771517538757483,-12.481392018254281,-12.49702393478689,-0.08764511394116689,-5.5910158248055355
15.936495065689087,0.05307832732796669,3.846666097640991,-12.482661247253418,0.024669460864176505,0.002460956573486328,0.11910009384155273,3.812391094263819,-12.47127122334528,-0.16608199516085748,0.6163063676260252,-0.3576516692082625,0.7959169513961122,0.7999712187775017,3.8655483603520038,3.7585454384622254,-12.464990623578576,-12.490185517208047,-0.08764511394116689,-5.5910158248055355
15.946637630462646,0.05154305696487427,3.847163200378418,-12.473503112792969,0.028297499756411847,0.0044405460357666016,0.11910009384155273,3.8129733138108812,-12.457626664380417,-0.1860819951608575,0.6188476797161767,-0.29325544672033166,0.7971418659772785,0.799985609388751,3.8834409249270494,3.7419611018903156,-12.4448449249277,-12.484389657489425,-0.08764511394116689,-5.5910158248055355
15.958645820617676,0.05154305696487427,3.847163200378418,-12.473503112792969,0.028297499756411847,0.0027887821197509766,0.11910009384155273,3.8133916340071434,-12.442635911192644,-0.2060819951608575,0.6175479219139968,-0.3709619803676787,0.797999306184095,0.7999928046943754,3.905820996279109,3.720588285470628,-12.419882841011434,-12.48071623496304,-0.08764511394116689,-5.5910158248055355
15.970069885253906,0.04973552003502846,3.8473610877990723,-12.463685035705566,0.03207615423216364,0.0021660327911376953,0.11910009384155273,3.813619179666851,-12.426298170182157,-0.22608199516085753,0.6197798174675376,-0.30811980760812263,0.7985995143288666,0.7999964023471877,3.9344125311517564,3.6926493332593617,-12.38849443536484,-12.4807767379588,-0.08764511394116689,-5.5910158248055355
15.978432893753052,0.04973552003502846,3.8473610877990723,-12.463685035705566,0.03207615423216364,0.003908395767211914,0.11910009384155273,3.813629158898288,-12.408609498957404,-0.24608199516085755,0.6184790872156657,-0.39086341814338366,0.7990196600302066,0.7999982011735938,3.9718741091590557,3.6554319536572764,-12.348231811267208,-12.48701432961397,-0.08764511394116689,-5.5910158248055355
15.991013526916504,0.04645325243473053,3.847015380859375,-12.447827339172363,0.03805496684193008,0.0021812915802001953,0.11910009384155273,3.813395043080044,-12.389562801712707,-0.26608199516085757,0.6222282430906113,-0.2740170648395319,0.7993137620211447,0.799999100586797,4.022302225047548,3.6047862863412328,-12.295341180829135,-12.503171759524177,-0.08764511394116689,-5.5910158248055355
15.998585939407349,0.04645325243473053,3.847015380859375,-12.447827339172363,0.03805496684193008,0.002575397491455078,0.11910009384155273,3.812890747190117,-12.369147834614806,-0.2860819951608576,0.6209310921257344,-0.3619369175798499,0.7995196334148013,0.7999995502933985,4.091941896478193,3.534414654922542,-12.224067852758214,-12.53498637674734,-0.31094339123572523,-2.4647837784584614
16.006920337677002,0.04384196177124977,3.8463315963745117,-12.436497688293457,0.04226700908186366,0.0020492076873779297,0.11910009384155273,3.8120908099516546,-12.347351221160693,-0.3060819951608576,0.622973464098067,-0.3267223153967955,0.799663743390361,0.7999997751466992,4.190055503340345,3.4350030882409555,-12.125514518919351,-12.59133186400108,-0.31094339123572523,-2.4647837784584614
16.016784191131592,0.042403604835271835,3.845841407775879,-12.430604934692383,0.04443771419814345,0.0044820308685302734,0.11910009384155273,3.808953657789801,-12.512294280029653,-0.08608199516085745,0.6233570618181001,-0.3587615542913074,0.7984806335229416,0.7999998875733496,3.821437325261469,3.7954674882111212,-12.514312767959192,-12.517441853250524,-0.31094339123572523,-2.4647837784584614
16.143126487731934,0.042403604835271835,3.845841407775879,-12.430604934692383,0.04443771419814345,0.003545522689819336,0.11284422874450684,3.809927290724097,-12.504088816244167,-0.10608199516085744,0.6315868245724955,-1.0,0.7989364434660592,0.7999999437866747,3.8293657592339234,3.7895268484879105,-12.505631366819337,-12.511096924254176,-0.31094339123572523,-2.4647837784584614
16.15458083152771,0.0042661698535084724,3.8246452808380127,-12.311331748962402,0.08780146503641681,0.0030558109283447266,0.11284422874450684,3.8108418012858354,-12.494509286854507,-0.12608199516085744,0.6604433493304147,-0.11793019452280684,0.46708776739804775,0.7999999718933375,3.8391210395381883,3.781665979220913,-12.494773247959921,-12.504166786194816,-0.33599615128612786,-1.4922672454601542
16.16145420074463,0.0006660929648205638,3.822277307510376,-12.30278491973877,0.09074260891263122,0.0023412704467773438,0.11284422874450684,3.8116717547646553,-12.483567247532095,-0.14608199516085746,0.6609421075324856,-0.16390921582747942,0.17227578342468572,0.7999999859466688,3.851020388540705,3.771517538757448,-12.481392018254281,-12.497023934786887,-0.33599615128612786,-1.4922672454601542
16.16780424118042,0.0006660929648205638,3.822277307510376,-12.30278491973877,0.09074260891263122,0.003203868865966797,0.11284422874450684,3.81239109426377,-12.471271223345278,-0.16608199516085748,0.6598116695546771,-0.2834977026053682,-0.002029932914110112,0.6614859157662797,3.8655483603519603,3.7585454384621806,-12.464990623578576,-12.490185517208042,-0.33599615128612786,-1.4922672454601542
16.1762273311615,-0.006944052875041962,3.8171374797821045,-12.285215377807617,0.09675699167595211,0.002418994903564453,0.11284422874450684,3.81297331381082,-12.457626664380415,-0.1860819951608575,0.6624457302165188,-0.27507332237395055,-0.22405871188105672,0.3847121347864023,3.8834409249269948,3.7419611018902583,-12.4448449249277,-12.484389657489418,-0.33599615128612786,-1.4922672454601542
16.186724424362183,-0.01511833630502224,3.811450242996216,-12.266931533813477,0.10293747216098126,0.0033712387084960938,0.11284422874450684,3.8133916340070684,-12.44263591119264,-0.2060819951608575,0.6650950008747196,-0.2650977842638301,-0.3968410983167397,-0.15992035242736077,3.9058209962790422,3.7205882854705568,-12.419882841011434,-12.480716234963028,-0.33599615128612786,-1.4922672454601542
16.19729471206665,-0.019425343722105026,3.808396339416504,-12.257523536682129,0.10609995640379184,0.003350496292114258,0.11284422874450684,3.8136191796667607,-12.426298170182152,-0.22608199516085753,0.6657881564164757,-0.32248706958823514,-0.5177887688217179,-0.47996017621368037,3.9344125311516764,3.6926493332592742,-12.388494435364843,-12.48077673795878,-0.08741178626198018,-0.2537668227693659
16.206279516220093,-0.02388446405529976,3.8052000999450684,-12.247952461242676,0.10940732632258672,0.002675294876098633,0.11284422874450684,3.813629158898181,-12.408609498957397,-0.24608199516085755,0.6663618980533881,-0.3798844952423356,-0.6024521381752025,-0.6399800881068402,3.9718741091589624,3.6554319536571693,-12.348231811267214,-12.487014329613942,-0.08741178626198018,-0.2537668227693659
16.216552019119263,-0.02850719541311264,3.8018507957458496,-12.238232612609863,0.11293314189792937,0.0034360885620117188,0.11284422874450684,3.8133950430799177,-12.389562801712696,-0.26608199516085757,0.6668580845324202,-0.43872745319017903,-0.6617164967226418,-0.71999004405342,4.022302225047441,3.604786286341104,-12.295341180829148,-12.503171759524136,-0.08741178626198018,-0.2537668227693659
16.226327657699585,-0.038265813142061234,3.7946746349334717,-12.218426704406738,0.12076455534171965,0.004293680191040039,0.11284422874450684,3.81289074718997,-12.369147834614793,-0.2860819951608576,0.668778282450175,-0.41981396154098594,-0.7032015477058493,-0.7599950220267101,4.091941896478072,3.5344146549223887,-12.22406785275824,-12.53498637674728,-0.08741178626198018,-0.2537668227693659
16.23636770248413,-0.04341175779700279,3.7908382415771484,-12.208332061767578,0.12500372042563815,0.0027570724487304688,0.11284422874450684,3.812090809951485,-12.347351221160677,-0.3060819951608576,0.6690006344788755,-0.47914458778699054,-0.7322410833940945,-0.7799975110133551,4.190055503340206,3.435003088240777,-12.125514518919381,-12.59133186400101,-0.08741178626198018,-0.2537668227693659
16.24644947052002,-0.04874362051486969,3.7868282794952393,-12.198128700256348,0.1294192109737153,0.003385305404663086,0.11284422874450684,3.8094463038609176,-12.508364145536758,-0.09608199516085744,0.6691425197239065,-0.538777071615042,-0.7525687583758661,-0.7899987555066775,3.821437325261469,3.7954674882111212,-12.514312767959192,-12.517441853250524,-0.08741178626198018,-0.2537668227693659
16.256415843963623,-0.05426376312971115,3.7826406955718994,-12.187823295593262,0.13394937530823098,0.002629518508911133,0.11284422874450684,3.8103935093795513,-12.49947001707737,-0.11608199516085743,0.6692393084565789,-0.5986580710555242,-0.7667981308631063,-0.7949993777533387,3.8293657592339234,3.7895268484879105,-12.505631366819337,-12.511096924254176,-0.08741178626198018,-0.2537668227693659
16.381542205810547,-0.05426376312971115,3.7826406955718994,-12.187823295593262,0.13394937530823098,0.0029044151306152344,0.11708664894104004,3.8112689636490775,-12.489207976520584,-0.13608199516085745,0.6621230017151813,-1.0,-0.7767586916041744,-0.7974996888766693,3.8391210395381883,3.781665979220913,-12.494773247959921,-12.504166786194816,-0.08741178626198018,-0.2537668227693659
16.390681505203247,-0.1800222396850586,3.6736791133880615,-11.99902629852295,0.20159887617717576,0.0024383068084716797,0.11708664894104004,3.812046899407071,-12.477588070393308,-0.15608199516085747,0.6807219496123655,0.8477638414205686,-0.783731084122922,-0.7987498444383349,3.851020388540705,3.771517538757448,-12.481392018254281,-12.497023934786887,-0.7245528247325475,-2.177919836223152
16.396510362625122,-0.1800222396850586,3.6736791133880615,-11.99902629852295,0.20159887617717576,0.002809762954711914,0.11708664894104004,3.812701013408627,-12.464617291208558,-0.17608199516085749,0.6793468038606711,0.697766586541053,-0.7886117588860454,-0.7993749222191675,3.8655483603519603,3.7585454384621806,-12.464990623578576,-12.490185517208042,-0.7245528247325475,-2.177919836223152
16.40640139579773,-0.19950230419635773,3.655911684036255,-11.975600242614746,0.20693006611799442,0.002836465835571289,0.11708664894104004,3.8132046408747997,-12.450299537987231,-0.1960819951608575,0.6805434443697651,0.8287353954586696,-0.7920282312202318,-0.7996874611095838,3.8834409249269948,3.7419611018902583,-12.4448449249277,-12.484389657489418,-0.7245528247325475,-2.177919836223152
16.416603088378906,-0.2093791663646698,3.6467435359954834,-11.963708877563477,0.20940074399481623,0.003501415252685547,0.11708664894104004,3.8135309322054756,-12.434635586661813,-0.21608199516085752,0.6806362113589925,0.8150890849457424,-0.7944197618541623,-0.799843730554792,3.9058209962790422,3.7205882854705568,-12.419882841011434,-12.480716234963028,-0.7245528247325475,-2.177919836223152
16.426297903060913,-0.2293885350227356,3.6278398036956787,-11.93962287902832,0.2139830921595943,0.0025560855865478516,0.11708664894104004,3.8136530314080663,-12.417623070440579,-0.23608199516085754,0.6817769208972952,0.9518316352171148,-0.7960938332979136,-0.7999218652773961,3.9344125311516764,3.6926493332592742,-12.388494435364843,-12.48077673795878,-0.7245528247325475,-2.177919836223152
16.436489820480347,-0.23951254785060883,3.6180903911590576,-11.927406311035156,0.21607363825276005,0.0029993057250976562,0.11708664894104004,3.813544255694273,-12.399256470176644,-0.25608199516085756,0.6817390297298002,0.9376502668126645,-0.7972656833085395,-0.799960932638698,3.9718741091589624,3.6554319536571693,-12.348231811267214,-12.487014329613942,-0.7245528247325475,-2.177919836223152
16.44629168510437,-0.2497122585773468,3.608133554458618,-11.915088653564453,0.21800585164518382,0.002880096435546875,0.11708664894104004,3.8131782757002304,-12.379527114752763,-0.2760819951608576,0.6816921839210209,0.9163278808389554,-0.7980859783159776,-0.799980466319349,4.022302225047441,3.604786286341104,-12.295341180829148,-12.503171759524136,-0.7245528247325475,-2.177919836223152
16.456374883651733,-0.2599838972091675,3.5979654788970947,-11.902671813964844,0.21977135272205645,0.002706289291381836,0.11708664894104004,3.8125292957904913,-12.358423191460199,-0.2960819951608576,0.6816526541616877,0.8850812050045505,-0.7986601848211843,-0.7999902331596745,4.091941896478072,3.5344146549223887,-12.22406785275824,-12.53498637674728,-0.7245528247325475,-2.177919836223152
16.466453790664673,-0.2807278633117676,3.576992988586426,-11.8775634765625,0.22281360711255194,0.003412008285522461,0.11708664894104004,3.811572233913465,-12.335929766318303,-0.3160819951608576,0.6824991131587113,0.9714049522584176,-0.799062129374829,-0.7999951165798372,4.190055503340206,3.435003088240777,-12.125514518919381,-12.59133186400101,-0.7245528247325475,-2.177919836223152
16.476293802261353,-0.2911934554576874,3.566190004348755,-11.864870071411133,0.22410673259906705,0.002565622329711914,0.11708664894104004,3.809927290724097,-12.504088816244167,-0.10608199516085744,0.6825050615221434,0.9097951432631946,-0.7993434905623803,-0.7999975582899186,3.821437325261469,3.7954674882111212,-12.514312767959192,-12.517441853250524,-0.7245528247325475,-2.177919836223152
16.486682891845703,-0.30171462893486023,3.5551679134368896,-11.85207462310791,0.22526610458558197,0.0029752254486083984,0.11708664894104004,3.8108418012858354,-12.494509286854507,-0.12608199516085744,0.6825584817190968,0.8374855018415615,-0.7995404433936663,-0.7999987791449593,3.8293657592339234,3.7895268484879105,-12.505631366819337,-12.511096924254176,-0.7245528247325475,-2.177919836223152
16.608628034591675,-0.30171462893486023,3.5551679134368896,-11.85207462310791,0.22526610458558197,0.0027093887329101562,0.11295843124389648,3.8116717547646553,-12.483567247532095,-0.14608199516085746,0.6887837725954179,-1.0,-0.7996783103755664,-0.7999993895724796,3.8391210395381883,3.781665979220913,-12.494773247959921,-12.504166786194816,-0.7110238109323064,-1.866388335445914
16.616421222686768,-0.48612648248672485,3.344133138656616,-11.642398834228516,0.2264371049604009,0.003434419631958008,0.11295843124389648,3.81239109426377,-12.471271223345278,-0.16608199516085748,0.7014104371941158,0.11982471242774784,-0.7997748172628965,-0.7999996947862399,3.851020388540705,3.771517538757448,-12.481392018254281,-12.497023934786887,-0.7110238109323064,-1.866388335445914
16.62627625465393,-0.5097445249557495,3.314711570739746,-11.614677429199219,0.2241952657583882,0.002305269241333008,0.11295843124389648,3.81297331381082,-12.457626664380415,-0.1860819951608575,0.7021329373907382,0.03887637505914521,-0.7998423720840275,-0.79999984739312,3.8655483603519603,3.7585454384621806,-12.464990623578576,-12.490185517208042,-0.7110238109323064,-1.866388335445914
16.63647770881653,-0.5215480327606201,3.2998151779174805,-11.600675582885742,0.22285853630877503,0.0028116703033447266,0.11295843124389648,3.8133916340070684,-12.44263591119264,-0.2060819951608575,0.7023181033212351,-0.1120448021001067,-0.7998896604588194,-0.79999992369656,3.8834409249269948,3.7419611018902583,-12.4448449249277,-12.484389657489418,-0.7110238109323064,-1.866388335445914
16.64627432823181,-0.5339685082435608,3.2833714485168457,-11.586613655090332,0.22139147330852252,0.0026962757110595703,0.11295843124389648,3.8136191796667607,-12.426298170182152,-0.22608199516085753,0.702497319100032,-0.2610151521109325,-0.7999227623211737,-0.79999996184828,3.9058209962790422,3.7205882854705568,-12.419882841011434,-12.480716234963028,-0.7110238109323064,-1.866388335445914
16.656392812728882,-0.5463703870773315,3.266836643218994,-11.57246208190918,0.21990017150558372,0.002658367156982422,0.11295843124389648,3.813629158898181,-12.408609498957397,-0.24608199516085755,0.7026227583621348,-0.41345276907004025,-0.7999459336248216,-0.79999998092414,3.9344125311516764,3.6926493332592742,-12.388494435364843,-12.48077673795878,-0.7110238109323064,-1.866388335445914
16.666574716567993,-0.5711106657981873,3.233501434326172,-11.543964385986328,0.2165604653012524,0.003426074981689453,0.11295843124389648,3.8133950430799177,-12.389562801712696,-0.26608199516085757,0.7032751573064798,-0.4977629860653279,-0.7999621535373752,-0.79999999046207,3.9718741091589624,3.6554319536571693,-12.348231811267214,-12.487014329613942,-0.7110238109323064,-1.866388335445914
16.67631697654724,-0.5834442973136902,3.216705799102783,-11.529632568359375,0.21472107422396783,0.0025415420532226562,0.11295843124389648,3.81289074718997,-12.369147834614793,-0.2860819951608576,0.7032377154870825,-0.6470592479481447,-0.7999735074761626,-0.799999995231035,4.022302225047441,3.604786286341104,-12.295341180829148,-12.503171759524136,-0.7110238109323064,-1.866388335445914
16.686787366867065,-0.5957501530647278,3.199828624725342,-11.515242576599121,0.21277776946129115,0.002945423126220703,0.11295843124389648,3.812090809951485,-12.347351221160677,-0.3060819951608576,0.7032129839151054,-0.7953542353973526,-0.7999814552333138,-0.7999999976155175,4.091941896478072,3.5344146549223887,-12.22406785275824,-12.53498637674728,-0.7110238109323064,-1.866388335445914
16.696271181106567,-0.6080252528190613,3.182873010635376,-11.500792503356934,0.21073312564296157,0.0030112266540527344,0.11295843124389648,3.810970573267028,-12.324156477437949,-0.3260819951608576,0.7031847276958421,-0.9424404152477348,-0.7999870186633197,-0.7999999988077588,4.190055503340206,3.435003088240777,-12.125514518919381,-12.59133186400101,-0.2164347077431576,-1.5003316546601904
16.70655393600464,-0.6324620246887207,3.1487443447113037,-11.471723556518555,0.20632838755735805,0.0027840137481689453,0.11295843124389648,3.8103935093795513,-12.49947001707737,-0.11608199516085743,0.7037117165803546,-0.9962178884624802,-0.7999909130643238,-0.7999999994038794,3.821437325261469,3.7954674882111212,-12.514312767959192,-12.517441853250524,-0.2164347077431576,-1.5003316546601904
16.71632480621338,-0.6446231007575989,3.1315701007843018,-11.457130432128906,0.20397995814690553,0.0033342838287353516,0.11295843124389648,3.8112689636490775,-12.489207976520584,-0.13608199516085745,0.7036585298108068,-1.0,-0.7999936391450267,-0.7999999997019397,3.8293657592339234,3.7895268484879105,-12.505631366819337,-12.511096924254176,-0.2164347077431576,-1.5003316546601904
16.83750081062317,-0.8244750499725342,2.8573524951934814,-11.233197212219238,0.16293600520900464,0.0026955604553222656,0.1112055778503418,3.812046899407071,-12.477588070393308,-0.15608199516085747,0.6912681330338576,1.0,-0.7999955474015188,-0.7352465853381659,3.8391210395381883,3.781665979220913,-12.494773247959921,-12.504166786194816,-0.2164347077431576,-1.5003316546601904
16.846225261688232,-0.8244750499725342,2.8573524951934814,-11.233197212219238,0.16293600520900464,0.0027294158935546875,0.1112055778503418,3.812701013408627,-12.464617291208558,-0.17608199516085749,0.690732137834303,1.0,-0.7999968831810632,-0.2882237215784179,3.851020388540705,3.771517538757448,-12.481392018254281,-12.497023934786887,-0.08084358226315397,-1.8300410823366653
16.85649275779724,-0.8472882509231567,2.8189239501953125,-11.202448844909668,0.1571439609779212,0.0025894641876220703,0.1112055778503418,3.8132046408747997,-12.450299537987231,-0.1960819951608575,0.6906918671542301,1.0,-0.7999978182267443,-0.3326352131991511,3.8655483603519603,3.7585454384621806,-12.464990623578576,-12.490185517208042,-0.08084358226315397,-1.8300410823366653
16.866431713104248,-0.8472882509231567,2.8189239501953125,-11.202448844909668,0.1571439609779212,0.0027396678924560547,0.1112055778503418,3.8135309322054756,-12.434635586661813,-0.21608199516085752,0.6899557279877083,1.0,-0.799998472758721,-0.33341050765413266,3.8834409249269948,3.7419611018902583,-12.4448449249277,-12.484389657489418,-0.08084358226315397,-1.8300410823366653
16.876400232315063,-0.8806437849998474,2.760500431060791,-11.155860900878906,0.14851698334027963,0.002683401107788086,0.1112055778503418,3.8136530314080663,-12.417623070440579,-0.23608199516085754,0.6901847460694682,1.0,-0.7999989309311047,-0.31968338908599236,3.9058209962790422,3.7205882854705568,-12.419882841011434,-12.480716234963028,-0.08084358226315397,-1.8300410823366653
16.886784315109253,-0.8806437849998474,2.760500431060791,-11.155860900878906,0.14851698334027963,0.0030565261840820312,0.1112055778503418,3.813544255694273,-12.399256470176644,-0.25608199516085756,0.689476690635123,1.0,-0.7999992516517733,-0.3180367086478292,3.9344125311516764,3.6926493332592742,-12.388494435364843,-12.48077673795878,-0.08084358226315397,-1.8300410823366653
16.89623713493347,-0.9027047157287598,2.7209229469299316,-11.125129699707031,0.14321150021511944,0.0030329227447509766,0.1112055778503418,3.8131782757002304,-12.379527114752763,-0.2760819951608576,0.6892647066271564,1.0,-0.7999994761562413,-0.30597889039912723,3.9718741091589624,3.6554319536571693,-12.348231811267214,-12.487014329613942,-0.16612022288342268,-2.158772986673507
16.90653920173645,-0.9027047157287598,2.7209229469299316,-11.125129699707031,0.14321150021511944,0.0029468536376953125,0.1112055778503418,3.8125292957904913,-12.358423191460199,-0.2960819951608576,0.6885848670153427,1.0,-0.799999633309369,-0.30383113753991886,4.022302225047441,3.604786286341104,-12.295341180829148,-12.503171759524136,-0.16612022288342268,-2.158772986673507
16.916354179382324,-0.9354351162910461,2.660555362701416,-11.0794038772583,0.13550755330276137,0.0033159255981445312,0.1112055778503418,3.811572233913465,-12.335929766318303,-0.3160819951608576,0.6891409319313102,1.0,-0.7999997433165583,-0.2883521856918458,4.091941896478072,3.5344146549223887,-12.22406785275824,-12.53498637674728,-0.16612022288342268,-2.158772986673507
16.926352739334106,-0.9354351162910461,2.660555362701416,-11.0794038772583,0.13550755330276137,0.002841949462890625,0.1112055778503418,3.8102829004849417,-12.312028814250981,-0.3360819951608576,0.688459179544796,1.0,-0.7999998203215909,-0.2840054026429358,4.190055503340206,3.435003088240777,-12.125514518919381,-12.59133186400101,-0.16612022288342268,-2.158772986673507
16.93654441833496,-0.9565308690071106,2.6196939945220947,-11.048479080200195,0.13045196168631595,0.0031397342681884766,0.1112055778503418,3.8108418012858354,-12.494509286854507,-0.12608199516085744,0.6889726265509607,1.0,-0.7999998742251136,-0.27773713030793146,3.821437325261469,3.7954674882111212,-12.514312767959192,-12.517441853250524,-0.16612022288342268,-2.158772986673507
16.94641399383545,-0.9565308690071106,2.6196939945220947,-11.048479080200195,0.13045196168631595,0.0030307769775390625,0.1112055778503418,3.8116717547646553,-12.483567247532095,-0.14608199516085746,0.6882956653859164,1.0,-0.7999999119575796,-0.2754999697158339,3.8293657592339234,3.7895268484879105,-12.505631366819337,-12.511096924254176,-0.16612022288342268,-2.158772986673507
16.95663857460022,-0.9870354533195496,2.557521104812622,-11.001344680786133,0.12273175242019606,0.0030031204223632812,0.1112055778503418,3.81239109426377,-12.471271223345278,-0.16608199516085748,0.6898102928166464,1.0,-0.7767931058522446,-0.27867266958196896,3.8391210395381883,3.781665979220913,-12.494773247959921,-12.504166786194816,-0.16612022288342268,-2.158772986673507
17.08574080467224,-0.9870354533195496,2.557521104812622,-11.001344680786133,0.12273175242019606,0.0029447078704833984,0.12032699584960938,3.81297331381082,-12.457626664380415,-0.1860819951608575,0.7004128472783299,1.0,-0.7726771126173321,-0.27024949664293074,3.851020388540705,3.771517538757448,-12.481392018254281,-12.497023934786887,-0.16612022288342268,-2.158772986673507
17.094441175460815,-1.1256182193756104,2.2112724781036377,-10.730416297912598,0.07860293033381056,0.0019254684448242188,0.12032699584960938,3.8133916340070684,-12.44263591119264,-0.2060819951608575,0.7127978485431886,1.0,-0.23945318591462414,-0.5351247483214654,3.8655483603519603,3.7585454384621806,-12.464990623578576,-12.490185517208042,0.011492632393097002,-1.3382449573330206
17.100237607955933,-1.1256182193756104,2.2112724781036377,-10.730416297912598,0.07860293033381056,0.002512216567993164,0.12032699584960938,3.8136191796667607,-12.426298170182152,-0.22608199516085753,0.7121782395941187,1.0,-0.10647437303043213,-0.3518532096291161,3.8834409249269948,3.7419611018902583,-12.4448449249277,-12.484389657489418,0.011492632393097002,-1.3382449573330206
17.106894731521606,-1.1256182193756104,2.2112724781036377,-10.730416297912598,0.07860293033381056,0.0023059844970703125,0.12032699584960938,3.813629158898181,-12.408609498957397,-0.24608199516085755,0.7115589227419584,1.0,-0.06096909386503937,-0.222582070863594,3.9058209962790422,3.7205882854705568,-12.419882841011434,-12.480716234963028,0.011492632393097002,-1.3382449573330206
17.11638307571411,-1.1462880373001099,2.1445765495300293,-10.67635726928711,0.0694078297326071,0.0025284290313720703,0.12032699584960938,3.8133950430799177,-12.389562801712696,-0.26608199516085757,0.7138336690533595,1.0,0.05631198525745366,-0.19631891296538886,3.9344125311516764,3.6926493332592742,-12.388494435364843,-12.48077673795878,0.011492632393097002,-1.3382449573330206
17.12630844116211,-1.1527292728424072,2.122293472290039,-10.658185005187988,0.06626062219380885,0.002099752426147461,0.12032699584960938,3.81289074718997,-12.369147834614793,-0.2860819951608576,0.7142079035650858,1.0,0.12849986799953644,-0.15346916656171447,3.9718741091589624,3.6554319536571693,-12.348231811267214,-12.487014329613942,0.011492632393097002,-1.3382449573330206
17.136481523513794,-1.1589505672454834,2.099992275238037,-10.639922142028809,0.06307879723929571,0.0023343563079833984,0.12032699584960938,3.812090809951485,-12.347351221160677,-0.3060819951608576,0.714561840013591,1.0,0.1872418604729336,-0.12240865169623175,4.022302225047441,3.604786286341104,-12.295341180829148,-12.503171759524136,0.011492632393097002,-1.3382449573330206
17.146294116973877,-1.164946436882019,2.0776779651641846,-10.621577262878418,0.05982797442143278,0.002269268035888672,0.12032699584960938,3.810970573267028,-12.324156477437949,-0.3260819951608576,0.714847411521894,1.0,0.24110522368751808,-0.10113036573581852,4.091941896478072,3.5344146549223887,-12.22406785275824,-12.53498637674728,0.011492632393097002,-1.3382449573330206
17.15640902519226,-1.1744261980056763,2.03166127204895,-10.584319114685059,0.05330609857602228,0.0021317005157470703,0.12032699584960938,3.8095063604231867,-12.299544047189068,-0.34608199516085764,0.7158353468080406,1.0,0.323335807049114,-0.0984754534845359,4.190055503340206,3.435003088240777,-12.125514518919381,-12.59133186400101,0.011492632393097002,-1.3382449573330206
17.166351556777954,-1.1788182258605957,2.008669137954712,-10.565603256225586,0.05005914467923702,0.0029516220092773438,0.12032699584960938,3.8112689636490775,-12.489207976520584,-0.13608199516085745,0.7160232677058108,1.0,0.37671223289797257,-0.07486826847622935,3.821437325261469,3.7954674882111212,-12.514312767959192,-12.517441853250524,0.011492632393097002,-1.3382449573330206
17.17634415626526,-1.1829748153686523,1.9856946468353271,-10.546858787536621,0.0467785842913531,0.0023033618927001953,0.12032699584960938,3.812046899407071,-12.477588070393308,-0.15608199516085747,0.7162201790452194,1.0,0.4183836819121249,-0.05286371340856283,3.8293657592339234,3.7895268484879105,-12.505631366819337,-12.511096924254176,0.011492632393097002,-1.3382449573330206
17.18662190437317,-1.1868948936462402,1.9627422094345093,-10.528058052062988,0.04349829012700148,0.002424001693725586,0.12032699584960938,3.812701013408627,-12.464617291208558,-0.17608199516085749,0.7164243293302234,1.0,0.45334091380769803,-0.03465884197315877,3.8391210395381883,3.781665979220913,-12.494773247959921,-12.504166786194816,0.011492632393097002,-1.3382449573330206
17.29553461074829,-1.1868948936462402,1.9627422094345093,-10.528058052062988,0.04349829012700148,0.0019342899322509766,0.10019659996032715,3.8132046408747997,-12.450299537987231,-0.1960819951608575,0.7120785660931717,1.0,0.46277795767231467,-0.011823753461062457,3.851020388540705,3.771517538757448,-12.481392018254281,-12.497023934786887,0.2527509415257557,-1.3012781612058058
17.30245542526245,-1.213889718055725,1.6452349424362183,-10.257229804992676,0.007151044303315375,0.0025670528411865234,0.10019659996032715,3.8135309322054756,-12.434635586661813,-0.21608199516085752,0.7239745165994167,0.8612457056845241,0.5639445703706203,-0.046446214707915656,3.8655483603519603,3.7585454384621806,-12.464990623578576,-12.490185517208042,0.2527509415257557,-1.3012781612058058
17.308553457260132,-1.213889718055725,1.6452349424362183,-10.257229804992676,0.007151044303315375,0.0018537044525146484,0.10019659996032715,3.8136530314080663,-12.417623070440579,-0.23608199516085754,0.7233879123252553,0.8157098272443546,0.6204504206481889,0.012722491696598115,3.8834409249269948,3.7419611018902583,-12.4448449249277,-12.484389657489418,0.2527509415257557,-1.3012781612058058
17.316335678100586,-1.2115942239761353,1.5783605575561523,-10.196364402770996,0.0030924114608143205,0.0022325515747070312,0.10019659996032715,3.813544255694273,-12.399256470176644,-0.25608199516085756,0.725829395068379,0.7015463961293004,0.6522280867382817,0.06776725277675333,3.9058209962790422,3.7205882854705568,-12.419882841011434,-12.480716234963028,0.2527509415257557,-1.3012781612058058
17.326351642608643,-1.2104380130767822,1.5563020706176758,-10.176034927368164,0.0019401945136392207,0.002022266387939453,0.10019659996032715,3.8131782757002304,-12.379527114752763,-0.2760819951608576,0.7262820319021437,0.6291285414684917,0.6710472588535722,0.09670347844082411,3.9344125311516764,3.6926493332592742,-12.388494435364843,-12.48077673795878,0.2527509415257557,-1.3012781612058058
17.336565017700195,-1.2091052532196045,1.5343657732009888,-10.15566349029541,0.0008873784763775983,0.0024237632751464844,0.10019659996032715,3.8125292957904913,-12.358423191460199,-0.2960819951608576,0.7267517184516186,0.5547887609562365,0.6824262285197614,0.11521726379421199,3.9718741091589624,3.6554319536571693,-12.348231811267214,-12.487014329613942,0.2527509415257557,-1.3012781612058058
17.346278429031372,-1.207584261894226,1.5125598907470703,-10.135252952575684,-6.169950413560665e-05,0.002405405044555664,0.10019659996032715,3.811572233913465,-12.335929766318303,-0.3160819951608576,0.7272158854234141,0.4785563663143678,0.6900698778739406,0.1268365532696737,4.022302225047441,3.604786286341104,-12.295341180829148,-12.503171759524136,0.2527509415257557,-1.3012781612058058
17.356610774993896,-1.2039836645126343,1.4693626165390015,-10.09432315826416,-0.0015678819281866874,0.0040378570556640625,0.10019659996032715,3.8102829004849417,-12.312028814250981,-0.3360819951608576,0.7286838918715082,0.3659066399983789,0.6958710480014608,0.13983238533527492,4.091941896478072,3.5344146549223887,-12.22406785275824,-12.53498637674728,0.2527509415257557,-1.3012781612058058
17.367247581481934,-1.2019083499908447,1.4479823112487793,-10.073808670043945,-0.002080446653757534,0.0026772022247314453,0.10019659996032715,3.8086381757871126,-12.28669925900685,-0.35608199516085765,0.7291267704276351,0.2867633642554014,0.6988599255110254,0.14498002421414283,4.190055503340206,3.435003088240777,-12.125514518919381,-12.59133186400101,0.2527509415257557,-1.3012781612058058
17.376312255859375,-1.199652910232544,1.4267553091049194,-10.053298950195312,-0.002415321179053964,0.0022056102752685547,0.10019659996032715,3.8116717547646553,-12.483567247532095,-0.14608199516085746,0.7295673031980074,0.20775739248578518,0.6987810964575598,0.14884645629151852,3.821437325261469,3.7954674882111212,-12.514312767959192,-12.517441853250524,0.2527509415257557,-1.3012781612058058
17.38701057434082,-1.1972204446792603,1.405686378479004,-10.032759666442871,-0.0025731606890590786,0.0025360584259033203,0.10019659996032715,3.81239109426377,-12.471271223345278,-0.16608199516085748,0.7300123389350205,0.1291004737542526,0.6964019020339616,0.15078746877214608,3.8293657592339234,3.7895268484879105,-12.505631366819337,-12.511096924254176,0.2527509415257557,-1.3012781612058058
17.396257162094116,-1.1905211210250854,1.3643245697021484,-9.991893768310547,-0.002422575143093894,0.0024247169494628906,0.10019659996032715,3.81297331381082,-12.457626664380415,-0.1860819951608575,0.7314680114481442,0.014589067516363019,0.6892736774004717,0.1576966143676934,3.8391210395381883,3.781665979220913,-12.494773247959921,-12.504166786194816,0.3780136411554798,-1.0693648886264542
17.406443119049072,-1.186265230178833,1.3440219163894653,-9.97156047821045,-0.001788580034200446,0.0023527145385742188,0.10019659996032715,3.8133916340070684,-12.44263591119264,-0.2060819951608575,0.7319199805261086,-0.06378985367039192,0.6839672624768469,0.15287121551146207,3.851020388540705,3.771517538757448,-12.481392018254281,-12.497023934786887,0.3780136411554798,-1.0693648886264542
17.416563034057617,-1.1818599700927734,1.323891282081604,-9.951191902160645,-0.0010186898959588242,0.003098011016845703,0.10019659996032715,3.8136191796667607,-12.426298170182152,-0.22608199516085753,0.7323782453428124,-0.14071536092071035,0.6774500490496416,0.14755391483440541,3.8655483603519603,3.7585454384621806,-12.464990623578576,-12.490185517208042,0.3780136411554798,-1.0693648886264542
17.531369924545288,-1.1049305200576782,1.0624728202819824,-9.663490295410156,0.018500457032146173,0.003337383270263672,0.10467791557312012,3.813629158898181,-12.408609498957397,-0.24608199516085755,0.7377792777187286,-0.686816672191314,0.5709554810851516,0.20821056420289707,3.8834409249269948,3.7419611018902583,-12.4448449249277,-12.484389657489418,0.3780136411554798,-1.0693648886264542
17.539783477783203,-1.1049305200576782,1.0624728202819824,-9.663490295410156,0.018500457032146173,0.0018820762634277344,0.10467791557312012,3.8133950430799177,-12.389562801712696,-0.26608199516085757,0.737256900498401,-0.7245184240882109,0.5341753815378802,0.120566537370882,3.9058209962790422,3.7205882854705568,-12.419882841011434,-12.480716234963028,0.3699042830054672,-0.8539199495407289
17.546220541000366,-1.088979959487915,1.0294127464294434,-9.622251510620117,0.022719403091641138,0.0017576217651367188,0.10467791557312012,3.81289074718997,-12.369147834614793,-0.2860819951608576,0.7387883739268675,-0.7835415905942186,0.4968788588239597,0.06945081527155923,3.9344125311516764,3.6926493332592742,-12.388494435364843,-12.48077673795878,0.3699042830054672,-0.8539199495407289
17.556458473205566,-1.0727988481521606,0.9971058964729309,-9.58089542388916,0.027035769851163224,0.002328157424926758,0.10467791557312012,3.812090809951485,-12.347351221160677,-0.3060819951608576,0.74031191537534,-0.8396110291532826,0.4609693495852193,0.03281820578904359,3.9718741091589624,3.6554319536571693,-12.348231811267214,-12.487014329613942,0.3699042830054672,-0.8539199495407289
17.566282987594604,-1.0646376609802246,0.981238067150116,-9.56017780303955,0.02921955482302821,0.0026144981384277344,0.10467791557312012,3.810970573267028,-12.324156477437949,-0.3260819951608576,0.7407924708031352,-0.8854022359959852,0.43589010684246976,0.005825389287600046,4.022302225047441,3.604786286341104,-12.295341180829148,-12.503171759524136,0.3699042830054672,-0.8539199495407289
17.576448917388916,-1.056433916091919,0.9655613303184509,-9.539471626281738,0.03140597178785187,0.0021944046020507812,0.10467791557312012,3.8095063604231867,-12.299544047189068,-0.34608199516085764,0.7412238445727614,-0.9298188855965154,0.41525740632093283,-0.01417132737536519,4.091941896478072,3.5344146549223887,-12.22406785275824,-12.53498637674728,0.3699042830054672,-0.8539199495407289
17.58671808242798,-1.048190951347351,0.9500764012336731,-9.518746376037598,0.033562936652070705,0.0025184154510498047,0.10467791557312012,3.8076756525589426,-12.273491346552097,-0.36608199516085765,0.741624454904278,-0.9711328473437685,0.39681846689082934,-0.03026300449406122,4.190055503340206,3.435003088240777,-12.125514518919381,-12.59133186400101,0.3699042830054672,-0.8539199495407289
17.596266269683838,-1.0316014289855957,0.9196805953979492,-9.477253913879395,0.03768057912367939,0.002566099166870117,0.10467791557312012,3.812046899407071,-12.477588070393308,-0.15608199516085747,0.7429160898118538,-1.0,0.37066839703773247,-0.047569631605204124,3.821437325261469,3.7954674882111212,-12.514312767959192,-12.517441853250524,0.38247954041657156,-0.8640253335004463
17.606466054916382,-1.023261547088623,0.9047672152519226,-9.456488609313965,0.03960909194792098,0.0023474693298339844,0.10467791557312012,3.812701013408627,-12.464617291208558,-0.17608199516085749,0.7432614378329913,-1.0,0.3529936850054989,-0.05952206939004735,3.8293657592339234,3.7895268484879105,-12.505631366819337,-12.511096924254176,0.38247954041657156,-0.8640253335004463
17.616329431533813,-1.014908790588379,0.8900321125984192,-9.435712814331055,0.0414444711188517,0.002513885498046875,0.10467791557312012,3.8132046408747997,-12.450299537987231,-0.1960819951608575,0.743586813181373,-1.0,0.3392000222062609,-0.06701342766874528,3.8391210395381883,3.781665979220913,-12.494773247959921,-12.504166786194816,0.38247954041657156,-0.8640253335004463
17.626392602920532,-1.0065326690673828,0.8754816651344299,-9.414929389953613,0.0431969653224622,0.002205371856689453,0.10467791557312012,3.8135309322054756,-12.434635586661813,-0.21608199516085752,0.7438963383801774,-1.0,0.32731737570533953,-0.07285230834921302,3.851020388540705,3.771517538757448,-12.481392018254281,-12.497023934786887,0.38247954041657156,-0.8640253335004463
17.63671636581421,-0.9897213578224182,0.8469222784042358,-9.373422622680664,0.04645392544158747,0.002465486526489258,0.10467791557312012,3.8136530314080663,-12.417623070440579,-0.23608199516085754,0.7450253656984996,-1.0,0.3095624473461535,-0.08277365979760506,3.8655483603519603,3.7585454384621806,-12.464990623578576,-12.490185517208042,0.38247954041657156,-0.8640253335004463
17.646333932876587,-0.9812912344932556,0.8329057693481445,-9.3526611328125,0.04795576722653762,0.002230405807495117,0.10467791557312012,3.813544255694273,-12.399256470176644,-0.25608199516085756,0.7452827728604983,-1.0,0.29780671800738223,-0.08870050141837064,3.8834409249269948,3.7419611018902583,-12.4448449249277,-12.484389657489418,0.38247954041657156,-0.8640253335004463
17.75531792640686,-0.9812912344932556,0.8329057693481445,-9.3526611328125,0.04795576722653762,0.0020666122436523438,0.1014089584350586,3.8131782757002304,-12.379527114752763,-0.2760819951608576,0.7326432025049503,-1.0,0.29399184579845716,-0.08926647441218988,3.9058209962790422,3.7205882854705568,-12.419882841011434,-12.480716234963028,0.38247954041657156,-0.8640253335004463
17.76234459877014,-0.8516635298728943,0.6620082855224609,-9.064274787902832,0.06383422404913006,0.0016932487487792969,0.1014089584350586,3.8125292957904913,-12.358423191460199,-0.2960819951608576,0.7420815116295134,-0.35405576881516565,0.23352534686458523,-0.16483840338232414,3.9344125311516764,3.6926493332592742,-12.388494435364843,-12.48077673795878,0.4935084585999444,-1.3069536684753824
17.768115043640137,-0.8516635298728943,0.6620082855224609,-9.064274787902832,0.06383422404913006,0.002644062042236328,0.1014089584350586,3.811572233913465,-12.335929766318303,-0.3160819951608576,0.7414778642845892,-0.43553552780662164,0.22859666510631255,-0.13761906726549886,3.9718741091589624,3.6554319536571693,-12.348231811267214,-12.487014329613942,0.4935084585999444,-1.3069536684753824
17.77630352973938,-0.8329970836639404,0.640510082244873,-9.023364067077637,0.06502457789877174,0.002152681350708008,0.1014089584350586,3.8102829004849417,-12.312028814250981,-0.3360819951608576,0.7420801498110707,-0.37877544185179546,0.22244100555582866,-0.13475107272304454,4.022302225047441,3.604786286341104,-12.295341180829148,-12.503171759524136,0.4935084585999444,-1.3069536684753824
17.786702394485474,-0.8235082030296326,0.6304232478141785,-9.002967834472656,0.06576977930083021,0.002416372299194336,0.1014089584350586,3.8086381757871126,-12.28669925900685,-0.35608199516085765,0.7420698070463803,-0.3585945381849356,0.21836420098122422,-0.13333311617126228,4.091941896478072,3.5344146549223887,-12.22406785275824,-12.53498637674728,0.4935084585999444,-1.3069536684753824
17.796217679977417,-0.8046169281005859,0.6104175448417664,-8.962218284606934,0.0670948392603953,0.0021827220916748047,0.1014089584350586,3.806616185382912,-12.259917022681895,-0.37608199516085766,0.7426073356564896,-0.24485546944203662,0.21177199044256204,-0.13818167980513624,4.190055503340206,3.435003088240777,-12.125514518919381,-12.59133186400101,0.3521320623012043,-1.0813789521283417
17.80638885498047,-0.7952162027359009,0.6004875302314758,-8.941868782043457,0.06766734134013969,0.002122163772583008,0.1014089584350586,3.81239109426377,-12.471271223345278,-0.16608199516085748,0.7425191300126203,-0.20284700937037137,0.20763008145739664,-0.13786005641663068,3.821437325261469,3.7954674882111212,-12.514312767959192,-12.517441853250524,0.3521320623012043,-1.0813789521283417
17.816405057907104,-0.7858466506004333,0.5905984044075012,-8.921538352966309,0.06817818350695427,0.0023283958435058594,0.1014089584350586,3.81297331381082,-12.457626664380415,-0.1860819951608575,0.7424175406564565,-0.16128903198930433,0.20393624549849704,-0.13847442062094942,3.8293657592339234,3.7895268484879105,-12.505631366819337,-12.511096924254176,0.3521320623012043,-1.0813789521283417
17.82630467414856,-0.7765092253684998,0.5807442665100098,-8.901226997375488,0.06862185573664811,0.002044200897216797,0.1014089584350586,3.8133916340070684,-12.44263591119264,-0.2060819951608575,0.7423136622116845,-0.12097136880011683,0.2005410529387768,-0.13944804587651824,3.8391210395381883,3.781665979220913,-12.494773247959921,-12.504166786194816,0.3521320623012043,-1.0813789521283417
17.83653235435486,-0.7579444050788879,0.5611329078674316,-8.860739707946777,0.06933423244644296,0.002327442169189453,0.1014089584350586,3.8136191796667607,-12.426298170182152,-0.22608199516085753,0.7427270777540804,-0.012149660306527976,0.19517201320283853,-0.14308727405406832,3.851020388540705,3.771517538757448,-12.481392018254281,-12.497023934786887,0.3521320623012043,-1.0813789521283417
17.846312999725342,-0.7487139701843262,0.5513607263565063,-8.840518951416016,0.06960872978823712,0.0027933120727539062,0.1014089584350586,3.813629158898181,-12.408609498957397,-0.24608199516085755,0.7426176035082226,0.022493825562673875,0.19202540226996967,-0.14181941776184728,3.8655483603519603,3.7585454384621806,-12.464990623578576,-12.490185517208042,0.3521320623012043,-1.0813789521283417
17.856441259384155,-0.7395191788673401,0.5416053533554077,-8.820314407348633,0.06982817366796992,0.0022780895233154297,0.1014089584350586,3.8133950430799177,-12.389562801712696,-0.26608199516085757,0.7425030120606051,0.05508556693712119,0.18937727403104213,-0.1414864557571179,3.8834409249269948,3.7419611018902583,-12.4448449249277,-12.484389657489418,0.3521320623012043,-1.0813789521283417
17.866480350494385,-0.7303606867790222,0.5318632125854492,-8.800125122070312,0.06999656984612403,0.003675699234008789,0.1014089584350586,3.81289074718997,-12.369147834614793,-0.2860819951608576,0.742383780053759,0.08575469177171169,0.1870010476827454,-0.1415914742636432,3.9058209962790422,3.7205882854705568,-12.419882841011434,-12.480716234963028,0.3521320623012043,-1.0813789521283417
17.972925186157227,-0.6141213178634644,0.4079473316669464,-8.543092727661133,0.0692749349098933,0.0028498172760009766,0.0954890251159668,3.812090809951485,-12.347351221160677,-0.3060819951608576,0.7427332971075186,0.5501082896203832,0.16521810960882324,-0.15321116009424873,3.9344125311516764,3.6926493332592742,-12.388494435364843,-12.48077673795878,0.3521320623012043,-1.0813789521283417
17.982478141784668,-0.6141213178634644,0.4079473316669464,-8.543092727661133,0.0692749349098933,0.002237081527709961,0.0954890251159668,3.810970573267028,-12.324156477437949,-0.3260819951608576,0.742110577553325,0.5180838803615254,0.15943497971370377,-0.13228152332615586,3.9718741091589624,3.6554319536571693,-12.348231811267214,-12.487014329613942,0.18406546896209977,-0.9366499448386336
17.989858865737915,-0.5968125462532043,0.38893789052963257,-8.504036903381348,0.06873470877887475,0.0020384788513183594,0.0954890251159668,3.8095063604231867,-12.299544047189068,-0.34608199516085764,0.7424143035330206,0.5618423852803227,0.1534615615091532,-0.12379331588109434,4.022302225047441,3.604786286341104,-12.295341180829148,-12.503171759524136,0.18406546896209977,-0.9366499448386336
17.99636149406433,-0.5968125462532043,0.38893789052963257,-8.504036903381348,0.06873470877887475,0.002238750457763672,0.0954890251159668,3.8076756525589426,-12.273491346552097,-0.36608199516085765,0.7417931066173111,0.5301060766940827,0.15148361673183053,-0.11783893485561209,4.091941896478072,3.5344146549223887,-12.22406785275824,-12.53498637674728,0.13969792431703912,-0.9042759456634522
18.006398677825928,-0.5711758136749268,0.36034107208251953,-8.445505142211914,0.0677009531557345,0.0023474693298339844,0.0954890251159668,3.805457262904393,-12.2459728183233,-0.38608199516085767,0.7425661794750139,0.6078505226549016,0.14476791274264725,-0.1153232120894694,4.190055503340206,3.435003088240777,-12.125514518919381,-12.59133186400101,0.13969792431703912,-0.9042759456634522
18.016441106796265,-0.562718391418457,0.35078659653663635,-8.42601203918457,0.06730027701558944,0.002628803253173828,0.0954890251159668,3.843189158666072,-12.50903739099876,-0.09449543216529316,0.7423823788481838,0.6109691438683943,0.14073343231450958,-0.11011129697102472,3.8556581603337055,3.8295905284594443,-12.511433683038987,-12.514856395766376,0.13969792431703912,-0.9042759456634522
18.026389122009277,-0.5543054938316345,0.3412206768989563,-8.406532287597656,0.06687447327806859,0.002285480499267578,0.0954890251159668,3.8442881361194976,-12.499799355811577,-0.11449543216529315,0.7421939072619038,0.6116861972937307,0.13745654475208677,-0.10715757619077752,3.8637646909132664,3.823724934800041,-12.501604395642671,-12.507572099386369,0.13969792431703912,-0.9042759456634522
18.036819458007812,-0.5388330221176147,0.3223221004009247,-8.36868953704834,0.06594105957503374,0.004318714141845703,0.0954890251159668,3.845324862975699,-12.489208378417,-0.13449543216529314,0.7424040140355813,0.6326814694975282,0.13160219157922268,-0.10358646612780986,3.87372870206205,3.815903113633011,-12.489585620279122,-12.499758931219372,0.13969792431703912,-0.9042759456634522
18.047166109085083,-0.531140923500061,0.3128524124622345,-8.34976577758789,0.06544284526014967,0.0024454593658447266,0.0954890251159668,3.846273073047272,-12.477274662900632,-0.15449543216529316,0.7422153393791755,0.6223071868977011,0.12779187683042365,-0.10038748625631196,3.88588054506153,3.805742849605984,-12.475022101439823,-12.491795587594948,0.13969792431703912,-0.9042759456634522
18.056450366973877,-0.5234805941581726,0.3033710718154907,-8.330841064453125,0.06492687439536571,0.0023636817932128906,0.0954890251159668,3.847105961231904,-12.464005344933106,-0.17449543216529317,0.7420319513468917,0.6086418135307391,0.12459059895975724,-0.09847243651743466,3.9007231804077858,3.7926880675575325,-12.457403743480754,-12.48420951502332,0.13969792431703912,-0.9042759456634522
18.066461086273193,-0.515852689743042,0.2938796877861023,-8.311915397644043,0.06439659689432017,0.002590656280517578,0.0954890251159668,3.8477963583200747,-12.449404452240783,-0.1944954321652932,0.7418542140989932,0.5918257693478661,0.12161102999306701,-0.09710025189817624,3.9190182687857904,3.7759230884797317,-12.43598729249986,-12.47775513945466,0.13969792431703912,-0.9042759456634522
18.076360940933228,-0.5006961822509766,0.27487465739250183,-8.274099349975586,0.06329360557979007,0.002188444137573242,0.0954890251159668,3.848316908070745,-12.4334728749623,-0.2144954321652932,0.7421318969407921,0.5802261760505083,0.11643071956259919,-0.09396426182084695,3.9419252297983216,3.754233922809669,-12.40967226000585,-12.473537873413365,0.13969792431703912,-0.9042759456634522
18.086833477020264,-0.49316883087158203,0.2653653621673584,-8.255208969116211,0.06272308695889464,0.002407550811767578,0.0954890251159668,3.8486402460065676,-12.41620834597049,-0.23449543216529323,0.7419749630772505,0.5553861807916904,0.11311166729862669,-0.0921286615974888,3.971221076847723,3.725788791555708,-12.376806057514504,-12.473208932064653,0.13969792431703912,-0.9042759456634522
18.096272945404053,-0.48567622900009155,0.2558547258377075,-8.23631763458252,0.06214183479424876,0.0024094581604003906,0.0954890251159668,3.8487391793809054,-12.397605431204948,-0.25449543216529324,0.741826421250161,0.5282958692483722,0.1102450592395884,-0.09103172656856393,4.009641685695028,3.6877972166372603,-12.334877146360604,-12.479272154049994,0.10177288957704436,-0.9190906966285298
18.20502805709839,-0.48567622900009155,0.2558547258377075,-8.23631763458252,0.06214183479424876,0.002185344696044922,0.1002645492553711,3.848586867771893,-12.377655530027036,-0.27449543216529326,0.7391108021646695,0.3166304742325626,0.10992686966501307,-0.09243061983337103,4.061395013336509,3.6359971627049656,-12.280038444076274,-12.495560585797545,0.10177288957704436,-0.9190906966285298
18.212260961532593,-0.38932254910469055,0.12085447460412979,-7.971018314361572,0.05276487449232214,0.0018186569213867188,0.1002645492553711,3.848157003763826,-12.356346885576517,-0.2944954321652933,0.7457792935495385,0.19544153221645744,0.07860889339580979,-0.07103440088646591,4.132881264178688,3.563935232375274,-12.206404895392398,-12.527938921241557,0.09907258790041784,-1.0281058196120054
18.217797994613647,-0.38932254910469055,0.12085447460412979,-7.971018314361572,0.05276487449232214,0.0022509098052978516,0.1002645492553711,3.8474239931832215,-12.333664605077292,-0.3144954321652933,0.7451847143703939,0.1673158283616747,0.07385290402214006,-0.07267625159321138,4.233561187809949,3.4620987295084173,-12.104870459765628,-12.585486544974758,0.09907258790041784,-1.0281058196120054
18.226365089416504,-0.37658634781837463,0.10175993293523788,-7.933061599731445,0.05129122992746746,0.0021924972534179688,0.1002645492553711,3.8437448128566527,-12.50458824751452,-0.10449543216529315,0.7457502964548665,0.10989588015525464,0.06819996960733164,-0.0713387055735236,3.8556581603337055,3.8295905284594443,-12.511433683038987,-12.514856395766376,0.09907258790041784,-1.0281058196120054
18.23651957511902,-0.37658634781837463,0.10175993293523788,-7.933061599731445,0.05129122992746746,0.002528667449951172,0.1002645492553711,3.8448159078475297,-12.494672275749247,-0.12449543216529314,0.745156687085342,0.08207400932641054,0.06724974209437237,-0.07301282305602437,3.8637646909132664,3.823724934800041,-12.501604395642671,-12.507572099386369,0.09907258790041784,-1.0281058196120054
18.246320724487305,-0.3545587360858917,0.06858295202255249,-7.866564750671387,0.04873786560357828,0.00237274169921875,0.1002645492553711,3.845811697333756,-12.483408844517387,-0.14449543216529315,0.7466321990876805,-0.006873298753910906,0.0581875440298425,-0.06863159661140703,3.87372870206205,3.815903113633011,-12.489585620279122,-12.499758931219372,0.09907258790041784,-1.0281058196120054
18.256436109542847,-0.3545587360858917,0.06858295202255249,-7.866564750671387,0.04873786560357828,0.0022733211517333984,0.1002645492553711,3.846705623982658,-12.470806629252037,-0.16449543216529317,0.746040161656564,-0.03438807797564525,0.05668328487553835,-0.06963790599682997,3.88588054506153,3.805742849605984,-12.475022101439823,-12.491795587594948,0.09907258790041784,-1.0281058196120054
18.26641273498535,-0.3360881507396698,0.04100775718688965,-7.809843063354492,0.04649689015262896,0.0023937225341796875,0.1002645492553711,3.84747067863276,-12.456871215977259,-0.18449543216529318,0.7471537452824921,-0.10964420481613169,0.049730786117820946,-0.06678706234768149,3.9007231804077858,3.7926880675575325,-12.457403743480754,-12.48420951502332,0.09907258790041784,-1.0281058196120054
18.27639102935791,-0.3360881507396698,0.04100775718688965,-7.809843063354492,0.04649689015262896,0.0022373199462890625,0.1002645492553711,3.848079576303994,-12.441605066709608,-0.2044954321652932,0.746562881401552,-0.1368491273306473,0.04858087383374095,-0.0672170745653237,3.9190182687857904,3.7759230884797317,-12.43598729249986,-12.47775513945466,0.09907258790041784,-1.0281058196120054
18.28684401512146,-0.32329925894737244,0.02256948873400688,-7.771468639373779,0.0449543708060044,0.0024421215057373047,0.1002645492553711,3.848504934201715,-12.425007494789577,-0.22449543216529322,0.7471556554715011,-0.18395265912241704,0.0453103185742402,-0.06595872353002717,3.9419252297983216,3.754233922809669,-12.40967226000585,-12.473537873413365,0.09907258790041784,-1.0281058196120054
18.2962646484375,-0.32329925894737244,0.02256948873400688,-7.771468639373779,0.0449543708060044,0.0022635459899902344,0.1002645492553711,3.848719451166143,-12.407074650205299,-0.24449543216529324,0.7465654441385491,-0.21084546881693583,0.044779091648418354,-0.06602632719385175,3.971221076847723,3.725788791555708,-12.376806057514504,-12.473208932064653,0.1272705766537887,-0.8254465769325875
18.30650520324707,-0.3044589161872864,-0.004521796479821205,-7.714023113250732,0.042570734966942754,0.002409219741821289,0.1002645492553711,3.8486960880207364,-12.387799514936908,-0.26449543216529325,0.7477693542142033,-0.2525029296613303,0.041150601324735414,-0.0640874224220956,4.009641685695028,3.6877972166372603,-12.334877146360604,-12.479272154049994,0.1272705766537887,-0.8254465769325875
