time,x,y,z,yaw,ctrl_comp_time,x_ref,y_ref,z_ref,yaw_ref,throttle,roll_rate,pitch_rate,yaw_rate,save_tube_pyH,save_tube_pyL,save_tube_pzH,save_tube_pzL
15.001665830612183,0.013197513297200203,3.82582426071167,-12.550976753234863,0.0004913429309404962,0.12640595436096191,0.0,3.825740282134702,-12.550225620820573,0.00017187269314795743,0.5861033281753785,-1.0,0.0410694258636071,0.015951544054566343,-12.550876753234864,-12.551076753234863,-0.007533394096046686,-0.0077333940960466864
15.515103578567505,0.0025012418627738953,3.826171398162842,-12.551209449768066,0.0016374117708287707,0.17813515663146973,0.0,3.825740282134702,-12.550225620820573,0.00017187269314795743,0.5856477521036539,-1.0,0.07996965228966686,0.12479814301883083,-12.525409819219849,-12.52862331057889,0.30451728395448396,-0.3880470206336928
15.780084371566772,0.0025012418627738953,3.826171398162842,-12.551209449768066,0.0016374117708287707,0.0011892318725585938,0.0,3.826436989039051,-12.550511424943277,-0.0012085294050602664,0.5859287362046314,-1.0,0.22381034283673498,0.420017718156727,-12.444231318775296,-12.491733921896737,0.6288292038824617,-0.9758747129837541
15.900818824768066,-0.04865717887878418,3.857206106185913,-12.386981010437012,0.0146808011853857,0.0011572837829589844,0.0,3.826436989039051,-12.550511424943277,-0.0012085294050602664,0.6623213226242228,1.0,0.38189593996862503,0.6100088590783636,-12.185826965922143,-12.56389974527622,1.236407535406986,-2.0395886783714046
15.908388376235962,-0.049708276987075806,3.8564047813415527,-12.379157066345215,0.015262119950183783,0.0015108585357666016,0.0,3.826718618846118,-12.549442689259141,-0.011208529405060267,0.6631543726714672,1.0,0.45188342506917084,0.551085012611244,-10.735525510630334,-13.757892395393275,2.8399649801743547,-4.287344061963664
15.91843318939209,-0.05075816065073013,3.855454921722412,-12.371129035949707,0.015870159245282844,0.0012664794921875,0.0,3.827013886143596,-12.548006625065554,-0.021208529405060267,0.6639957734523757,1.0,0.4286769288124613,0.6623099798095811,-12.550876753234864,-12.551076753234863,-0.007533394096046686,-0.0077333940960466864
15.928736925125122,-0.05180775374174118,3.854353666305542,-12.362894058227539,0.016501931543203896,0.002336740493774414,0.0,3.827320293277548,-12.546206452083544,-0.03120852940506027,0.6648457931350484,1.0,0.4767922175027499,0.6160537320979689,-12.525409819219849,-12.52862331057889,0.3045172839540474,-0.3880470206341275
15.93840503692627,-0.05391145497560501,3.8516740798950195,-12.345831871032715,0.017878228663288004,0.0012395381927490234,0.0,3.8276352509783353,-12.544045224307014,-0.04120852940506027,0.6673156722011289,1.0,0.44044074265493255,0.6995919030378498,-12.44423131877528,-12.491733921896744,0.6288292038815102,-0.9758747129846399
15.948497533798218,-0.054969362914562225,3.850067138671875,-12.337064743041992,0.018650123948135422,0.0015647411346435547,0.0,3.827956083048924,-12.541525827036585,-0.05120852940506027,0.6674643640413358,1.0,0.4658010331950818,0.6405036277722254,-12.185826965922052,-12.56389974527627,1.2364075354050013,-2.0395886783724384
15.958498001098633,-0.05603363364934921,3.848266363143921,-12.328171730041504,0.019467229931125707,0.0015878677368164062,0.0,3.8282800311398963,-12.53865097404804,-0.061208529405060275,0.6674733071532566,1.0,0.43008135594414415,0.6838987218076837,-10.735525510631915,-13.757892395391591,2.8399649801414255,-4.2873440619353405
15.968962669372559,-0.058187179267406464,3.844072103500366,-12.310138702392578,0.021145564019193624,0.0013663768768310547,0.0,3.8286042596072942,-12.535423204897786,-0.07120852940506027,0.6685539829477092,1.0,0.4235566023605418,0.6322695163524247,-12.551109449768067,-12.551309449768066,0.027271719819307327,0.027071719819307328
15.978428840637207,-0.05927886441349983,3.841672658920288,-12.300954818725586,0.0219801018998671,0.0014286041259765625,0.0,3.828925860449347,-12.531844882367578,-0.08120852940506026,0.668395035355543,1.0,0.3836178839425234,0.6269908559551073,-12.526243349733223,-12.529593030367986,0.33794999619746985,-0.3545739260451255
15.988692045211792,-0.0603826567530632,3.839071273803711,-12.29166316986084,0.022818882838440607,0.0012917518615722656,0.0,3.829241858318091,-12.52791819005061,-0.09120852940506026,0.6682154728116257,1.0,0.3578399048897527,0.5750269501879751,-12.445626753917784,-12.494051436366602,0.6608118400972142,-0.9436328588414764
15.998523950576782,-0.06150040030479431,3.8362698554992676,-12.282265663146973,0.023679752472669097,0.0013043880462646484,0.0,3.8295492156018365,-12.523645130080977,-0.10120852940506025,0.6680295314589998,1.0,0.3116395570980484,0.5421072459303178,-12.188508364347282,-12.567344100267734,1.2666012305751935,-2.008189304304866
16.008511304855347,-0.06378630548715591,3.830076217651367,-12.263209342956543,0.025549346760958186,0.0021407604217529297,0.0,3.829844837574377,-12.51902752100833,-0.11120852940506025,0.6688893152529192,1.0,0.2608099810114256,0.47619255043028436,-10.747053197761709,-13.755334530463909,2.86681632308343,-4.255157569118478
16.018399238586426,-0.06531106680631638,3.826014280319214,-12.253440856933594,0.02659556423940082,0.0012555122375488281,0.0,3.83012557760682,-12.514066995819437,-0.12120852940506024,0.6687042622859974,1.0,0.19911305920756256,0.4063064266482388,-12.551109449768067,-12.551309449768066,0.027271719819307327,0.027071719819307328
16.02839732170105,-0.06684967130422592,3.821777582168579,-12.243571281433105,0.027758271869879864,0.0013380050659179688,0.0,3.8303882424378575,-12.508765000108232,-0.13120852940506025,0.6685321898258364,1.0,0.1317814493634997,0.3199476983432905,-12.526243349733223,-12.529593030367986,0.33794999619718696,-0.3545739260454072
16.17180061340332,-0.06684967130422592,3.821777582168579,-12.243571281433105,0.027758271869879864,0.0011496543884277344,0.0,3.8203451706705724,-12.229954894244242,-0.3228053805518164,0.6685359291274205,-1.0,0.06352581447282304,0.22439211531767533,-12.445626753917786,-12.494051436366593,0.6608118400965983,-0.9436328588420496
16.1799635887146,-0.10419720411300659,3.709357261657715,-12.035554885864258,0.06526831497383498,0.0011820793151855469,0.0,3.8188212025670825,-12.21605460169979,-0.3328053805518164,0.6897555042811392,-0.9600237642909824,-0.17327602652436916,0.03971297353017061,-12.188508364347305,-12.567344100267684,1.2666012305739114,-2.0081893043055343
16.188519716262817,-0.10693172365427017,3.7017369270324707,-12.0233154296875,0.06768772683130367,0.0011942386627197266,0.0,3.817201644118607,-12.201866473169696,-0.3428053805518164,0.6901485644418182,-1.0,-0.3612932185670584,-0.37137005674563134,-10.747053197762792,-13.755334530462758,2.8668163230626322,-4.255157569100652
16.19855523109436,-0.10970059037208557,3.694047212600708,-12.010993003845215,0.07012682459459424,0.0015873908996582031,0.0,3.8154825726666726,-12.187386374006538,-0.3528053805518164,0.6905520790287902,-1.0,-0.49290525299694093,-0.5856850283728158,-12.551109449768067,-12.551309449768066,0.027271719819307327,0.027071719819307328
16.208563804626465,-0.11534902453422546,3.678476333618164,-11.986166000366211,0.07503352471612182,0.0016722679138183594,0.0,3.813660182210457,-12.172609968200865,-0.36280538055181644,0.6920327740935647,-1.0,-0.5850336770978587,-0.692842514186408,-12.526243349733223,-12.529593030367986,0.33794999619718696,-0.3545739260454072
16.218592166900635,-0.11823544651269913,3.670602321624756,-11.973688125610352,0.07748454567863218,0.0014879703521728516,0.0,3.811730788918713,-12.157532721181502,-0.37280538055181645,0.6921375574550901,-1.0,-0.649523573968501,-0.7464212570932041,-12.445626753917786,-12.494051436366593,0.6608118400965983,-0.9436328588420496
16.22839617729187,-0.12116806209087372,3.662672996520996,-11.961169242858887,0.07990258957948207,0.0014731884002685547,0.0,3.809690836573424,-12.142149902758735,-0.38280538055181645,0.6921231700988328,-1.0,-0.6946665017779508,-0.773210628546602,-12.188508364347305,-12.567344100267684,1.2666012305739114,-2.0081893043055343
16.238662719726562,-0.1241498589515686,3.6546897888183594,-11.94862174987793,0.08227056840203135,0.0016164779663085938,0.0,3.807536901941726,-12.126456590208234,-0.39280538055181646,0.6919884382087897,-1.0,-0.7262665512445655,-0.786605314273301,-10.747053197762792,-13.755334530462758,2.8668163230626322,-4.255157569100652
16.248390197753906,-0.13024939596652985,3.6385622024536133,-11.923480033874512,0.08676786451190235,0.0012629032135009766,0.0,3.8052657000726873,-12.110447671493448,-0.40280538055181647,0.6923828874776413,-1.0,-0.7483865858711959,-0.7933026571366505,-12.551109449768067,-12.551309449768066,0.027271719819307327,0.027071719819307328
16.258511543273926,-0.1333751231431961,3.6304168701171875,-11.910945892333984,0.08885801983932455,0.003314971923828125,0.0,3.8028740895156297,-12.094117848624165,-0.4128053805518165,0.6923462883100407,-1.0,-0.7638706101098371,-0.7966513285683253,-12.526243349733223,-12.529593030367986,0.33794999619718696,-0.3545739260454072
16.26881194114685,-0.13723354041576385,3.6216483116149902,-11.898417472839355,0.09082902216540555,0.0021309852600097656,0.0,3.8003590774567555,-12.077461641148798,-0.4228053805518165,0.6920439676810035,-1.0,-0.7747094270768861,-0.7983256642841627,-12.445626753917786,-12.494051436366593,0.6608118400965983,-0.9436328588420496
16.40672016143799,-0.13723354041576385,3.6216483116149902,-11.898417472839355,0.09082902216540555,0.0015625953674316406,0.0,3.61377772407008,-11.882023699434972,-0.11966161788265739,0.6622477785217493,-1.0,-0.7822965989538203,-0.7991628321420814,-12.188508364347305,-12.567344100267684,1.2666012305739114,-2.0081893043055343
16.414427995681763,-0.21861149370670319,3.4423773288726807,-11.656164169311523,0.10903349691386673,0.0032770633697509766,0.0,3.6059895888906044,-11.86533400690803,-0.1296616178826574,0.6740349851017549,1.0,-0.7872000215939171,-0.7995814160710407,-10.747053197762792,-13.755334530462758,2.8668163230626322,-4.255157569100652
16.421292781829834,-0.21861149370670319,3.4423773288726807,-11.656164169311523,0.10903349691386673,0.0031938552856445312,0.0,3.598279070334067,-11.848349585727565,-0.1396616178826574,0.6728387645599823,1.0,-0.7421665444555079,-0.798941950384249,-12.551109449768067,-12.551309449768066,0.027271719819307327,0.027071719819307328
16.429578065872192,-0.22383461892604828,3.432067632675171,-11.643075942993164,0.10901536529680009,0.0018405914306640625,0.0,3.5906413181795416,-11.831071403227783,-0.14966161788265742,0.6724789326265911,1.0,-0.7035346824098664,-0.7715588691958446,-12.526243349733223,-12.529593030367986,0.33794999619718696,-0.3545739260454072
16.4384982585907,-0.22899509966373444,3.421623468399048,-11.629929542541504,0.10893362263051001,0.002047300338745117,0.0,3.5830714737105143,-11.81350020303086,-0.15966161788265743,0.6721153037486716,1.0,-0.6566848663700555,-0.7545806533409769,-12.445626753917786,-12.494051436366593,0.6608118400965983,-0.9436328588420496
16.448585748672485,-0.23911574482917786,3.400312662124634,-11.60346794128418,0.10857614347152121,0.0021393299102783203,0.0,3.5755646757166932,-11.795636504628611,-0.16966161788265743,0.6723373190882609,1.0,-0.589686046259726,-0.7325014414346929,-12.188508364347305,-12.567344100267684,1.2666012305739114,-2.0081893043055343
16.45856761932373,-0.2440691739320755,3.389432907104492,-11.5902099609375,0.10823829759099923,0.002342700958251953,0.0,3.5681160665105867,-11.77748060312338,-0.17966161788265744,0.6719346732064517,1.0,-0.538962131659581,-0.6825374905026012,-10.747053197762792,-13.755334530462758,2.8668163230626322,-4.255157569100652
16.468968391418457,-0.24894750118255615,3.3783979415893555,-11.57689380645752,0.10776501247972917,0.0019681453704833984,0.0,3.560720797954638,-11.759032569128301,-0.18966161788265745,0.6716254029136222,1.0,-0.4862791478647618,-0.6445596020819545,-12.551109449768067,-12.551309449768066,0.027271719819307327,0.027071719819307328
16.478558778762817,-0.2537485659122467,3.3672070503234863,-11.56351089477539,0.10714522660666803,0.0032024383544921875,0.0,3.5533740374947276,-11.740292248827046,-0.19966161788265746,0.6714104323591474,1.0,-0.43935231373473355,-0.6011089670409531,-12.526243349733223,-12.529593030367986,0.33794999619718696,-0.3545739260454072
16.48841428756714,-0.26311224699020386,3.344358205795288,-11.536517143249512,0.10547123437523852,0.0020949840545654297,0.0,3.546070974195858,-11.72125926419296,-0.20966161788265747,0.6721695177263025,1.0,-0.38017444570420145,-0.5585508764656031,-12.445626753917786,-12.494051436366593,0.6608118400965983,-0.9436328588420496
16.498570442199707,-0.2676719129085541,3.33270263671875,-11.522897720336914,0.10441013434481049,0.002145051956176758,0.0,3.538806824775853,-11.701933013367436,-0.21966161788265748,0.6721218026570966,1.0,-0.3348598370652691,-0.5039427010289996,-12.188508364347305,-12.567344100267684,1.2666012305739114,-2.0081893043055343
16.508618593215942,-0.27214834094047546,3.3208961486816406,-11.50925064086914,0.1032006064082768,0.0023047924041748047,0.0,3.531576839632933,-11.682312671197183,-0.2296616178826575,0.6721338219291564,1.0,-0.29186072587302475,-0.45756061455897434,-10.747053197762792,-13.755334530462758,2.8668163230626322,-4.255157569100652
16.642464876174927,-0.27214834094047546,3.3208961486816406,-11.50925064086914,0.1032006064082768,0.002034902572631836,0.0,3.312412283404132,-11.488579313686277,-0.3138936226480058,0.68921430416245,-1.0,-0.2659140896419603,-0.41488133542130984,-12.551109449768067,-12.551309449768066,0.027271719819307327,0.027071719819307328
16.650468587875366,-0.35235825181007385,3.0818071365356445,-11.257689476013184,0.06199056559880964,0.0012996196746826172,0.0,3.3038990937131327,-11.467602240960938,-0.3238936226480058,0.7068999471585942,-0.4061932078449888,-0.0868573635990412,-0.22063801495270596,-12.526243349733223,-12.529593030367986,0.33794999619718696,-0.3545739260454072
16.65870952606201,-0.3556564152240753,3.0665605068206787,-11.242446899414062,0.059288777650479005,0.0016121864318847656,0.0,3.295352367503326,-11.446315742627757,-0.3338936226480058,0.7071930186773467,-0.5797988966214651,0.00248405596484941,-0.16188359938714514,-12.445626753917786,-12.494051436366593,0.6608118400965983,-0.9436328588420496
16.668882369995117,-0.35884714126586914,3.0512688159942627,-11.227112770080566,0.05654162402919314,0.0013849735260009766,0.0,3.2867680058909805,-11.42471593258565,-0.3438936226480058,0.7074922106957974,-0.7586906527846757,0.06450325246382814,-0.09614235611401388,-12.188508364347305,-12.567344100267684,1.2666012305739114,-2.0081893043055343
16.678409576416016,-0.36192914843559265,3.035935163497925,-11.211694717407227,0.0537599975194251,0.0014922618865966797,0.0,3.2781420287601346,-11.402798721377087,-0.35389362264800583,0.7076724566303204,-0.9396442947074126,0.11362779060717981,-0.03473794666078875,-10.747053197762792,-13.755334530462758,2.8668163230626322,-4.255157569100652
16.688588619232178,-0.3677542805671692,3.0051536560058594,-11.180682182312012,0.04814943992805246,0.0013093948364257812,0.0,3.269470580246375,-11.380559819008223,-0.36389362264800584,0.7083531105606671,-1.0,0.16398392382102162,0.026446976078835793,-12.551109449768067,-12.551309449768066,0.027271719819307327,0.027071719819307328
16.69862937927246,-0.3704921305179596,2.989710569381714,-11.16511344909668,0.04531193772406893,0.0014739036560058594,0.0,3.260749934154822,-11.357994737908049,-0.37389362264800585,0.708215115788997,-1.0,0.20220990671725003,0.06974190706637665,-12.526243349733223,-12.529593030367986,0.33794999619718696,-0.3545739260454072
16.708462953567505,-0.3704921305179596,2.989710569381714,-11.16511344909668,0.04531193772406893,0.001672983169555664,0.0,3.2519764993089963,-11.33509879602456,-0.38389362264800586,0.7074594805884589,-1.0,0.22417154239131426,0.09264772770584291,-12.445626753917786,-12.494051436366593,0.6608118400965983,-0.9436328588420496
16.718711853027344,-0.37561288475990295,2.9587273597717285,-11.13398265838623,0.03962686068101861,0.0014295578002929688,0.0,3.2431468248273085,-11.311867120055918,-0.39389362264800587,0.7078599637676454,-1.0,0.24768120095755444,0.1139594365230072,-12.188508364347305,-12.567344100267684,1.2666012305739114,-2.0081893043055343
16.728414297103882,-0.37561288475990295,2.9587273597717285,-11.13398265838623,0.03962686068101861,0.0014672279357910156,0.0,3.23425760532399,-11.28829464881447,-0.4038936226480059,0.7071068074451384,-1.0,0.2602803086033226,0.12379873950174278,-10.747053197762792,-13.755334530462758,2.8668163230626322,-4.255157569100652
16.7386417388916,-0.3823842704296112,2.9120066165924072,-11.087050437927246,0.031272820571357295,0.0015766620635986328,0.0,3.2253056860313545,-11.264376136721397,-0.4138936226480059,0.7080207891538719,-1.0,0.273818376961379,0.12978552956929965,-12.551109449768067,-12.551309449768066,0.027271719819307327,0.027071719819307328
16.748548984527588,-0.3823842704296112,2.9120066165924072,-11.087050437927246,0.031272820571357295,0.0012972354888916016,0.0,3.2162880678403556,-11.240106157429743,-0.42310791159873107,0.7072700142827073,-1.0,0.28014280250095025,0.1306676519576938,-12.526243349733223,-12.529593030367986,0.33794999619718696,-0.3545739260454072
16.866374731063843,-0.3823842704296112,2.9120066165924072,-11.087050437927246,0.031272820571357295,0.001262664794921875,0.0,2.896578266929904,-11.065196657050972,-0.13453663389602272,0.7018520970071994,-1.0,0.28224372851891716,0.1298415703135096,-12.445626753917786,-12.494051436366593,0.6608118400965983,-0.9436328588420496
16.872931480407715,-0.39710837602615356,2.6360626220703125,-10.814334869384766,-0.006505013478927887,0.000988006591796875,0.0,2.881263721438307,-11.043061029178716,-0.14453663389602273,0.7112759870979801,1.0,0.2250687125033087,-0.01288512717316783,-12.188508364347305,-12.567344100267684,1.2666012305739114,-2.0081893043055343
16.87835431098938,-0.39710837602615356,2.6360626220703125,-10.814334869384766,-0.006505013478927887,0.001425027847290039,0.0,2.866057236071631,-11.020643811454411,-0.15453663389602273,0.7105479577389916,0.8992317372945555,0.20946139689435572,0.06292545770750305,-10.747053197762792,-13.755334530462758,2.8668163230626322,-4.255157569100652
16.888412475585938,-0.39710837602615356,2.6360626220703125,-10.814334869384766,-0.006505013478927887,0.0011944770812988281,0.0,2.8509530855720397,-10.99794502323409,-0.16453663389602274,0.7098191266162444,0.7301062192823415,0.21097692802733437,0.08468176942018805,-12.551109449768067,-12.551309449768066,0.027271719819307327,0.027071719819307328
16.89850640296936,-0.39584881067276,2.5850253105163574,-10.764845848083496,-0.01158799074966782,0.0012319087982177734,0.0,2.8359455696000486,-10.97496444641364,-0.17453663389602275,0.7110124632343706,1.0,0.20687462952903868,0.08514493937917426,-12.526243349733223,-12.529593030367986,0.33794999619718696,-0.3545739260454072
16.90845799446106,-0.39584881067276,2.5850253105163574,-10.764845848083496,-0.01158799074966782,0.0013735294342041016,0.0,2.8210290188618146,-10.95170162591057,-0.18453663389602276,0.7102841808363548,0.8602122780442731,0.20466025610346686,0.08866592765261876,-12.445626753917786,-12.494051436366593,0.6608118400965983,-0.9436328588420496
16.918440580368042,-0.395124614238739,2.567815065383911,-10.748271942138672,-0.013125461853354309,0.0011959075927734375,0.0,2.806197801229638,-10.928155870299708,-0.19453663389602277,0.7101310957840576,0.8447550905210415,0.20207106877958567,0.08565676204672815,-12.188508364347305,-12.567344100267684,1.2666012305739114,-2.0081893043055343
16.92850375175476,-0.39433419704437256,2.550483465194702,-10.731666564941406,-0.014607825762216142,0.0014955997467041016,0.0,2.7914463278518067,-10.904326252602628,-0.20453663389602278,0.7098850445834267,0.822995979652668,0.19921540828442844,0.08115074090161008,-10.747053197762792,-13.755334530462758,2.8668163230626322,-4.255157569100652
16.938419818878174,-0.39158666133880615,2.4977030754089355,-10.681694030761719,-0.018641513754063394,0.0013058185577392578,0.0,2.776769059247937,-10.880211611230461,-0.2145366338960228,0.7106797823327519,1.0,0.19552112652866963,0.07211037511339662,-12.551109449768067,-12.551309449768066,0.027271719819307327,0.027071719819307328
16.94852328300476,-0.39158666133880615,2.4977030754089355,-10.681694030761719,-0.018641513754063394,0.0014276504516601562,0.0,2.7621605113859657,-10.855810551079664,-0.2245366338960228,0.7099518862107367,0.8749887046806448,0.1935932185765576,0.07094032913749763,-12.526243349733223,-12.529593030367986,0.33794999619718696,-0.3545739260454072
16.95862579345703,-0.3905539810657501,2.47983980178833,-10.6649751663208,-0.01985156077622556,0.0017867088317871094,0.0,2.7476152617369896,-10.831121444780194,-0.23420855153571715,0.7097736156330919,0.8388742653223642,0.19300395408618523,0.0661604508815576,-12.445626753917786,-12.494051436366593,0.6608118400965983,-0.9436328588420496
16.968796014785767,-0.3894631266593933,2.461843729019165,-10.648221969604492,-0.02100196068519941,0.001481771469116211,0.0,2.733119760911214,-10.806147188469378,-0.24246084036178486,0.7096010984590098,0.902563825964984,0.19304731684878756,0.061700025781484626,-12.188508364347305,-12.567344100267684,1.2666012305739114,-2.0081893043055343
16.978450775146484,-0.38711151480674744,2.4254589080810547,-10.614734649658203,-0.023150884249733814,0.0013518333435058594,0.0,2.71863299537246,-10.780906272185145,-0.2493610819829999,0.7100009199390769,1.0,0.1937846996753515,0.05898967571060131,-10.747053197762792,-13.755334530462758,2.8668163230626322,-4.255157569100652
17.093310117721558,-0.36447983980178833,2.1388375759124756,-10.361140251159668,-0.033816182624421896,0.0016367435455322266,0.0,2.4094966405910014,-10.588809587413257,-0.25362441838213884,0.7182685451694644,1.0,0.19692991311688102,0.056647951237937255,-12.551109449768067,-12.551309449768066,0.027271719819307327,0.027071719819307328
17.099450826644897,-0.36447983980178833,2.1388375759124756,-10.361140251159668,-0.033816182624421896,0.0014040470123291016,0.0,2.393211625113064,-10.562796470414522,-0.24895445720905138,0.7175361902234763,1.0,0.19808840041824458,0.055827380290017,-12.526243349733223,-12.529593030367986,0.33794999619718696,-0.3545739260454072
17.108379125595093,-0.3626096248626709,2.119044303894043,-10.34401798248291,-0.034222494515411137,0.001184701919555664,0.0,2.3765893920014127,-10.536710381756292,-0.2436822738253802,0.7173973020405795,1.0,0.198147730402112,0.05620659647589035,-12.445626753917786,-12.494051436366593,0.6608118400965983,-0.9436328588420496
17.118647813796997,-0.3606947064399719,2.0991883277893066,-10.326915740966797,-0.0345981832138687,0.0012621879577636719,0.0,2.3596171706553295,-10.510566379070095,-0.23785175003329903,0.7172584597157747,1.0,0.19774246270806295,0.05686189368945357,-12.188508364347305,-12.567344100267684,1.2666012305739114,-2.0081893043055343
17.128476858139038,-0.358736127614975,2.0792744159698486,-10.309776306152344,-0.03494321486140839,0.001329660415649414,0.0,2.3422838588145156,-10.484379456484973,-0.23150524091058736,0.7171232587020152,1.0,0.19712596647116376,0.05756032541421397,-10.747053197762792,-13.755334530462758,2.8668163230626322,-4.255157569100652
17.13863444328308,-0.35469183325767517,2.039293050765991,-10.27538776397705,-0.035549636727413673,0.0012392997741699219,0.0,2.3245799886055987,-10.458164501557048,-0.2246835989858954,0.7175437649156552,1.0,0.1956265566949187,0.058961951076117916,-12.551109449768067,-12.551309449768066,0.027271719819307327,0.027071719819307328
17.14851951599121,-0.35260793566703796,2.0192348957061768,-10.258145332336426,-0.03581316590646143,0.0013070106506347656,0.0,2.3064976892805906,-10.431936248400124,-0.2174261996282617,0.7173624061955892,1.0,0.19427767236161825,0.05978842070181116,-12.526243349733223,-12.529593030367986,0.33794999619718696,-0.3545739260454072
17.158348083496094,-0.3501298725605011,1.9985839128494263,-10.241230964660645,-0.03604947786061535,0.0012545585632324219,0.0,2.288030646628664,-10.405709228152364,-0.20977096732546247,0.7171445570864897,1.0,0.19336257679298108,0.060252252253515735,-12.445626753917786,-12.494051436366593,0.6608118400965983,-0.9436328588420496
17.168596506118774,-0.34761980175971985,1.9779068231582642,-10.22428035736084,-0.03613546619731532,0.0013012886047363281,0.0,2.2691740590871317,-10.379497717820833,-0.20175440257279856,0.7169301210288357,1.0,0.1925987675328956,0.060632162567151524,-12.188508364347305,-12.567344100267684,1.2666012305739114,-2.0081893043055343
17.1786470413208,-0.3424951732158661,1.9365062713623047,-10.190390586853027,-0.036228585792906554,0.001959085464477539,0.0,2.249924590623756,-10.353315688455195,-0.19341160913763517,0.7172110992224653,1.0,0.19107217687867697,0.06175184092216465,-10.747053197762792,-13.755334530462758,2.8668163230626322,-4.255157569100652
17.188687801361084,-0.33988243341445923,1.9157921075820923,-10.173393249511719,-0.03623518488772007,0.002035379409790039,0.0,2.2302803205085917,-10.327176753513896,-0.1847763215052181,0.7170040135078554,1.0,0.18977197710226565,0.062281737492529764,-12.551109449768067,-12.551309449768066,0.027271719819307327,0.027071719819307328
17.19851779937744,-0.3372375965118408,1.8950752019882202,-10.156363487243652,-0.03621348691287431,0.0013775825500488281,0.0,2.210240690137998,-10.301094118200258,-0.17588093234791,0.7168062189946849,1.0,0.18843793572531803,0.06275746392380534,-12.526243349733223,-12.529593030367986,0.33794999619718696,-0.3545739260454072
17.208333253860474,-0.3345617353916168,1.8743603229522705,-10.139301300048828,-0.036164852467208373,0.0013651847839355469,0.0,2.189806447114992,-10.275080530462175,-0.16675651989300272,0.7166181311735844,1.0,0.18706341183293101,0.0632051632036908,-12.445626753917786,-12.494051436366593,0.6608118400965983,-0.9436328588420496
17.32226324081421,-0.3345617353916168,1.8743603229522705,-10.139301300048828,-0.036164852467208373,0.0009253025054931641,0.0,1.8502714829640365,-10.11635763220382,-0.03156284417739269,0.7160877307844514,0.6543395604927731,0.18651068830382297,0.06275396866527339,-12.188508364347305,-12.567344100267684,1.2666012305739114,-2.0081893043055343
17.32894277572632,-0.2894877791404724,1.5626803636550903,-9.8831148147583,-0.03276174716551744,0.001171112060546875,0.0,1.8259981894753843,-10.093491763322064,-0.024939749569310613,0.7236212416438959,0.6458110359101349,0.16420268729363405,0.07866686931009209,-10.747053197762792,-13.755334530462758,2.8668163230626322,-4.255157569100652
17.33839726448059,-0.2829107344150543,1.5215494632720947,-9.848821640014648,-0.031986044388224846,0.0010921955108642578,0.0,1.801544997920013,-10.07070833468722,-0.018255053892121682,0.7242308665821048,0.5739620394774726,0.15509607225330224,0.07486690923059527,-12.551109449768067,-12.551309449768066,0.027271719819307327,0.027071719819307328
17.3485586643219,-0.27961358428001404,1.501130223274231,-9.831609725952148,-0.031568868180616355,0.001203298568725586,0.0,1.776917009613575,-10.048011453578363,-0.011525977859023113,0.7242600381024843,0.5130489308506134,0.14987574596130226,0.07018239329393974,-12.526243349733223,-12.529593030367986,0.33794999619718696,-0.3545739260454072
17.35843563079834,-0.2763119041919708,1.4808145761489868,-9.814356803894043,-0.03113408496636224,0.0013217926025390625,0.0,1.7521198272059662,-10.025404697288502,-0.004768883522166935,0.7242946917430448,0.45049288113702557,0.1456663814527945,0.06733596447531,-12.445626753917786,-12.494051436366593,0.6608118400965983,-0.9436328588420496
17.368700981140137,-0.273006409406662,1.460607647895813,-9.797063827514648,-0.030682221702060364,0.0012671947479248047,0.0,1.7271595109905908,-10.002891118917995,0.002000706957077078,0.724317582031251,0.3872538122271858,0.14188303414316358,0.06551214922917979,-12.188508364347305,-12.567344100267684,1.2666012305739114,-2.0081893043055343
17.378260374069214,-0.2663949131965637,1.4205350875854492,-9.76248550415039,-0.029741354581660606,0.0010907649993896484,0.0,1.7020425362182137,-9.980473254927317,0.008768092350465547,0.7249241903980853,0.30441853179818623,0.1361315002846263,0.06571516046476861,-10.747053197762792,-13.755334530462758,2.8668163230626322,-4.255157569100652
17.388767957687378,-0.2630871534347534,1.4006810188293457,-9.74514389038086,-0.029254117900243987,0.0012531280517578125,0.0,1.6767757515499557,-9.958153134410248,0.015519373238226197,0.7249482153182257,0.24257436341286942,0.1321090670765085,0.06379331090774704,-12.243471281433106,-12.243671281433105,-0.555206077003479,-0.555406077003479
17.398538827896118,-0.2597792446613312,1.3809537887573242,-9.727766036987305,-0.02875740000594526,0.0012159347534179688,0.0,1.6513663387703181,-9.935932290027992,0.022241432735818592,0.7249876724853352,0.18192333595673316,0.1285077033107905,0.062033042762588565,-12.083032876963648,-12.105202820284678,-0.5710175057308251,-1.2261617408366412
17.408282995224,-0.25617116689682007,1.361891508102417,-9.711065292358398,-0.028257739496999265,0.0012564659118652344,0.0,1.625821773867016,-9.913811770526925,0.028921917089148066,0.725015122923732,0.11980888423644831,0.12527059397554294,0.06035807205858808,-11.837928516403602,-11.9858289904117,-0.5505257436234322,-2.1131082317233543
17.418443202972412,-0.24898812174797058,1.324135422706604,-9.677557945251465,-0.027324318254840343,0.0011408329010009766,0.0,1.600149789570068,-9.891792154747568,0.035549216154404324,0.725671547240961,0.04181225261954846,0.12045501783092587,0.05979585451645114,-11.288177004881101,-12.092805315259866,-0.1317955965651832,-3.569523414517713
17.428337812423706,-0.24541398882865906,1.3054485321044922,-9.660750389099121,-0.026852905674159336,0.0011715888977050781,0.0,1.5743583394281697,-9.869873567019862,0.042112443778258284,0.7257322655345653,-0.01608885615281508,0.11702556069611668,0.05762915825358784,-8.490084688456138,-14.3596792091134,1.7003446739998744,-6.548497384679234
17.43853187561035,-0.24185208976268768,1.2868930101394653,-9.643889427185059,-0.0263778289850381,0.0014941692352294922,0.0,1.548455563486066,-9.84805569382967,0.048601418094062813,0.725807120612494,-0.07214000674608134,0.1139338668433118,0.055543593870834566,-12.243471281433106,-12.243671281433105,-0.555206077003479,-0.555406077003479
17.44854712486267,-0.2382945567369461,1.2684775590896606,-9.62697696685791,-0.02589817615502403,0.0011963844299316406,0.0,1.5224497556125909,-9.826337801633702,0.055006641749892365,0.7258966117668254,-0.1263125094510864,0.1109735221059452,0.05353437681464515,-12.083032876963648,-12.105202820284678,-0.5710175057308251,-1.2261617408366412
17.55898880958557,-0.2382945567369461,1.2684775590896606,-9.62697696685791,-0.02589817615502403,0.002580881118774414,0.0,1.2418742483418135,-9.609241897725687,0.19577536097840437,0.7221418114386668,-0.42592795453709686,0.1098189019172537,0.05084317667129546,-11.837928516403602,-11.9858289904117,-0.5505257436234322,-2.1131082317233543
17.570168495178223,-0.18505318462848663,1.011459469795227,-9.369298934936523,-0.01817500645592135,0.000989675521850586,0.0,1.2155256157666068,-9.591294117141786,0.19174063844704206,0.7319257167617775,-0.4447903308678246,0.08324086859273089,0.04381757121911222,-11.288177004881101,-12.092805315259866,-0.1317955965651832,-3.569523414517713
17.57838797569275,-0.1779329925775528,0.9800485372543335,-9.334486961364746,-0.016972174205750257,0.0013735294342041016,0.0,1.1894250295437585,-9.573142831463427,0.187923071791028,0.7328719329195931,-0.46202355376533544,0.07118718805320084,0.03611092747426279,-8.490084688456138,-14.3596792091134,1.7003446739998744,-6.548497384679234
17.588516235351562,-0.17440727353096008,0.9645483493804932,-9.317008972167969,-0.016366289226618216,0.001094818115234375,0.0,1.1635660390164815,-9.554796816284014,0.18431528661486934,0.7331080377181523,-0.48828486285639705,0.06498615563615891,0.030519500099875835,-12.243471281433106,-12.243671281433105,-0.555206077003479,-0.555406077003479
17.598631381988525,-0.1709051877260208,0.9491869211196899,-9.299484252929688,-0.015757926791582208,0.0012869834899902344,0.0,1.1379423820743841,-9.536264433746428,0.18090994789943424,0.733341682816503,-0.513763787002885,0.06073237802682138,0.026480389339325842,-12.083032876963648,-12.105202820284678,-0.5710175057308251,-1.2261617408366412
17.608333826065063,-0.16742722690105438,0.9339640140533447,-9.281915664672852,-0.015151059236218165,0.0012288093566894531,0.0,1.112547991263056,-9.517553649362588,0.1776997717865629,0.7335519442178683,-0.5377870971168155,0.05718235965951063,0.023436418724760662,-11.837928516403602,-11.9858289904117,-0.5505257436234322,-2.1131082317233543
17.618562698364258,-0.16054554283618927,0.9039337635040283,-9.24671459197998,-0.013971818453312593,0.0012700557708740234,0.0,1.0873769987083801,-9.49867204832436,0.17467753654308837,0.7343994658577133,-0.5425143564583966,0.05217970445681365,0.02049253005670308,-11.288177004881101,-12.092805315259866,-0.1317955965651832,-3.569523414517713
17.62851619720459,-0.15714263916015625,0.8891249895095825,-9.229085922241211,-0.013403448799268566,0.002035856246948242,0.0,1.0624237399404473,-9.479626851296553,0.17183609273252587,0.7345554382392702,-0.5591671098518164,0.04886502816467886,0.01835566830518536,-8.490084688456138,-14.3596792091134,1.7003446739998744,-6.548497384679234
17.638471603393555,-0.15376552939414978,0.8744522929191589,-9.21142292022705,-0.012850700048044145,0.0012977123260498047,0.0,1.0376827566986322,-9.460424929687678,0.16916837262282988,0.7346983774907545,-0.5731824726997756,0.046239467975560694,0.016511236043258454,-12.243471281433106,-12.243671281433105,-0.555206077003479,-0.555406077003479
17.64847207069397,-0.1504146009683609,0.8599140644073486,-9.193726539611816,-0.012312491609724724,0.0010788440704345703,0.0,1.0131487987959644,-9.4410728203984,0.16666739885864373,0.7348317300055767,-0.5845983582146772,0.043961863471884084,0.014882338216524195,-12.083032876963648,-12.105202820284678,-0.5710175057308251,-1.2261617408366412
17.65865993499756,-0.1433601677417755,0.832391083240509,-9.15767765045166,-0.011245034751266134,0.0018978118896484375,0.0,0.9888168251174415,-9.421576740051222,0.16432629242638652,0.735637901764224,-0.5707583455710963,0.04090681933093308,0.012817309324188543,-11.837928516403602,-11.9858289904117,-0.5505257436234322,-2.1131082317233543
17.668585777282715,-0.13988175988197327,0.8188106417655945,-9.139677047729492,-0.010712168045507384,0.001161336898803711,0.0,0.9646820038234258,-9.401942598707999,0.16213827994034938,0.7357695156657978,-0.5783713838464752,0.03889674383335934,0.011498714994407421,-11.288177004881101,-12.092805315259866,-0.1317955965651832,-3.569523414517713
17.67829442024231,-0.13643600046634674,0.8053480386734009,-9.121655464172363,-0.010189141516677103,0.0013151168823242188,0.0,0.940739711825762,-9.382176013084392,0.16009670027771522,0.7358918976536979,-0.5836744686175284,0.0372406336416307,0.010263955152313575,-8.490084688456138,-14.3596792091134,1.7003446739998744,-6.548497384679234
17.68852210044861,-0.13302309811115265,0.7920010685920715,-9.10361385345459,-0.00967646376000525,0.0010685920715332031,0.0,0.916985533600783,-9.362282319272463,0.15819501059008506,0.7360065227772752,-0.5868918893642926,0.03575168966343178,0.009100237309565147,-12.243471281433106,-12.243671281433105,-0.555206077003479,-0.555406077003479
17.79931139945984,-0.13302309811115265,0.7920010685920715,-9.10361385345459,-0.00967646376000525,0.0013933181762695312,0.0,0.7707646826271077,-9.083871728618192,0.17269025363590665,0.7285288689960141,-0.7417907850896137,0.03542446346684956,0.008616402111417988,-12.083032876963648,-12.105202820284678,-0.5710175057308251,-1.2261617408366412
17.80828619003296,-0.08768253028392792,0.6084816455841064,-8.836823463439941,-0.0033265773672946294,0.0010941028594970703,0.0,0.7498402450793512,-9.063895837387879,0.16567324189048874,0.7366714911934743,-0.1312111448975648,0.020953696727280004,-0.0058503598605393805,-11.837928516403602,-11.9858289904117,-0.5505257436234322,-2.1131082317233543
17.81862998008728,-0.08281082659959793,0.5870120525360107,-8.802753448486328,-0.002573021221180742,0.0012464523315429688,0.0,0.7292150004972862,-9.043699864666646,0.159045217271073,0.7371528671339868,-0.06482583304868705,0.016861564732173855,-0.002732709039095449,-11.288177004881101,-12.092805315259866,-0.1317955965651832,-3.569523414517713
17.828798055648804,-0.08041055500507355,0.5763440728187561,-8.78569221496582,-0.0022081308704728075,0.001817941665649414,0.0,0.7088764768924641,-9.023296717291302,0.15279425845720396,0.7371118743375844,-0.04576812228440219,0.014639846538146036,-0.0010167828164119076,-8.490084688456138,-14.3596792091134,1.7003446739998744,-6.548497384679234
17.838439464569092,-0.078034408390522,0.5657170414924622,-8.768599510192871,-0.001853987264999829,0.001130819320678711,0.0,0.6888125101432947,-9.002698567314848,0.1469084541259799,0.7370445332588768,-0.025758870201305295,0.012891501923780989,-0.00032404967852556026,-12.243471281433106,-12.243671281433105,-0.555206077003479,-0.555406077003479
17.84852695465088,-0.07568267732858658,0.5551283955574036,-8.751480102539062,-0.0015092535743135432,0.0013074874877929688,0.0,0.6690112648143737,-8.981916893416107,0.14137592400824242,0.7369485000330049,-0.0061197342327362625,0.011282657687878827,-0.00011305757016892223,-12.083032876963648,-12.105202820284678,-0.5710175057308251,-1.2261617408366412
17.858372688293457,-0.07335560768842697,0.5445753335952759,-8.734334945678711,-0.0011746970808346538,0.0012857913970947266,0.0,0.6494612516776982,-8.960962520396542,0.13618483868388925,0.7368417384867346,0.012264192962441745,0.009761327581677921,-0.0001251998033704833,-11.837928516403602,-11.9858289904117,-0.5505257436234322,-2.1131082317233543
17.868666648864746,-0.07105729728937149,0.5340611338615417,-8.717168807983398,-0.0008510298089290796,0.0011980533599853516,0.0,0.6301513422066326,-8.93984565674708,0.1313234381414136,0.7367340141614575,0.028704894312887586,0.008331286966380054,-0.00023725631056817527,-11.288177004881101,-12.092805315259866,-0.1317955965651832,-3.569523414517713
17.878424882888794,-0.06653555482625961,0.5131241083145142,-8.682867050170898,-0.00025164587996141796,0.0013227462768554688,0.0,0.6110707802978731,-8.918575930287508,0.12678004912990407,0.737091495516255,0.08646470425306152,0.006082317141737255,-0.0005191089418506165,-8.490084688456138,-14.3596792091134,1.7003446739998744,-6.548497384679234
17.88849949836731,-0.06431233882904053,0.5026977062225342,-8.665681838989258,3.150130544863142e-05,0.0010993480682373047,0.0,0.5922091914611333,-8.897162421897907,0.12254310133439283,0.7369873553155744,0.09624586273957358,0.0046895614043842805,-0.000622402917775859,-12.243471281433106,-12.243671281433105,-0.555206077003479,-0.555406077003479
17.898494720458984,-0.060119736939668655,0.4830757975578308,-8.630866050720215,0.0005765000629050637,0.0011718273162841797,0.0,0.5735565897010149,-8.875613697375785,0.11860114240764791,0.737394240145498,0.13603218962408758,0.0027270928649307477,-0.0008374435924792005,-12.083032876963648,-12.105202820284678,-0.5710175057308251,-1.2261617408366412
17.90847659111023,-0.05814564600586891,0.4738565981388092,-8.613247871398926,0.0008829805179006479,0.0013396739959716797,0.0,0.5551033823006765,-8.853937837464477,0.11494285189330303,0.7373315499721612,0.13525474118464187,0.0014134814592614542,-0.0009994905568532783,-11.837928516403602,-11.9858289904117,-0.5505257436234322,-2.1131082317233543
17.91859483718872,-0.056192152202129364,0.4646402895450592,-8.595671653747559,0.0011830928127033527,0.001875162124633789,0.0,0.5368403727025752,-8.832142466108001,0.11155705407663534,0.7372672120847296,0.1332302156225612,0.000297216121541583,-0.0011925538780046862,-11.288177004881101,-12.092805315259866,-0.1317955965651832,-3.569523414517713
18.035833597183228,-0.056192152202129364,0.4646402895450592,-8.595671653747559,0.0011830928127033527,0.0009627342224121094,0.0,0.44909507398480353,-8.573505069518774,0.053809726847515296,0.7323253342557905,-0.05845990309194754,0.00017099020023396186,-0.0013532729521165297,-8.490084688456138,-14.3596792091134,1.7003446739998744,-6.548497384679234
18.041348934173584,-0.029604924842715263,0.31922614574432373,-8.314041137695312,0.004910828402563641,0.0009188652038574219,0.0,0.43361398966580783,-8.55128818018903,0.05341338617676019,0.7401565569420806,0.21963868388677715,-0.010105640919396334,-0.0031567330147281043,-12.243471281433106,-12.243671281433105,-0.555206077003479,-0.555406077003479
18.048503637313843,-0.029604924842715263,0.31922614574432373,-8.314041137695312,0.004910828402563641,0.0012769699096679688,0.0,0.4181923713169666,-8.52902481947278,0.05319403078270835,0.739557011467557,0.19069352943475973,-0.01207308579164726,-0.0034202362142297243,-12.083032876963648,-12.105202820284678,-0.5710175057308251,-1.2261617408366412
18.058353662490845,-0.029604924842715263,0.31922614574432373,-8.314041137695312,0.004910828402563641,0.001085519790649414,0.0,0.40282596166326945,-8.506718599604001,0.0531407124838907,0.7389571409851431,0.16187615845997344,-0.012489077793071394,-0.0036511523508421066,-11.837928516403602,-11.9858289904117,-0.5505257436234322,-2.1131082317233543
18.0686776638031,-0.026636969298124313,0.2932492792606354,-8.261293411254883,0.0054350899503308285,0.0012311935424804688,0.0,0.38751089756602464,-8.484372921959375,0.05324280881927895,0.7399924126244557,0.1689484928028652,-0.015207931078330158,-0.003551670316582446,-11.288177004881101,-12.092805315259866,-0.1317955965651832,-3.569523414517713
18.078317880630493,-0.026636969298124313,0.2932492792606354,-8.261293411254883,0.0054350899503308285,0.0017042160034179688,0.0,0.3722436959549186,-8.461990986872935,0.05349002323043899,0.7393934235948486,0.1403866997425285,-0.015777327407000896,-0.0036899001221853992,-8.490084688456138,-14.3596792091134,1.7003446739998744,-6.548497384679234
18.08841037750244,-0.024655219167470932,0.2759886682033539,-8.226160049438477,0.005765463758385863,0.0011811256408691406,0.0,0.3570212396139912,-8.439575802731648,0.0538723846480915,0.739864546107135,0.13650686209494328,-0.01747355887979417,-0.0036114523793533146,-12.243471281433106,-12.243671281433105,-0.555206077003479,-0.555406077003479
18.09866690635681,-0.024655219167470932,0.2759886682033539,-8.226160049438477,0.005765463758385863,0.0012798309326171875,0.0,0.34184076287810594,-8.417130194434257,0.054380246522065655,0.739266242530644,0.10820092792883625,-0.017823454004956035,-0.003633331246357373,-12.083032876963648,-12.105202820284678,-0.5710175057308251,-1.2261617408366412
18.10844588279724,-0.021755371242761612,0.25020545721054077,-8.173425674438477,0.006206880539527459,0.001039266586303711,0.0,0.3266998372914764,-8.394656811288833,0.055004285331933835,0.7402380913574502,0.11426827628894455,-0.019672818960239518,-0.003540608052292742,-11.837928516403602,-11.9858289904117,-0.5505257436234322,-2.1131082317233543
18.118632555007935,-0.021755371242761612,0.25020545721054077,-8.173425674438477,0.006206880539527459,0.0012774467468261719,0.0,0.3115963572752222,-8.37215813441774,0.05573549861394892,0.7396410807285078,0.08621880465145396,-0.0200454298658696,-0.0035840182117134653,-11.288177004881101,-12.092805315259866,-0.1317955965651832,-3.569523414517713
18.128398656845093,-0.019874025136232376,0.23310162127017975,-8.138362884521484,0.00646860242666409,0.0014660358428955078,0.0,0.29652852584671724,-8.349636483732318,0.05656520253827906,0.7400838474473533,0.07860159211702582,-0.02092091888610952,-0.0035384991460690554,-8.490084688456138,-14.3596792091134,1.7003446739998744,-6.548497384679234
18.1386399269104,-0.019874025136232376,0.23310162127017975,-8.138362884521484,0.00646860242666409,0.0014729499816894531,0.0,0.28149484042961415,-8.327094024533356,0.057485029068954675,0.7394878742629258,0.05080949647906787,-0.021091582310728624,-0.0034873699423500345,-12.243471281433106,-12.243671281433105,-0.555206077003479,-0.555406077003479
18.148519277572632,-0.017135893926024437,0.20758603513240814,-8.08574390411377,0.006812604385360993,0.0012364387512207031,0.0,0.2664940787898495,-8.304532773787587,0.05848692273741477,0.7404593359352076,0.05226698154107341,-0.02188680074811878,-0.0034723099934845015,-12.083032876963648,-12.105202820284678,-0.5710175057308251,-1.2261617408366412
18.158413887023926,-0.017135893926024437,0.20758603513240814,-8.08574390411377,0.006812604385360993,0.0013475418090820312,0.0,0.2515252851296111,-8.281954606124858,0.05956313705906716,0.7398649480685936,0.02473345888057489,-0.022035718913809253,-0.003478219593110338,-11.837928516403602,-11.9858289904117,-0.5505257436234322,-2.1131082317233543
18.272589683532715,-0.017135893926024437,0.20758603513240814,-8.08574390411377,0.006812604385360993,0.0009756088256835938,0.0,0.1936121446211756,-8.064088322532687,0.06777791780733149,0.7359251324319774,-0.08069779934369348,-0.021968279040324404,-0.0033052212274468835,-11.288177004881101,-12.092805315259866,-0.1317955965651832,-3.569523414517713
18.28005862236023,-0.007974137552082539,0.08921480178833008,-7.826755046844482,0.007764325180112261,0.001088857650756836,0.0,0.1797208020154908,-8.042387749453448,0.06711594386520853,0.7431703882777774,0.037022059214371295,-0.022963737013577068,-0.003204457064397487,-8.490084688456138,-14.3596792091134,1.7003446739998744,-6.548497384679234
18.288318634033203,-0.007670577149838209,0.08263401687145233,-7.810331344604492,0.007791460663249941,0.0011904239654541016,0.0,0.16590818089917048,-8.020645115650808,0.06659069236027054,0.7430914996792946,0.01698649426970772,-0.023244823103722508,-0.003968340490642472,-12.243471281433106,-12.243671281433105,-0.555206077003479,-0.555406077003479
18.298619270324707,-0.0073754023760557175,0.07606057077646255,-7.793882846832275,0.007845267091866441,0.0013327598571777344,0.0,0.15217075651388196,-7.998863189308549,0.0661941101255964,0.7430142031831587,-0.0028678915510947645,-0.023434715798296438,-0.004243995341266123,-12.083032876963648,-12.105202820284678,-0.5710175057308251,-1.2261617408366412
18.30849313735962,-0.006799711845815182,0.06292913854122162,-7.760912895202637,0.00795005239060996,0.0017638206481933594,0.0,0.13850529557765592,-7.977044584091491,0.06591837362337742,0.7434482571850572,-0.016284873687917104,-0.023777342325758573,-0.00429141680568585,-11.837928516403602,-11.9858289904117,-0.5505257436234322,-2.1131082317233543
18.318482160568237,-0.006519550923258066,0.05637358874082565,-7.744393825531006,0.007998663194832549,0.001230478286743164,0.0,0.12490884599501033,-7.955191766688879,0.06575588964938758,0.743362464062644,-0.03523714807275967,-0.023974073781401168,-0.004238363022504634,-11.288177004881101,-12.092805315259866,-0.1317955965651832,-3.569523414517713
18.328369855880737,-0.006244777701795101,0.049826737493276596,-7.727904796600342,0.008045466000298825,0.0017271041870117188,0.0,0.11137872649742457,-7.933307063878497,0.0656992955881472,0.74326680286558,-0.05399477549514535,-0.024137139164296488,-0.004089167541177093,-8.490084688456138,-14.3596792091134,1.7003446739998744,-6.548497384679234
18.338510036468506,-0.005975560285151005,0.04328954219818115,-7.71139669418335,0.008090803947824798,0.0012407302856445312,0.0,0.09791251624960508,-7.9113926691572365,0.06574145924590155,0.7431662299274389,-0.0724305332600231,-0.024279762940581484,-0.0038900516108628484,-11.898317472839356,-11.898517472839355,-0.9616477059364319,-0.9618477059364319
18.34850239753723,-0.005454106722027063,0.030248410999774933,-7.678330898284912,0.008171853539955413,0.001210927963256836,0.0,0.08450804445393505,-7.889450648980331,0.0658754782875334,0.7435368487115717,-0.08327517420036473,-0.024449805911201106,-0.0036906840576237873,-11.714852289650974,-11.727666238734944,-0.7672764877214838,-1.4582088713481831
18.35833191871643,-0.005188620649278164,0.023752760142087936,-7.661775588989258,0.008209607726618107,0.0010616779327392578,0.0,0.07116337998267942,-7.867482948648046,0.066094679302538,0.7434293457078208,-0.10050574305804924,-0.024493609956890216,-0.0035222597009886437,-11.454411398006323,-11.57476987436841,-0.5302451043215908,-2.1890979709039606
18.368709802627563,-0.004929255228489637,0.017270725220441818,-7.645206451416016,0.008246016104767252,0.0012328624725341797,0.0,0.05787682106489931,-7.845491397875256,0.06639261652421229,0.7433222586835568,-0.11719001524500433,-0.024489045086156503,-0.003321336212006982,-10.850988148743488,-11.703193856624889,0.12146134394689335,-3.5104222574188424
18.378396034240723,-0.004676157608628273,0.010803105309605598,-7.62862491607666,0.008282380694819118,0.001615762710571289,0.0,0.044646885052600206,-7.823477716076191,0.0667630702252523,0.7432162716853755,-0.13313918779410674,-0.024466080557222224,-0.0031081838458968647,-7.760999698600837,-14.264730700999923,2.3328194275999175,-6.425505491275075
18.388490676879883,-0.004189093131572008,-0.002085382118821144,-7.595530986785889,0.008348177068663261,0.0013217926025390625,0.0,0.03147229828837758,-7.801443517393543,0.06720004481201616,0.7435791259585733,-0.1384736976524244,-0.024351747734422103,-0.002902747828751514,-11.898317472839356,-11.898517472839355,-0.9616477059364319,-0.9618477059364319
18.39876389503479,-0.003955284133553505,-0.008505022153258324,-7.57896614074707,0.008381141028640939,0.0021147727966308594,0.0,0.01835198609471698,-7.779390315498258,0.0676977666387967,0.7434718188264394,-0.15219791196729812,-0.024267895330655747,-0.002780936700887133,-11.714852289650974,-11.727666238734944,-0.7672764877214838,-1.4582088713481831
18.512555837631226,-0.003955284133553505,-0.008505022153258324,-7.57896614074707,0.008381141028640939,0.0021173954010009766,0.0,-0.020356696096036374,-7.557810315546597,0.07404247527728369,0.7391754830587041,-0.21765916684367786,-0.02420810396611957,-0.0026185095776461577,-11.454411398006323,-11.57476987436841,-0.5302451043215908,-2.1890979709039606
18.521411657333374,-0.010949160903692245,-0.11249811947345734,-7.314520835876465,0.008473481212878858,0.0009558200836181641,0.0,-0.032089378157837446,-7.536602340876147,0.07204833599055507,0.7459887004898712,0.045407531804542045,-0.027670837560939077,-0.001214184075565667,-10.850988148743488,-11.703193856624889,0.12146134394689335,-3.5104222574188424
18.52833080291748,-0.010949160903692245,-0.11249811947345734,-7.314520835876465,0.008473481212878858,0.002196073532104492,0.0,-0.04370884950129396,-7.515345596622526,0.07022873564812528,0.7454179835171577,0.022810401573251315,-0.028181938516400117,-0.002112517170762138,-7.760999698600837,-14.264730700999923,2.3328194275999175,-6.425505491275075
18.53850483894348,-0.011257180012762547,-0.1180357113480568,-7.297488689422607,0.008467183527085979,0.001239776611328125,0.0,-0.055220577986231645,-7.494043282682917,0.06857590486335789,0.7453459633764191,0.01994555316647917,-0.028205070084682326,-0.0022641639781665096,-11.898317472839356,-11.898517472839355,-0.9616477059364319,-0.9618477059364319
18.548523426055908,-0.011861973442137241,-0.1291029006242752,-7.263451099395752,0.008442809620406944,0.001252889633178711,0.0,-0.06662972495347295,-7.472698429542904,0.06708222366639431,0.7457773393248531,0.03825567133735419,-0.028141437009711216,-0.0021446829287555488,-11.714852289650974,-11.727666238734944,-0.7672764877214838,-1.4582088713481831
18.558455228805542,-0.012159064412117004,-0.13463257253170013,-7.246448040008545,0.008430935757935236,0.0011622905731201172,0.0,-0.0779411523685858,-7.451313908103674,0.06574022629545977,0.7456864520890779,0.03671521749085055,-0.028084482302184702,-0.002184678845217876,-11.454411398006323,-11.57476987436841,-0.5302451043215908,-2.1890979709039606
18.568548679351807,-0.012452943250536919,-0.14015978574752808,-7.229457855224609,0.008418307055667422,0.0011065006256103516,0.0,-0.08915943027471751,-7.429892438809886,0.06454260543915114,0.7455819179210201,0.03482622353176115,-0.027985461710456985,-0.002122521169432023,-10.850988148743488,-11.703193856624889,0.12146134394689335,-3.5104222574188424
18.578574419021606,-0.012740814127027988,-0.14568500220775604,-7.21248197555542,0.008404261298621003,0.0016341209411621094,0.0,-0.10028884450764758,-7.408436600128007,0.06348221595492543,0.7454750260800774,0.03222403588504558,-0.027835591523634167,-0.0020200961121640917,-7.760999698600837,-14.264730700999923,2.3328194275999175,-6.425505491275075
18.5885910987854,-0.013307996094226837,-0.15672673285007477,-7.178684711456299,0.008370719397875648,0.0011620521545410156,0.0,-0.11133340462989381,-7.386948836422967,0.06255207808849714,0.7458301445808636,0.04643955845078657,-0.027394147901593332,-0.0018740596494427222,-11.898317472839356,-11.898517472839355,-0.9616477059364319,-0.9618477059364319
18.59848666191101,-0.013587603345513344,-0.16224299371242523,-7.161805152893066,0.008353338714267782,0.001371622085571289,0.0,-0.12229685204413418,-7.365431465278937,0.061745380218300804,0.7457188971178758,0.04151262445777311,-0.02706217895201986,-0.0019489798489358448,-11.714852289650974,-11.727666238734944,-0.7672764877214838,-1.4582088713481831
18.6084201335907,-0.01386466808617115,-0.1677556037902832,-7.144939422607422,0.008337115120109855,0.0011141300201416016,0.0,-0.1331826682493797,-7.343886684307835,0.06105548114858978,0.745607458812983,0.03598311480934406,-0.026711021162198284,-0.00195202059941357,-11.454411398006323,-11.57476987436841,-0.5302451043215908,-2.1890979709039606
18.618621587753296,-0.014139345847070217,-0.17326416075229645,-7.128086566925049,0.008318117887280884,0.0013263225555419922,0.0,-0.14399408320627063,-7.322316577486896,0.06047591197413104,0.7454961325505326,0.03004357450949513,-0.026354660365877355,-0.0019193258351074224,-10.850988148743488,-11.703193856624889,0.12146134394689335,-3.5104222574188424
18.628549575805664,-0.01468236930668354,-0.18426673114299774,-7.094479560852051,0.00828513727179591,0.0015392303466796875,0.0,-0.15473408378058767,-7.300723121064366,0.06000037753882377,0.7458416346696991,0.038355100158441735,-0.025670614483957986,-0.0018779406581980978,-7.760999698600837,-14.264730700999923,2.3328194275999175,-6.425505491275075
18.63855814933777,-0.014944834634661674,-0.18975117802619934,-7.077724933624268,0.008267734996879137,0.001232147216796875,0.0,-0.16540542223658675,-7.279108189069982,0.05962275750992353,0.7457287285188074,0.03122733754737987,-0.025231236189008265,-0.00200074378138133,-11.898317472839356,-11.898517472839355,-0.9616477059364319,-0.9618477059364319
18.755333185195923,-0.014944834634661674,-0.18975117802619934,-7.077724933624268,0.008267734996879137,0.0010716915130615234,0.0,-0.1991972546433687,-7.056900649559247,0.048002649096299525,0.7418516734209558,-0.06395894550686637,-0.025172019926951412,-0.002026503175270373,-11.714852289650974,-11.727666238734944,-0.7672764877214838,-1.4582088713481831
18.761423349380493,-0.023622071370482445,-0.27543556690216064,-6.818714618682861,0.00783811146604417,0.0015020370483398438,0.0,-0.2085830588275864,-7.036053943105066,0.047478171156580616,0.7481611887484492,0.11096960499032965,-0.021002127392263453,-0.0010413596890449807,-11.454411398006323,-11.57476987436841,-0.5302451043215908,-2.1890979709039606
18.768845558166504,-0.023622071370482445,-0.27543556690216064,-6.818714618682861,0.00783811146604417,0.0011518001556396484,0.0,-0.217911562592295,-7.015186638559175,0.047062290194469704,0.7476032211521028,0.09121488848704595,-0.02069339103948099,-0.00261492335223846,-10.850988148743488,-11.703193856624889,0.12146134394689335,-3.5104222574188424
18.778520822525024,-0.024147169664502144,-0.28067663311958313,-6.802663803100586,0.007817960334000267,0.0024933815002441406,0.0,-0.22718549769604876,-6.994300469721854,0.04674866878812232,0.7474720243887221,0.0829277957305846,-0.02026412312252653,-0.0033146403521517515,-7.760999698600837,-14.264730700999923,2.3328194275999175,-6.425505491275075
18.788429737091064,-0.025165051221847534,-0.29076123237609863,-6.770873546600342,0.007781475406682434,0.0013036727905273438,0.0,-0.2364073643803418,-6.973397084470987,0.04653114763413436,0.7477609765471729,0.08406140270245603,-0.019522473648246455,-0.0036997985494765253,-11.898317472839356,-11.898517472839355,-0.9616477059364319,-0.9618477059364319
18.79857063293457,-0.025673143565654755,-0.2956179082393646,-6.755073547363281,0.00779969238035012,0.0013310909271240234,0.0,-0.24557944010111565,-6.952478049010178,0.0464037461858844,0.7476092202657607,0.07412800219776021,-0.019166108549532303,-0.003981251414781004,-11.714852289650974,-11.727666238734944,-0.7672764877214838,-1.4582088713481831
18.808437824249268,-0.02617739886045456,-0.30046409368515015,-6.739277362823486,0.007817009711612179,0.0013644695281982422,0.0,-0.25470378823269313,-6.9315448518222835,0.04636066294809919,0.7474490244993938,0.06394238316623016,-0.018866875176533515,-0.004116449464079803,-11.454411398006323,-11.57476987436841,-0.5302451043215908,-2.1890979709039606
18.818641901016235,-0.026677941903471947,-0.3052991032600403,-6.723485469818115,0.007835212865645987,0.0012047290802001953,0.0,-0.26378226672468474,-6.910598907357962,0.04639627544740297,0.747288561869641,0.0534773368655317,-0.018595349388710054,-0.004175558923810806,-10.850988148743488,-11.703193856624889,0.12146134394689335,-3.5104222574188424
18.828495025634766,-0.027668053284287453,-0.3149332106113434,-6.691972732543945,0.007874733936716751,0.0015149116516113281,0.0,-0.2728165366940847,-6.88964155948653,0.04650513989795013,0.7475219906682249,0.050610141897098095,-0.018127956455510474,-0.004248951670088433,-7.760999698600837,-14.264730700999923,2.3328194275999175,-6.425505491275075
18.838633060455322,-0.028157686814665794,-0.3197309374809265,-6.676251411437988,0.00789319456838173,0.0012524127960205078,0.0,-0.28180807093632537,-6.868674084734079,0.04668199058058448,0.7473589295797483,0.0391047708352896,-0.017859544390622747,-0.00434432254510574,-11.898317472839356,-11.898517472839355,-0.9616477059364319,-0.9618477059364319
18.848445177078247,-0.028643863275647163,-0.32451489567756653,-6.6605353355407715,0.007912917515043201,0.0013306140899658203,0.0,-0.2907581623405032,-6.847697695331654,0.046921738953319116,0.7471966582572968,0.027473874772545384,-0.017615206500443462,-0.00438192165749762,-11.714852289650974,-11.727666238734944,-0.7672764877214838,-1.4582088713481831
18.85840678215027,-0.02911997400224209,-0.3292751908302307,-6.644826889038086,0.007933169678260767,0.0010020732879638672,0.0,-0.2996679321953363,-6.826713542094181,0.04721947251029115,0.7470348275090042,0.015669564241129003,-0.01736959992376017,-0.004390485655490203,-11.454411398006323,-11.57476987436841,-0.5302451043215908,-2.1890979709039606
18.868800163269043,-0.02959292009472847,-0.33402013778686523,-6.629125118255615,0.007951344897516026,0.001399993896484375,0.0,-0.308538338373673,-6.805722717148836,0.04757045340571648,0.7468748970929503,0.003916910791708195,-0.017121575911458457,-0.004383076330600511,-10.850988148743488,-11.703193856624889,0.12146134394689335,-3.5104222574188424
18.982391357421875,-0.02959292009472847,-0.33402013778686523,-6.629125118255615,0.007951344897516026,0.0011854171752929688,0.0,-0.34218313021742064,-6.609100411899098,0.05306846905808741,0.7437731836260014,-0.07974747230296841,-0.01713319068087957,-0.004314161221755149,-7.760999698600837,-14.264730700999923,2.3328194275999175,-6.425505491275075
18.988228797912598,-0.042173467576503754,-0.39985567331314087,-6.397273063659668,0.00808451384307823,0.0009913444519042969,0.0,-0.3502779080221666,-6.589057244111075,0.05236312093093433,0.7492082155069141,0.004684505704448921,-0.01726493972272156,-0.003924885299240181,-11.898317472839356,-11.898517472839355,-0.9616477059364319,-0.9618477059364319
