time,x,y,z,yaw,ctrl_comp_time,rollout_comptime,y_ref,z_ref,yaw_ref,throttle,roll_rate,pitch_rate,yaw_rate,save_tube_pyH,save_tube_pyL,save_tube_pzH,save_tube_pzL,wy,wz
15.005161762237549,-0.026097998023033142,3.902252435684204,-12.751778602600098,0.0004926002190096031,0.15601634979248047,0.13484716415405273,3.8990908198732126,-12.715213971056718,-0.10581588697710882,0.5927174052623494,-1.0,-0.007402193494478657,0.017059886436970692,3.912284999668135,3.8858808102415945,-12.719197536920053,-12.723040882783696,0.1655602954131688,0.042560331050726555
15.572826147079468,-0.03224271163344383,3.90655779838562,-12.741904258728027,-0.000750539100662194,0.1868894100189209,0.11432266235351562,3.899105305645984,-12.695475574716165,-0.13581588697710884,0.5921799875439272,-1.0,-0.02167366079937854,0.002414498979263204,3.923789224952812,3.8744214712150673,-12.698089135432177,-12.706692085813247,0.1655602954131688,0.042560331050726555
15.848061561584473,-0.03224271163344383,3.90655779838562,-12.741904258728027,-0.000750539100662194,0.002895355224609375,0.12841343879699707,3.899035204575329,-12.672731512349664,-0.16581588697710886,0.5922065675199413,-1.0,-0.05058310148046007,-0.05580043259577183,3.940236425970839,3.8579109135238694,-12.671604529396344,-12.689685596399285,0.11838144468815259,-7.17511386467386
15.979145288467407,-0.023812802508473396,3.889960765838623,-12.7084321975708,-0.0010927531123152735,0.0029180049896240234,0.11952948570251465,3.898787522884841,-12.647005107724011,-0.1958158869771089,0.6086508940687183,-0.547288349823298,-0.10946349994471125,-0.22132051555148782,3.9634045427505327,3.834386707973469,-12.638054434318775,-12.673767891768406,0.11838766678150982,-7.1740192359628825
15.986220121383667,-0.023812802508473396,3.889960765838623,-12.7084321975708,-0.0010927531123152735,0.002499103546142578,0.11952948570251465,3.898267918983914,-12.61830370219316,-0.22581588697710892,0.6073219675517175,-0.6158289033135529,-0.2657017949703396,-0.5013030204047388,3.996573513273288,3.800380830293518,-12.594418173675841,-12.66198503254898,0.11838766678150982,-7.1740192359628825
15.993759393692017,-0.023812802508473396,3.889960765838623,-12.7084321975708,-0.0010927531123152735,0.002100706100463867,0.11952948570251465,3.89738206882672,-12.586618496441739,-0.25581588697710894,0.6059877626288089,-0.686768604389159,-0.42599125647923775,-0.6506515102023694,4.045886036914132,3.7495616159946845,-12.535134473957042,-12.65989147510259,0.11838766678150982,-7.1740192359628825
16.004434823989868,-0.023743530735373497,3.887455940246582,-12.702220916748047,-0.0013419919979101788,0.0023386478424072266,0.11952948570251465,3.8960370436441485,-12.551924506826321,-0.28581588697710897,0.6096916932204925,-0.5760386948543557,-0.5381938795354665,-0.7253257551011848,4.122971078669232,3.670113005437258,-12.449692886988364,-12.677958485405783,0.11838766678150982,-7.1740192359628825
16.013938188552856,-0.023743530735373497,3.887455940246582,-12.702220916748047,-0.0013419919979101788,0.0027036666870117188,0.11952948570251465,3.894142690736469,-12.514180636293888,-0.315815886977109,0.6083576355188222,-0.65154187746347,-0.6167357156748265,-0.7626628775505925,4.249534512179136,3.540146662405322,-12.317111653918483,-12.737096340623886,0.11838766678150982,-7.1740192359628825
16.023868799209595,-0.023702416568994522,3.886592149734497,-12.69969654083252,-0.001442129243659114,0.002233266830444336,0.11952948570251465,3.8916130081761833,-12.473329859032633,-0.345815886977109,0.6087209217089862,-0.6637093560200318,-0.6717150009723786,-0.7813314387752962,4.463265899798547,3.3217979495098615,-12.095137900671794,-12.879454427424275,0.11838766678150982,-7.1740192359628825
16.033877849578857,-0.023652050644159317,3.885706663131714,-12.696953773498535,-0.0015901871620851576,0.002392292022705078,0.11952948570251465,3.8883675045055863,-12.429299517227163,-0.37581588697710905,0.6089970647939771,-0.6765668969531341,-0.7102005006806651,-0.7906657193876482,4.824865462365613,2.954201689764691,-11.70457017019818,-13.184099228955445,0.12778390931134842,-1.2033091937002087
16.04375982284546,-0.023419249802827835,3.8841981887817383,-12.69298267364502,-0.002073938500051435,0.0021524429321289062,0.11952948570251465,3.9024838869397698,-12.708575706341694,-0.10503481274572461,0.6105180194620026,-0.6235015715360985,-0.7371403504764655,-0.7953328596938242,3.9156040045986154,3.889206087403696,-12.712545446952525,-12.716356860801989,0.12778390931134842,-1.2033091937002087
16.053985357284546,-0.02329055406153202,3.883387565612793,-12.690667152404785,-0.00240373717346945,0.002446413040161133,0.11952948570251465,3.902712375269164,-12.68893085614483,-0.13503481274572463,0.6105383481152322,-0.6392615230260694,-0.7559982453335259,-0.7976664298469122,3.927314991757494,3.8779667786334286,-12.691535688787749,-12.700092313682513,0.12778390931134842,-1.2033091937002087
16.06395125389099,-0.023155445232987404,3.8825254440307617,-12.688142776489258,-0.0027709196247810777,0.0025839805603027344,0.11952948570251465,3.9028579844431346,-12.6662868796624,-0.16503481274572465,0.6105390446230322,-0.656264234125136,-0.7691987717334682,-0.7988332149234562,3.9439622299261505,3.8616865054254927,-12.665153727357437,-12.68317891118476,0.12778390931134842,-1.2033091937002087
16.074146509170532,-0.023011542856693268,3.88161563873291,-12.685410499572754,-0.0031676656648084445,0.0038857460021972656,0.11952948570251465,3.9028275282888916,-12.640667462227698,-0.19503481274572468,0.6105457049429902,-0.6745793708566419,-0.7784391402134277,-0.799416607461728,3.9673157722495103,3.8384103619167247,-12.631708107565437,-12.667366024603657,0.12778390931134842,-1.2033091937002087
16.21597456932068,-0.023011542856693268,3.88161563873291,-12.685410499572754,-0.0031676656648084445,0.002936840057373047,0.12841534614562988,3.9025264406974776,-12.61208030445338,-0.2250348127457247,0.6200766135122114,-1.0,-0.7849073981493994,-0.799708303730864,4.000641892294572,3.8046835606992992,-12.588176405746669,-12.655702182370407,0.12778390931134842,-1.2033091937002087
16.226436376571655,-0.020464427769184113,3.8495402336120605,-12.599432945251465,-0.01597475523876013,0.0020542144775390625,0.12841534614562988,3.90186014076771,-12.58051696123992,-0.2550348127457247,0.6483555106565815,0.5385841742750044,-0.7894351787045796,-0.799854151865432,4.05005980130145,3.754197433285884,-12.52899720843372,-12.653742693207155,-0.007633555188700791,-1.8819939644707642
16.23794412612915,-0.020464427769184113,3.8495402336120605,-12.599432945251465,-0.01597475523876013,0.0024137496948242188,0.12841534614562988,3.900735410549464,-12.545952795370326,-0.28503481274572473,0.6471767603897067,0.434969966102722,-0.662085754775948,-0.7999270759327161,4.127158924963336,3.675174902497805,-12.443709243871073,-12.671910345327856,0.22064119969733298,-0.35326824335636253
16.245090007781982,-0.019797278568148613,3.8443291187286377,-12.587421417236328,-0.017970698367752558,0.002173185348510742,0.12841534614562988,3.89906177607211,-12.508347045690773,-0.31503481274572476,0.6492069146902748,0.5156757379708896,-0.5538540678212656,-0.7999635379663581,4.253583734174091,3.5457884136374607,-12.311608929001103,-12.730837919526373,0.22064119969733298,-0.35326824335636253
16.254013538360596,-0.019352195784449577,3.841538667678833,-12.581069946289062,-0.01901810066106796,0.002518177032470703,0.12841534614562988,3.8967528825037805,-12.46764300905186,-0.3450348127457248,0.64966440922495,0.5016945922590526,-0.47980408295689925,-0.7999817689831791,4.466950011992937,3.3282464237633103,-12.090347591884978,-12.872771255079744,0.22064119969733298,-0.35326824335636253
16.26401376724243,-0.01882931962609291,3.83862042427063,-12.574487686157227,-0.020092962892317406,0.0034112930297851562,0.12841534614562988,3.8937278545205034,-12.423768334401124,-0.3750348127457248,0.6501122683209525,0.4864852983562824,-0.4211198552222269,-0.7999908844915896,4.827842075617869,2.9617989122628035,-11.700896690028863,-13.176604545290136,0.22064119969733298,-0.35326824335636253
16.273842811584473,-0.018231840804219246,3.8355603218078613,-12.567681312561035,-0.02119838767532914,0.0023925304412841797,0.12841534614562988,3.9079361075637773,-12.69980422511967,-0.10568538548244952,0.6505118784762857,0.4711344578459902,-0.3696301465024969,-0.7999954422457949,3.920938168669021,3.894560393754142,-12.703636721803527,-12.70749699931605,0.22064119969733298,-0.35326824335636253
16.284154176712036,-0.016774483025074005,3.829011917114258,-12.553454399108887,-0.023544957194735622,0.0024793148040771484,0.12841534614562988,3.9084795945786865,-12.680500616290773,-0.13568538548244952,0.6520436163196077,0.5554216913469949,-0.2995933199227597,-0.7759583864175039,3.9329502107590852,3.88365898458843,-12.682940340898721,-12.691598795663246,0.22064119969733298,-0.35326824335636253
16.29378032684326,-0.016036177054047585,3.825702428817749,-12.54623031616211,-0.02486418662960485,0.002153158187866211,0.12841534614562988,3.9089267779220522,-12.658201637802824,-0.16568538548244954,0.6521701057998585,0.5279888212401307,-0.23846160329771254,-0.6461955372467184,3.9498661906726262,3.86772206170657,-12.656863144148552,-12.675068248468126,0.22064119969733298,-0.35326824335636253
16.304269313812256,-0.015198158100247383,3.8222310543060303,-12.538817405700684,-0.026331753134872654,0.0027222633361816406,0.12841534614562988,3.9091845113078376,-12.632930399931686,-0.19568538548244957,0.6523097985803632,0.4913492696618804,-0.12381407229584772,-0.5636796655582099,3.9734432799716117,3.8448076608874846,-12.623713480388002,-12.659653770893051,0.22064119969733298,-0.35326824335636253
16.313841819763184,-0.01425759494304657,3.818596124649048,-12.531217575073242,-0.02798288983910438,0.002569437026977539,0.12841534614562988,3.909158297837035,-12.60469403561119,-0.2256853854824496,0.6524688546403198,0.44533480440613094,-0.010692519099729817,-0.4037908125379611,4.006926120859306,3.8114827450513182,-12.580473842729653,-12.648397833900257,0.22064119969733298,-0.35326824335636253
16.459051609039307,-0.01425759494304657,3.818596124649048,-12.531217575073242,-0.02798288983910438,0.0022547245025634766,0.13740205764770508,3.908753654661148,-12.573483541293978,-0.2556853854824496,0.663876151883689,-1.0,0.11746152050492674,-0.19708434642325348,4.056395907324046,3.7614768399631107,-12.521598697140835,-12.64683874331993,0.22064119969733298,-0.35326824335636253
16.46946096420288,0.02954542264342308,3.7076199054718018,-12.343146324157715,-0.09095472163347301,0.0037364959716796875,0.13740205764770508,3.9078774901089974,-12.53927373236151,-0.28568538548244965,0.6909214392677226,-0.14687618302004735,0.3222230643534487,0.47971146424640576,4.133374393016482,3.683080774380574,-12.436664914642904,-12.665360042024014,-0.1160017622857108,-1.1191122993962246
16.476494550704956,0.02954542264342308,3.7076199054718018,-12.343146324157715,-0.09095472163347301,0.0025522708892822266,0.13740205764770508,3.9064394839669427,-12.502023313071202,-0.3156853854824497,0.6895334070076282,-0.3071665084538532,0.4655561450474141,0.6398557321232029,4.259389312374974,3.554584019439009,-12.305417065817633,-12.724145279062009,-0.1160017622857108,-1.1191122993962246
16.484012603759766,0.036652762442827225,3.692713499069214,-12.320700645446777,-0.09844643659718955,0.0029556751251220703,0.13740205764770508,3.9043534617635287,-12.461675060204268,-0.3456853854824497,0.6914669408628064,-0.400316195405894,0.5658893015331898,0.7199278660616014,4.471885659398167,3.338366164452127,-12.085602898400143,-12.865342823847646,-0.1160017622857108,-1.1191122993962246
16.4937641620636,0.04037858545780182,3.685088872909546,-12.309258460998535,-0.10223205328024876,0.002758026123046875,0.13740205764770508,3.9015387541439006,-12.418156118794712,-0.37568538548244973,0.6919565712183169,-0.5363382208378469,0.6361225110732329,0.7599639330308007,4.831178639526227,2.9739466956662732,-11.69847893245545,-13.167560788172397,-0.1160017622857108,-1.1191122993962246
16.50403642654419,0.04422180354595184,3.6773464679718018,-12.297654151916504,-0.10600938601239206,0.003098011016845703,0.13740205764770508,3.9079361075637697,-12.69980422511967,-0.10568538548244952,0.6924613823513867,-0.6762982291251702,0.6852857577512631,0.7799819665154004,3.9209381686690157,3.894560393754137,-12.703636721803527,-12.70749699931605,-0.1160017622857108,-1.1191122993962246
16.513875722885132,0.048185061663389206,3.6694862842559814,-12.28589916229248,-0.10974275951776807,0.003235340118408203,0.13740205764770508,3.9084795945786737,-12.680500616290773,-0.13568538548244952,0.692818641056361,-0.8151189803409833,0.7197000304258842,0.7899909832577003,3.932950210759075,3.8836589845884197,-12.682940340898721,-12.691598795663246,-0.1160017622857108,-1.1191122993962246
16.52410578727722,0.05649704858660698,3.653395652770996,-12.262041091918945,-0.11703680892242552,0.0034885406494140625,0.13740205764770508,3.9089267779220322,-12.658201637802824,-0.16568538548244954,0.6937279553910304,-0.8913425337837255,0.7437900212981189,0.7949954916288502,3.9498661906726094,3.8677220617065537,-12.656863144148552,-12.675068248468126,-0.1160017622857108,-1.1191122993962246
16.53519058227539,0.06605133414268494,3.6355032920837402,-12.238717079162598,-0.12417129683138847,0.0031638145446777344,0.13740205764770508,3.9091845113078088,-12.632930399931682,-0.19568538548244957,0.6941077480116897,-0.9386697735017706,0.7606530149086833,0.797497745814425,3.9734432799715873,3.8448076608874597,-12.623713480388005,-12.659653770893048,-0.0941929361719156,-2.016114510964394
16.543788194656372,0.06605133414268494,3.6355032920837402,-12.238717079162598,-0.12417129683138847,0.0029370784759521484,0.13740205764770508,3.909158297836995,-12.604694035611187,-0.2256853854824496,0.6932560382129968,-1.0,0.7724571104360783,0.7987488729072125,4.006926120859272,3.8114827450512827,-12.580473842729658,-12.64839783390025,-0.0941929361719156,-2.016114510964394
16.55387258529663,0.07138141244649887,3.6257522106170654,-12.227360725402832,-0.12774125223298188,0.0031108856201171875,0.13740205764770508,3.9087536546610955,-12.573483541293974,-0.2556853854824496,0.6929708459967412,-1.0,0.7807199773052548,0.7993744364536064,4.056395907324002,3.7614768399630623,-12.521598697140844,-12.64683874331992,-0.0941929361719156,-2.016114510964394
16.70273208618164,0.19319568574428558,3.418806791305542,-11.996785163879395,-0.17356714241681676,0.0029001235961914062,0.13944435119628906,3.9078774901089304,-12.539273732361506,-0.28568538548244965,0.6808324166855654,1.0,0.7865039841136783,0.7996872182268032,4.133374393016426,3.6830807743805094,-12.43666491464292,-12.665360042023993,-0.0941929361719156,-2.016114510964394
16.711035013198853,0.19319568574428558,3.418806791305542,-11.996785163879395,-0.17356714241681676,0.0026412010192871094,0.13944435119628906,3.9064394839668584,-12.502023313071195,-0.3156853854824497,0.680200066579651,1.0,0.7905527888795748,0.7483315780580668,4.259389312374904,3.5545840194389258,-12.305417065817645,-12.724145279061986,-0.17127533837313536,-2.4172745474184527
16.71887516975403,0.21523597836494446,3.381829261779785,-11.957870483398438,-0.1767454679898608,0.003062725067138672,0.13944435119628906,3.904353461763425,-12.461675060204257,-0.3456853854824497,0.680821198805049,1.0,0.7933869522157023,0.7525668582926025,4.471885659398072,3.338366164452032,-12.085602898400152,-12.865342823847621,-0.17127533837313536,-2.4172745474184527
16.725879430770874,0.21523597836494446,3.381829261779785,-11.957870483398438,-0.1767454679898608,0.0028772354125976562,0.13944435119628906,3.901538754143774,-12.418156118794696,-0.37568538548244973,0.6798934202542569,1.0,0.7953708665509917,0.7531940834799914,4.831178639526046,2.9739466956662204,-11.698478932455515,-13.16756078817231,-0.17127533837313536,-2.4172745474184527
16.735978841781616,0.23005761206150055,3.3563976287841797,-11.93150806427002,-0.1784254332640555,0.0030889511108398438,0.13944435119628906,3.908122316832396,-12.693704584280443,-0.11568538548244951,0.6799938592646791,1.0,0.7967596065856942,0.7522288152642997,3.9209381686690157,3.894560393754137,-12.703636721803527,-12.70749699931605,-0.1959979234889797,-2.397549945632269
16.74370503425598,0.23005761206150055,3.3563976287841797,-11.93150806427002,-0.1784254332640555,0.00273895263671875,0.13944435119628906,3.908643913277081,-12.673398974824321,-0.14568538548244953,0.6790996221583012,1.0,0.797731724609986,0.7528458032228046,3.932950210759075,3.8836589845884197,-12.682940340898721,-12.691598795663246,-0.1959979234889797,-2.397549945632269
16.753952026367188,0.23749329149723053,3.3434362411499023,-11.91821002960205,-0.179118405853609,0.003173351287841797,0.13944435119628906,3.90903839079867,-12.650107459876951,-0.17568538548244955,0.6786535181630013,1.0,0.7984122072269902,0.7515214219859,3.9498661906726094,3.8677220617065537,-12.656863144148552,-12.675068248468126,-0.1959979234889797,-2.397549945632269
16.764153480529785,0.252391517162323,3.3169937133789062,-11.89136791229248,-0.18012279384860422,0.004101753234863281,0.13944435119628906,3.9092120024330037,-12.623847848661374,-0.20568538548244958,0.6786971384371755,1.0,0.7988885450588932,0.7425383404343716,3.9734432799715873,3.8448076608874597,-12.623713480388005,-12.659653770893048,-0.1959979234889797,-2.397549945632269
16.77385425567627,0.2598456144332886,3.3035106658935547,-11.877817153930664,-0.1804272803617969,0.002838611602783203,0.13944435119628906,3.9090701035270223,-12.59462190731878,-0.2356853854824496,0.6784025773866927,1.0,0.7992219815412253,0.7356797124430663,4.006926120859272,3.8114827450512827,-12.580473842729658,-12.64839783390025,-0.1959979234889797,-2.397549945632269
16.784130573272705,0.2672980725765228,3.2898552417755127,-11.864171028137207,-0.18060910375148753,0.0031812191009521484,0.13944435119628906,3.9085185215978444,-12.562415237901382,-0.26568538548244963,0.6782009605904212,1.0,0.7994553870788577,0.7276790274609477,4.056395907324002,3.7614768399630623,-12.521598697140844,-12.64683874331992,-0.1959979234889797,-2.397549945632269
16.91766357421875,0.40734317898750305,3.0055418014526367,-11.608033180236816,-0.1666176067528886,0.002905607223510742,0.12288975715637207,3.907464935538777,-12.527197272004285,-0.29568538548244966,0.7059626062214658,0.22690204525374646,0.7996187709552004,0.5440369244324006,4.133374393016426,3.6830807743805094,-12.43666491464292,-12.665360042023993,-0.1959979234889797,-2.397549945632269
16.926567316055298,0.40734317898750305,3.0055418014526367,-11.608033180236816,-0.1666176067528886,0.0028252601623535156,0.12288975715637207,3.905820254907446,-12.488921378745376,-0.3256853854824497,0.7047481983304944,0.019617959000727492,0.7997331396686402,0.6645461358700487,4.259389312374904,3.5545840194389258,-12.305417065817645,-12.724145279061986,0.4793312678367436,-0.21382799634014527
16.938228845596313,0.4227769076824188,2.969046115875244,-11.578243255615234,-0.16332023741891272,0.0049130916595458984,0.12288975715637207,3.9034999902173237,-12.44752508599088,-0.3556853854824497,0.7060384800474488,-0.11632943052434386,0.7998131977680482,0.7112851036625667,4.471885659398072,3.338366164452032,-12.085602898400152,-12.865342823847621,0.4793312678367436,-0.21382799634014527
16.9479341506958,0.4227769076824188,2.969046115875244,-11.578243255615234,-0.16332023741891272,0.002900838851928711,0.12288975715637207,3.900425605411244,-12.402930412956147,-0.38568538548244974,0.7053582418791896,-0.334187814836727,0.7998692384376337,0.7368574045107881,4.831178639526046,2.9739466956662204,-11.698478932455515,-13.16756078817231,0.4793312678367436,-0.21382799634014527
16.955861806869507,0.4452888071537018,2.913968324661255,-11.532815933227539,-0.1574623361793301,0.002696514129638672,0.12288975715637207,3.9083045976737467,-12.68726956828098,-0.1256853854824495,0.7076884426362657,-0.45588210813241514,0.7999084669063437,0.7276995517612135,3.9209381686690157,3.894560393754137,-12.703636721803527,-12.70749699931605,0.4793312678367436,-0.21382799634014527
16.963889598846436,0.4452888071537018,2.913968324661255,-11.532815933227539,-0.1574623361793301,0.004807710647583008,0.12288975715637207,3.908794126189581,-12.665965696308337,-0.15568538548244953,0.7069949621639424,-0.6796242976001097,0.7999359268344406,0.7173229937874847,3.932950210759075,3.8836589845884197,-12.682940340898721,-12.691598795663246,0.4793312678367436,-0.21382799634014527
16.975313901901245,0.4452888071537018,2.913968324661255,-11.532815933227539,-0.1574623361793301,0.004423618316650391,0.12288975715637207,3.909125470429523,-12.641683625640523,-0.18568538548244956,0.7063482963129273,-0.9069681852019535,0.7999551487841084,0.6937220512034613,3.9498661906726094,3.8677220617065537,-12.656863144148552,-12.675068248468126,0.4793312678367436,-0.21382799634014527
16.986416339874268,0.46694010496139526,2.8586223125457764,-11.486660957336426,-0.15069303998827774,0.0029647350311279297,0.12288975715637207,3.9092044329552764,-12.614435838314952,-0.2156853854824496,0.708057349891283,-1.0,0.7432249913454392,0.5985338045232614,3.9734432799715873,3.8448076608874597,-12.623713480388005,-12.659653770893048,0.4793312678367436,-0.21382799634014527
16.99367356300354,0.46694010496139526,2.8586223125457764,-11.486660957336426,-0.15069303998827774,0.0024247169494628906,0.12288975715637207,3.9089363736435305,-12.58421872023038,-0.24568538548244961,0.7073798518751745,-1.0,0.70909913980912,0.536075966236842,4.006926120859272,3.8114827450512827,-12.580473842729658,-12.64839783390025,0.4793312678367436,-0.21382799634014527
17.00416874885559,0.48085230588912964,2.8215956687927246,-11.455619812011719,-0.14573441130112702,0.0030095577239990234,0.12288975715637207,3.9082275836984666,-12.551012478333456,-0.27568538548244964,0.7081519874411739,-1.0,0.6488290095348862,0.4619412397501791,4.056395907324002,3.7614768399630623,-12.521598697140844,-12.64683874331992,0.4793312678367436,-0.21382799634014527
17.013811826705933,0.48764216899871826,2.8030521869659424,-11.440011024475098,-0.143135973967437,0.004339694976806641,0.12288975715637207,3.906986665906914,-12.514781172439816,-0.30568538548244967,0.7081855246284248,-1.0,0.5961264850927168,0.41159344409635057,4.133374393016426,3.6830807743805094,-12.43666491464292,-12.665360042023993,0.4793312678367436,-0.21382799634014527
17.025071144104004,0.48764216899871826,2.8030521869659424,-11.440011024475098,-0.143135973967437,0.0044918060302734375,0.12288975715637207,3.9051259119250505,-12.475472861123887,-0.3356853854824497,0.7075294343923358,-1.0,0.5707308490017374,0.40096072746015815,4.259389312374904,3.5545840194389258,-12.305417065817645,-12.724145279061986,0.4793312678367436,-0.21382799634014527
17.174150466918945,0.5903130769729614,2.408529758453369,-11.12453842163086,-0.09320402211042288,0.002695322036743164,0.1350696086883545,3.9025626675961327,-12.433019860313912,-0.3656853854824497,0.6943793192372617,1.0,-0.03284923796523847,-0.5730613241394253,4.471885659398072,3.338366164452032,-12.085602898400152,-12.865342823847621,0.5095358327363733,-1.3643923653798762
17.184102296829224,0.5903130769729614,2.408529758453369,-11.12453842163086,-0.09320402211042288,0.003255128860473633,0.1350696086883545,3.899220677578183,-12.387339112476393,-0.39568538548244975,0.6937878309975539,1.0,-0.1917420350925676,-0.21225133444844557,4.831178639526046,2.9739466956662204,-11.698478932455515,-13.16756078817231,0.5095358327363733,-1.3643923653798762
17.19375252723694,0.5976245403289795,2.367966890335083,-11.093320846557617,-0.08888137231259086,0.002633810043334961,0.1350696086883545,3.9084795945786737,-12.680500616290773,-0.13568538548244952,0.693754979543935,1.0,-0.2967793737772208,-0.048415890915365085,3.9209381686690157,3.894560393754137,-12.703636721803527,-12.70749699931605,0.5095358327363733,-1.3643923653798762
17.204252243041992,0.5976245403289795,2.367966890335083,-11.093320846557617,-0.08888137231259086,0.0032548904418945312,0.1350696086883545,3.9089267779220322,-12.658201637802824,-0.16568538548244954,0.6929544256523126,1.0,-0.340907427995944,0.013791370079040447,3.932950210759075,3.8836589845884197,-12.682940340898721,-12.691598795663246,0.5095358327363733,-1.3643923653798762
17.213764190673828,0.6071714162826538,2.3065569400787354,-11.045716285705566,-0.08281455654680249,0.002511739730834961,0.1350696086883545,3.9091845113078088,-12.632930399931682,-0.19568538548244957,0.6939364186230819,1.0,-0.4371545701842207,0.0626261323257594,3.9498661906726094,3.8677220617065537,-12.656863144148552,-12.675068248468126,0.5095358327363733,-1.3643923653798762
17.224113702774048,0.6071714162826538,2.3065569400787354,-11.045716285705566,-0.08281455654680249,0.0022840499877929688,0.1350696086883545,3.909158297836995,-12.604694035611187,-0.2256853854824496,0.6931370068772791,1.0,-0.4792908732692445,0.07638099646994223,3.9734432799715873,3.8448076608874597,-12.623713480388005,-12.659653770893048,0.5095358327363733,-1.3643923653798762
17.233916997909546,0.6125478148460388,2.265162467956543,-11.013492584228516,-0.07908667713950769,0.002349376678466797,0.1350696086883545,3.9087536546610955,-12.573483541293974,-0.2556853854824496,0.6932248831457312,1.0,-0.5513029535416983,0.10280927729080508,4.006926120859272,3.8114827450512827,-12.580473842729658,-12.64839783390025,0.207272334076408,-2.439349460516496
17.243829011917114,0.6125478148460388,2.265162467956543,-11.013492584228516,-0.07908667713950769,0.002533435821533203,0.1350696086883545,3.9078774901089304,-12.539273732361506,-0.28568538548244965,0.6924264571650406,1.0,-0.5833879808951052,0.11132146384671127,4.056395907324002,3.7614768399630623,-12.521598697140844,-12.64683874331992,0.207272334076408,-2.439349460516496
17.254066705703735,0.619057834148407,2.202291250228882,-10.964550018310547,-0.07231495029530184,0.0028066635131835938,0.1350696086883545,3.9064394839668584,-12.502023313071195,-0.3156853854824497,0.6933425927119707,1.0,-0.6483715866265737,0.14726474256735594,4.133374393016426,3.6830807743805094,-12.43666491464292,-12.665360042023993,0.207272334076408,-2.439349460516496
17.392404556274414,0.619057834148407,2.202291250228882,-10.964550018310547,-0.07231495029530184,0.0021333694458007812,0.1303410530090332,3.904353461763425,-12.461675060204257,-0.3456853854824497,0.700097309671594,1.0,-0.6917748624978478,0.16392275899551803,4.259389312374904,3.5545840194389258,-12.305417065817645,-12.724145279061986,0.207272334076408,-2.439349460516496
17.40042471885681,0.6141660213470459,1.8309818506240845,-10.674301147460938,-0.01860255938847319,0.002232789993286133,0.1303410530090332,3.901538754143774,-12.418156118794696,-0.37568538548244973,0.712427942138278,1.0,-0.7242424037484935,0.2280712219046283,4.471885659398072,3.338366164452032,-12.085602898400152,-12.865342823847621,0.22209412579033927,-1.7854220902750955
17.406402826309204,0.6141660213470459,1.8309818506240845,-10.674301147460938,-0.01860255938847319,0.0022194385528564453,0.1303410530090332,3.897921532719959,-12.371378407583908,-0.40568538548244976,0.7117081343604872,1.0,-0.7469696826239455,0.25796667824152786,4.831178639526046,2.9739466956662204,-11.698478932455515,-13.16756078817231,0.22209412579033927,-1.7854220902750955
17.413711071014404,0.6101969480514526,1.7860138416290283,-10.638395309448242,-0.012722625402851281,0.002399444580078125,0.1303410530090332,3.908643913277081,-12.673398974824321,-0.14568538548244953,0.712613222810723,1.0,-0.7628787778367618,0.2667785225332228,3.9209381686690157,3.894560393754137,-12.703636721803527,-12.70749699931605,0.22209412579033927,-1.7854220902750955
17.424232244491577,0.6059398055076599,1.76249361038208,-10.620268821716309,-0.009884800683925082,0.002322673797607422,0.1303410530090332,3.90903839079867,-12.650107459876951,-0.17568538548244955,0.7126902825877324,1.0,-0.7740151444857333,0.2674514044449089,3.932950210759075,3.8836589845884197,-12.682940340898721,-12.691598795663246,0.22209412579033927,-1.7854220902750955
17.433971881866455,0.6015774011611938,1.7389590740203857,-10.602048873901367,-0.007593465713964007,0.002292156219482422,0.1303410530090332,3.9092120024330037,-12.623847848661374,-0.20568538548244958,0.7127697041539226,1.0,-0.7818106011400133,0.2636824334734798,3.9498661906726094,3.8677220617065537,-12.656863144148552,-12.675068248468126,0.6419651515222458,-0.41333019640270807
17.44375705718994,0.5971113443374634,1.7154147624969482,-10.583739280700684,-0.005355256541428488,0.0019192695617675781,0.1303410530090332,3.9090701035270223,-12.59462190731878,-0.2356853854824496,0.7128179603071411,1.0,-0.7872674207980094,0.2569681528903427,3.9734432799715873,3.8448076608874597,-12.623713480388005,-12.659653770893048,0.6419651515222458,-0.41333019640270807
17.453967809677124,0.5878716111183167,1.668311357498169,-10.546947479248047,-0.001006543062338383,0.002580404281616211,0.1303410530090332,3.9085185215978444,-12.562415237901382,-0.26568538548244963,0.7134501343138848,1.0,-0.7888498298716591,0.24228043032396804,4.006926120859272,3.8114827450512827,-12.580473842729658,-12.64839783390025,0.6419651515222458,-0.41333019640270807
17.463765144348145,0.5831009149551392,1.644760012626648,-10.528449058532715,0.0011052984210782185,0.002251863479614258,0.1303410530090332,3.907464935538777,-12.527197272004285,-0.29568538548244966,0.7133694203623449,1.0,-0.7816502058048538,0.22786512617371038,4.056395907324002,3.7614768399630623,-12.521598697140844,-12.64683874331992,0.6419651515222458,-0.41333019640270807
17.47412943840027,0.5782424211502075,1.6212141513824463,-10.509886741638184,0.0031825692873802547,0.0021514892578125,0.1303410530090332,3.905820254907446,-12.488921378745376,-0.3256853854824497,0.713280976565831,1.0,-0.7703450547019047,0.2140131825642709,4.133374393016426,3.6830807743805094,-12.43666491464292,-12.665360042023993,0.6419651515222458,-0.41333019640270807
17.483964920043945,0.5732886791229248,1.5976792573928833,-10.491265296936035,0.005213192875676308,0.0023245811462402344,0.1303410530090332,3.9034999902173237,-12.44752508599088,-0.3556853854824497,0.7131929725502689,1.0,-0.7567410357840887,0.2004139193249897,4.259389312374904,3.5545840194389258,-12.305417065817645,-12.724145279061986,0.6419651515222458,-0.41333019640270807
17.6016628742218,0.5732886791229248,1.5976792573928833,-10.491265296936035,0.005213192875676308,0.0025954246520996094,0.10988187789916992,3.900425605411244,-12.402930412956147,-0.38568538548244974,0.7101814417132961,1.0,-0.7505317967163466,0.19623519574374154,4.471885659398072,3.338366164452032,-12.085602898400152,-12.865342823847621,0.6419651515222458,-0.41333019640270807
17.610728979110718,0.4656047821044922,1.2002910375595093,-10.171003341674805,0.02727703679403273,0.002043485641479492,0.10988187789916992,3.8965258440168062,-12.355044311592275,-0.41568538548244977,0.7207714671015564,1.0,-0.5092069242512292,-0.11355340746734617,4.831178639526046,2.9739466956662204,-11.698478932455515,-13.16756078817231,0.5835443215185476,-1.24720463602877
17.618944883346558,0.4656047821044922,1.2002910375595093,-10.171003341674805,0.02727703679403273,0.0040476322174072266,0.10988187789916992,3.908794126189581,-12.665965696308337,-0.15568538548244953,0.7200923937391193,1.0,-0.4580044864113728,-0.07338802534360522,3.9209381686690157,3.894560393754137,-12.703636721803527,-12.70749699931605,0.5835443215185476,-1.24720463602877
17.62919783592224,0.45085442066192627,1.1546790599822998,-10.132770538330078,0.02829410317441338,0.002213716506958008,0.10988187789916992,3.909125470429523,-12.641683625640523,-0.18568538548244956,0.7209507232047856,0.9560961885412598,-0.41357265209784677,-0.06353508923319363,3.932950210759075,3.8836589845884197,-12.682940340898721,-12.691598795663246,0.5835443215185476,-1.24720463602877
17.637455701828003,0.45085442066192627,1.1546790599822998,-10.132770538330078,0.02829410317441338,0.0021660327911376953,0.10988187789916992,3.9092044329552764,-12.614435838314952,-0.2156853854824496,0.7202786646348509,0.9162062436158831,-0.4018432870731678,-0.032815803506136734,3.9498661906726094,3.8677220617065537,-12.656863144148552,-12.675068248468126,0.6454685863853138,-0.6025197373838946
17.644033670425415,0.4434584975242615,1.1320472955703735,-10.11357307434082,0.028723879387193174,0.002107858657836914,0.10988187789916992,3.9089363736435305,-12.58421872023038,-0.24568538548244961,0.7204028635126953,0.8613025521434571,-0.38277855784131576,-0.029484855241628805,3.9734432799715873,3.8448076608874597,-12.623713480388005,-12.659653770893048,0.6454685863853138,-0.6025197373838946
17.65397620201111,0.42864295840263367,1.0871546268463135,-10.075090408325195,0.02937891517933503,0.002672433853149414,0.10988187789916992,3.9082275836984666,-12.551012478333456,-0.27568538548244964,0.7213185086345092,0.7841535272611637,-0.3460478577000113,-0.04703050668888907,4.006926120859272,3.8114827450512827,-12.580473842729658,-12.64839783390025,0.6454685863853138,-0.6025197373838946
17.663818836212158,0.42123061418533325,1.064903736114502,-10.055780410766602,0.029603003857788253,0.0028226375579833984,0.10988187789916992,3.906986665906914,-12.514781172439816,-0.30568538548244967,0.7213888963102907,0.7263916528246288,-0.32180273457550795,-0.04413776955769699,4.056395907324002,3.7614768399630623,-12.521598697140844,-12.64683874331992,0.6454685863853138,-0.6025197373838946
17.674065828323364,0.41250455379486084,1.0421065092086792,-10.036510467529297,0.029788250878990327,0.0023996829986572266,0.10988187789916992,3.9051259119250505,-12.475472861123887,-0.3356853854824497,0.721449595458105,0.6706826808944668,-0.3027274608745465,-0.0402774837572686,4.133374393016426,3.6830807743805094,-12.43666491464292,-12.665360042023993,0.6454685863853138,-0.6025197373838946
17.684138536453247,0.40381714701652527,1.0194611549377441,-10.017200469970703,0.0296024086480045,0.004042625427246094,0.10988187789916992,3.9025626675961327,-12.433019860313912,-0.3656853854824497,0.7215316555832678,0.6147188095240257,-0.2861744282989573,-0.03769644595043789,4.259389312374904,3.5545840194389258,-12.305417065817645,-12.724145279061986,0.6454685863853138,-0.6025197373838946
17.693780422210693,0.38651177287101746,0.9746668934822083,-9.978456497192383,0.02918092963830554,0.001957416534423828,0.10988187789916992,3.899220677578183,-12.387339112476393,-0.39568538548244975,0.7224350113274378,0.5265130261051155,-0.26222832406327856,-0.045062309933867194,4.471885659398072,3.338366164452032,-12.085602898400152,-12.865342823847621,0.6454685863853138,-0.6025197373838946
17.703988313674927,0.3778987526893616,0.9525259733200073,-9.959059715270996,0.028937411439314012,0.0024077892303466797,0.10988187789916992,3.895031400901644,-12.338332663572638,-0.4256853854824498,0.7225946588120556,0.47016213985673905,-0.24740802231408143,-0.04085159274495303,4.831178639526046,2.9739466956662204,-11.698478932455515,-13.16756078817231,0.6454685863853138,-0.6025197373838946
17.713926315307617,0.36931559443473816,0.9305608868598938,-9.939619064331055,0.02866959856351005,0.002431154251098633,0.10988187789916992,3.9089267779220322,-12.658201637802824,-0.16568538548244954,0.7227800647707967,0.4154752318235132,-0.23529988331675641,-0.037659644633755575,3.9209381686690157,3.894560393754137,-12.703636721803527,-12.70749699931605,0.6454685863853138,-0.6025197373838946
17.836646795272827,0.36931559443473816,0.9305608868598938,-9.939619064331055,0.02866959856351005,0.0023462772369384766,0.11492562294006348,3.9091845113078088,-12.632930399931682,-0.19568538548244957,0.7178351412504118,1.0,-0.2317619704152177,-0.029075324112844067,3.932950210759075,3.8836589845884197,-12.682940340898721,-12.691598795663246,0.6454685863853138,-0.6025197373838946
17.84505295753479,0.215879887342453,0.5689026117324829,-9.5858154296875,0.0220390133944095,0.002009153366088867,0.11492562294006348,3.909158297836995,-12.604694035611187,-0.2256853854824496,0.7349610741315825,0.4327547929683233,-0.10983460682206667,-0.20867922773674258,3.9498661906726094,3.8677220617065537,-12.656863144148552,-12.675068248468126,0.7503722267789765,-1.1617071807781763
17.85406470298767,0.215879887342453,0.5689026117324829,-9.5858154296875,0.0220390133944095,0.0024366378784179688,0.11492562294006348,3.9087536546610955,-12.573483541293974,-0.2556853854824496,0.7343505357256931,0.46552691381395783,-0.12283102560812906,-0.08119264945818085,3.9734432799715873,3.8448076608874597,-12.623713480388005,-12.659653770893048,0.7503722267789765,-1.1617071807781763
17.86384129524231,0.20748315751552582,0.5508169531822205,-9.565923690795898,0.021555234176640098,0.002355337142944336,0.11492562294006348,3.9078774901089304,-12.539273732361506,-0.28568538548244965,0.7348538909021053,0.46638556125453645,-0.10677323493093573,-0.06620711585562145,4.006926120859272,3.8114827450512827,-12.580473842729658,-12.64839783390025,0.7503722267789765,-1.1617071807781763
17.874127626419067,0.19916430115699768,0.5329458713531494,-9.545968055725098,0.021068572061060303,0.0021910667419433594,0.11492562294006348,3.9064394839668584,-12.502023313071195,-0.3156853854824497,0.7353693348713674,0.46235473565576,-0.09542721085098473,-0.05619006880673866,4.056395907324002,3.7614768399630623,-12.521598697140844,-12.64683874331992,0.7503722267789765,-1.1617071807781763
17.884045600891113,0.1909245103597641,0.5152902603149414,-9.525948524475098,0.020577247718742447,0.0024569034576416016,0.11492562294006348,3.904353461763425,-12.461675060204257,-0.3456853854824497,0.7358960046554284,0.39441334694564745,-0.08570211115344582,-0.05065143416973905,4.133374393016426,3.6830807743805094,-12.43666491464292,-12.665360042023993,0.7503722267789765,-1.1617071807781763
17.893819332122803,0.17469075322151184,0.48062512278556824,-9.48572826385498,0.019591204058875267,0.002107381820678711,0.11492562294006348,3.901538754143774,-12.418156118794696,-0.37568538548244973,0.7375409221555653,0.28128325942628296,-0.07109852379662189,-0.05187933013433077,4.259389312374904,3.5545840194389258,-12.305417065817645,-12.724145279061986,0.7503722267789765,-1.1617071807781763
17.903990030288696,0.16669929027557373,0.46362003684043884,-9.465575218200684,0.019125333759689417,0.0023322105407714844,0.11492562294006348,3.897921532719959,-12.371378407583908,-0.40568538548244976,0.7380235442276717,0.20458549556906802,-0.06196765531579676,-0.04604990964846502,4.471885659398072,3.338366164452032,-12.085602898400152,-12.865342823847621,0.7503722267789765,-1.1617071807781763
17.91399049758911,0.15879207849502563,0.44683825969696045,-9.445371627807617,0.018702982130194057,0.002713441848754883,0.11492562294006348,3.89343611414326,-12.321239131161816,-0.4356853854824498,0.738499150314974,0.1260208034234147,-0.053854331397337196,-0.042179472337485036,4.831178639526046,2.9739466956662204,-11.698478932455515,-13.16756078817231,0.7503722267789765,-1.1617071807781763
17.92412257194519,0.1509702205657959,0.43028199672698975,-9.425119400024414,0.01832810338886265,0.0022284984588623047,0.11492562294006348,3.90903839079867,-12.650107459876951,-0.17568538548244955,0.738979353844096,0.04625323488612354,-0.04675672571865947,-0.03902639802758198,3.9209381686690157,3.894560393754137,-12.703636721803527,-12.70749699931605,0.7503722267789765,-1.1617071807781763
17.93379521369934,0.1355985850095749,0.39902693033218384,-9.383810997009277,0.017655568210480616,0.0024411678314208984,0.11492562294006348,3.9092120024330037,-12.623847848661374,-0.20568538548244958,0.7406214912443572,-0.0914203216193954,-0.037092877412470325,-0.03842141852966191,3.932950210759075,3.8836589845884197,-12.682940340898721,-12.691598795663246,0.5387113329626709,-0.5633493565335124
17.943856239318848,0.12804214656352997,0.3837287724018097,-9.363102912902832,0.017350780976454067,0.0020940303802490234,0.11492562294006348,3.9090701035270223,-12.59462190731878,-0.2356853854824496,0.7411439454845807,-0.1748248653215878,-0.03102990405165863,-0.034615335994136354,3.9498661906726094,3.8677220617065537,-12.656863144148552,-12.675068248468126,0.5387113329626709,-0.5633493565335124
17.954055309295654,0.12057265639305115,0.36865296959877014,-9.342402458190918,0.01707697665218527,0.0025415420532226562,0.11492562294006348,3.9085185215978444,-12.562415237901382,-0.26568538548244963,0.7416714283778719,-0.25752212355076265,-0.025971707608854026,-0.03165069230825946,3.9734432799715873,3.8448076608874597,-12.623713480388005,-12.659653770893048,0.5387113329626709,-0.5633493565335124
18.074763298034668,0.12057265639305115,0.36865296959877014,-9.342402458190918,0.01707697665218527,0.002315998077392578,0.11319947242736816,3.907464935538777,-12.527197272004285,-0.29568538548244966,0.7285271349657375,-0.4125848864540087,-0.02445695383424069,-0.028128271285771306,4.006926120859272,3.8114827450512827,-12.580473842729658,-12.64839783390025,0.5387113329626709,-0.5633493565335124
18.083746910095215,0.014219794422388077,0.16298900544643402,-9.010224342346191,0.014874621606810301,0.002488851547241211,0.11319947242736816,3.905820254907446,-12.488921378745376,-0.3256853854824497,0.7464813685771078,-1.0,0.011062110375222367,-0.036797161986417595,4.056395907324002,3.7614768399630623,-12.521598697140844,-12.64683874331992,0.745331026663866,-1.1756539084830928
18.093834400177002,0.002811385551467538,0.14243058860301971,-8.968951225280762,0.014651273490847216,0.0020470619201660156,0.11319947242736816,3.9034999902173237,-12.44752508599088,-0.3556853854824497,0.7481221771616117,-1.0,0.024560535569431108,-0.027218117911745155,4.133374393016426,3.6830807743805094,-12.43666491464292,-12.665360042023993,0.745331026663866,-1.1756539084830928
18.104052305221558,-0.0027678553014993668,0.13241758942604065,-8.948296546936035,0.014545635694454634,0.002295255661010742,0.11319947242736816,3.900425605411244,-12.402930412956147,-0.38568538548244974,0.7486114092366799,-1.0,0.030949528247013393,-0.023148967051822802,4.259389312374904,3.5545840194389258,-12.305417065817645,-12.724145279061986,0.745331026663866,-1.1756539084830928
18.11383891105652,-0.008263453841209412,0.12260143458843231,-8.927600860595703,0.014488015752046418,0.0027801990509033203,0.11319947242736816,3.8965258440168062,-12.355044311592275,-0.41568538548244977,0.749099385775694,-1.0,0.03516673550282972,-0.021389971738304165,4.471885659398072,3.338366164452032,-12.085602898400152,-12.865342823847621,0.745331026663866,-1.1756539084830928
18.124138593673706,-0.01367553137242794,0.11297990381717682,-8.90686321258545,0.014434094636443157,0.0021669864654541016,0.11319947242736816,3.891738020861633,-12.303759213503982,-0.4456853854824498,0.7495971124383817,-1.0,0.03866738659515264,-0.020637948695724637,4.831178639526046,2.9739466956662204,-11.698478932455515,-13.16756078817231,0.745331026663866,-1.1756539084830928
18.133867979049683,-0.024248305708169937,0.09432076662778854,-8.865283012390137,0.014364729059040349,0.002214670181274414,0.11319947242736816,3.909125470429523,-12.641683625640523,-0.18568538548244956,0.7510895750502173,-1.0,0.04404333214660948,-0.02021750808962258,3.9209381686690157,3.894560393754137,-12.703636721803527,-12.70749699931605,0.35223007309588716,-0.24559677573259064
18.14385485649109,-0.029408646747469902,0.08528315275907516,-8.844452857971191,0.01436052685311165,0.002009868621826172,0.11319947242736816,3.9092044329552764,-12.614435838314952,-0.2156853854824496,0.7514659803454609,-1.0,0.047256294459930834,-0.020414749756157164,3.932950210759075,3.8836589845884197,-12.682940340898721,-12.691598795663246,0.35223007309588716,-0.24559677573259064
18.15399146080017,-0.0344850979745388,0.07643791288137436,-8.823643684387207,0.01438299829784262,0.0023462772369384766,0.11319947242736816,3.9089363736435305,-12.58421872023038,-0.24568538548244961,0.7518230827684851,-1.0,0.04968120543241366,-0.020846170748310036,3.9498661906726094,3.8677220617065537,-12.656863144148552,-12.675068248468126,0.35223007309588716,-0.24559677573259064
18.163790225982666,-0.039477817714214325,0.0677819699048996,-8.802811622619629,0.014428109064152372,0.002617359161376953,0.11319947242736816,3.9082275836984666,-12.551012478333456,-0.27568538548244964,0.7521580792162135,-1.0,0.05165720223791871,-0.021426218689368122,3.9734432799715873,3.8448076608874597,-12.623713480388005,-12.659653770893048,0.35223007309588716,-0.24559677573259064
18.173977613449097,-0.049143265932798386,0.05231517180800438,-8.76150131225586,0.014567597687585171,0.0022585391998291016,0.11319947242736816,3.906986665906914,-12.514781172439816,-0.30568538548244967,0.7534449852179478,-1.0,0.05445702768293194,-0.022312548817940626,4.006926120859272,3.8114827450512827,-12.580473842729658,-12.64839783390025,0.35223007309588716,-0.24559677573259064
18.1838436126709,-0.05381608009338379,0.045473162084817886,-8.741019248962402,0.014541126328882326,0.0023446083068847656,0.11319947242736816,3.9051259119250505,-12.475472861123887,-0.3356853854824497,0.7537171462416913,-1.0,0.056191005480232946,-0.023311925319637425,4.056395907324002,3.7614768399630623,-12.521598697140844,-12.64683874331992,0.35223007309588716,-0.24559677573259064
18.193852186203003,-0.05840562283992767,0.03878236934542656,-8.720513343811035,0.014522362679976794,0.0020852088928222656,0.11319947242736816,3.9025626675961327,-12.433019860313912,-0.3656853854824497,0.7539683771574814,-1.0,0.057603941737368124,-0.024284714227138918,4.133374393016426,3.6830807743805094,-12.43666491464292,-12.665360042023993,0.35223007309588716,-0.24559677573259064
18.317148447036743,-0.05840562283992767,0.03878236934542656,-8.720513343811035,0.014522362679976794,0.0027451515197753906,0.11495685577392578,3.899220677578183,-12.387339112476393,-0.39568538548244975,0.7387198294819008,-1.0,0.057403749519036325,-0.025088321766970123,4.259389312374904,3.5545840194389258,-12.305417065817645,-12.724145279061986,0.35223007309588716,-0.24559677573259064
18.32764172554016,-0.1283937245607376,-0.0531679205596447,-8.355738639831543,0.014643928381738155,0.002008199691772461,0.11495685577392578,3.895031400901644,-12.338332663572638,-0.4256853854824498,0.7521337359014382,-0.4800497357255983,0.06447202131885009,-0.031878984293332385,4.471885659398072,3.338366164452032,-12.085602898400152,-12.865342823847621,0.6716969068205758,-1.329484949419931
18.333715677261353,-0.1283937245607376,-0.0531679205596447,-8.355738639831543,0.014643928381738155,0.0023522377014160156,0.11495685577392578,3.889935289472228,-12.285888244323726,-0.4556853854824498,0.7513933550658808,-0.534935992668137,0.06615003470590977,-0.03369935944781834,4.831178639526046,2.9739466956662204,-11.698478932455515,-13.16756078817231,0.6716969068205758,-1.329484949419931
18.34388279914856,-0.1316622793674469,-0.05638015642762184,-8.336113929748535,0.014538408193183618,0.002184629440307617,0.11495685577392578,3.9091845113078088,-12.632930399931682,-0.19568538548244957,0.7512816688615278,-0.5426908863916726,0.06668181819846088,-0.036325240866333666,3.9209381686690157,3.894560393754137,-12.703636721803527,-12.70749699931605,0.6716969068205758,-1.329484949419931
18.35398268699646,-0.1348540335893631,-0.05956554785370827,-8.316518783569336,0.01442735140917041,0.002265453338623047,0.11495685577392578,3.909158297836995,-12.604694035611187,-0.2256853854824496,0.7511584806834024,-0.5499033197053345,0.06714071690207359,-0.0384043832561097,3.932950210759075,3.8836589845884197,-12.682940340898721,-12.691598795663246,0.6716969068205758,-1.329484949419931
18.36377239227295,-0.13797004520893097,-0.06272915005683899,-8.296910285949707,0.01431041125465956,0.002733469009399414,0.11495685577392578,3.9087536546610955,-12.573483541293974,-0.2556853854824496,0.7510602283446671,-0.5565653747899492,0.06759136151666485,-0.04017836810749088,3.9498661906726094,3.8677220617065537,-12.656863144148552,-12.675068248468126,0.6716969068205758,-1.329484949419931
18.373963594436646,-0.14397838711738586,-0.06901047378778458,-8.257654190063477,0.014057677891605662,0.002225637435913086,0.11495685577392578,3.9078774901089304,-12.539273732361506,-0.28568538548244965,0.7515198667991967,-0.5070656930076397,0.06821949964109374,-0.04233475829958125,3.9734432799715873,3.8448076608874597,-12.623713480388005,-12.659653770893048,0.6716969068205758,-1.329484949419931
18.383930921554565,-0.1468713879585266,-0.07213783264160156,-8.238014221191406,0.013920800058696645,0.0023584365844726562,0.11495685577392578,3.9064394839668584,-12.502023313071195,-0.3156853854824497,0.7513423841303973,-0.5161230407404852,0.06864511819626401,-0.04361123352248936,4.006926120859272,3.8114827450512827,-12.580473842729658,-12.64839783390025,0.6716969068205758,-1.329484949419931
18.39383578300476,-0.1468713879585266,-0.07213783264160156,-8.238014221191406,0.013920800058696645,0.0020563602447509766,0.11495685577392578,3.904353461763425,-12.461675060204257,-0.3456853854824497,0.7505945418327863,-0.5825796385292217,0.06877057899193538,-0.04441803717482938,4.056395907324002,3.7614768399630623,-12.521598697140844,-12.64683874331992,0.6716969068205758,-1.329484949419931
18.40411901473999,-0.15243984758853912,-0.0783863365650177,-8.198763847351074,0.013617888651496308,0.002370119094848633,0.11495685577392578,3.901538754143774,-12.418156118794696,-0.37568538548244973,0.7509743686125411,-0.5431409172762578,0.06902517269195296,-0.04622178430004286,4.133374393016426,3.6830807743805094,-12.43666491464292,-12.665360042023993,0.6716969068205758,-1.329484949419931
18.41376519203186,-0.15243984758853912,-0.0783863365650177,-8.198763847351074,0.013617888651496308,0.0026679039001464844,0.11495685577392578,3.897921532719959,-12.371378407583908,-0.40568538548244976,0.7502269734129607,-0.6136206702440747,0.0692079298227336,-0.04682629612879492,4.259389312374904,3.5545840194389258,-12.305417065817645,-12.724145279061986,0.6716969068205758,-1.329484949419931
18.530381679534912,-0.15243984758853912,-0.0783863365650177,-8.198763847351074,0.013617888651496308,0.0022919178009033203,0.1090078353881836,3.89343611414326,-12.321239131161816,-0.4356853854824498,0.7427264168504871,-0.6968367430581504,0.06892330062385657,-0.047608726932936836,4.471885659398072,3.338366164452032,-12.085602898400152,-12.865342823847621,0.6716969068205758,-1.329484949419931
18.53911018371582,-0.18159203231334686,-0.12621265649795532,-7.862429618835449,0.007692200297418381,0.002120494842529297,0.1090078353881836,3.8880262245561967,-12.267621395128266,-0.4656853854824498,0.7507290910965023,0.2645804450848742,0.07811220590548337,-0.04578783053991014,4.831178639526046,2.9739466956662204,-11.698478932455515,-13.16756078817231,0.35623341488690685,-1.2366868204841615
18.544293642044067,-0.18159203231334686,-0.12621265649795532,-7.862429618835449,0.007692200297418381,0.002045869827270508,0.1090078353881836,3.9092120024330037,-12.623847848661374,-0.20568538548244958,0.7500184257265736,0.24149900447343997,0.07891622551679575,-0.047015062880878894,3.9209381686690157,3.894560393754137,-12.703636721803527,-12.70749699931605,0.35623341488690685,-1.2366868204841615
18.553972244262695,-0.18159203231334686,-0.12621265649795532,-7.862429618835449,0.007692200297418381,0.0023009777069091797,0.1090078353881836,3.9090701035270223,-12.59462190731878,-0.2356853854824496,0.7493101419061978,0.2185291738181856,0.07920771466856047,-0.048302979157143884,3.932950210759075,3.8836589845884197,-12.682940340898721,-12.691598795663246,0.35623341488690685,-1.2366868204841615
18.563753128051758,-0.18255741894245148,-0.13147592544555664,-7.82567834854126,0.006719689515191196,0.0019996166229248047,0.1090078353881836,3.9085185215978444,-12.562415237901382,-0.26568538548244963,0.7494767102796717,0.32787045959436845,0.08145188464097683,-0.050710676845864326,3.9498661906726094,3.8677220617065537,-12.656863144148552,-12.675068248468126,0.35623341488690685,-1.2366868204841615
18.574045181274414,-0.18255741894245148,-0.13147592544555664,-7.82567834854126,0.006719689515191196,0.0022280216217041016,0.1090078353881836,3.907464935538777,-12.527197272004285,-0.29568538548244966,0.7487739323097374,0.3051179747275329,0.08209709537385212,-0.0503631820668931,3.9734432799715873,3.8448076608874597,-12.623713480388005,-12.659653770893048,0.35623341488690685,-1.2366868204841615
18.583758115768433,-0.1837003380060196,-0.1399640589952469,-7.770392417907715,0.005088430589229927,0.002376079559326172,0.1090078353881836,3.905820254907446,-12.488921378745376,-0.3256853854824497,0.749291365234089,0.4919468553541965,0.08527949852261274,-0.05280435910606102,4.006926120859272,3.8114827450512827,-12.580473842729658,-12.64839783390025,0.35623341488690685,-1.2366868204841615
18.593912601470947,-0.1837003380060196,-0.1399640589952469,-7.770392417907715,0.005088430589229927,0.0021162033081054688,0.1090078353881836,3.9034999902173237,-12.44752508599088,-0.3556853854824497,0.7485942500731897,0.46940373481219744,0.0859709355036086,-0.050618187655303515,4.056395907324002,3.7614768399630623,-12.521598697140844,-12.64683874331992,0.35623341488690685,-1.2366868204841615
18.603929042816162,-0.18447868525981903,-0.14922018349170685,-7.715071678161621,0.003406206014680009,0.0022792816162109375,0.1090078353881836,3.900425605411244,-12.402930412956147,-0.38568538548244974,0.748959152878557,0.637206058499876,0.08818804019314379,-0.05177112781837998,4.133374393016426,3.6830807743805094,-12.43666491464292,-12.665360042023993,0.35623341488690685,-1.2366868204841615
18.613738536834717,-0.18447868525981903,-0.14922018349170685,-7.715071678161621,0.003406206014680009,0.002577543258666992,0.1090078353881836,3.8965258440168062,-12.355044311592275,-0.41568538548244977,0.7482673377884479,0.6148645138983674,0.08836798513401235,-0.04819160622818859,4.259389312374904,3.5545840194389258,-12.305417065817645,-12.724145279061986,0.35623341488690685,-1.2366868204841615
18.624103546142578,-0.18480494618415833,-0.1558503955602646,-7.678160667419434,0.0022637886102995566,0.00257110595703125,0.1090078353881836,3.891738020861633,-12.303759213503982,-0.4456853854824498,0.7483411609107423,0.6963905610053754,0.08878775005006305,-0.047349402481246756,4.471885659398072,3.338366164452032,-12.085602898400152,-12.865342823847621,0.35623341488690685,-1.2366868204841615
18.633737802505493,-0.18480494618415833,-0.1558503955602646,-7.678160667419434,0.0022637886102995566,0.002258777618408203,0.1090078353881836,3.8860092716534798,-12.248953678536484,-0.475239258726224,0.7476541281646393,0.6742433222427506,0.08847722585663562,-0.044439951714944685,4.831178639526046,2.9739466956662204,-11.698478932455515,-13.16756078817231,0.2023645968442105,-0.9729146544887828
18.64390754699707,-0.18498307466506958,-0.16285096108913422,-7.641202449798584,0.0011158068285452918,0.002121448516845703,0.1090078353881836,3.882562442537497,-12.606229469572884,-0.23456079845364797,0.7477656529054183,0.7384984533172332,0.08838230610824904,-0.04336008444313913,3.8962787515161748,3.8690376454465074,-12.610492732501362,-12.620610978462478,0.2023645968442105,-0.9729146544887828
18.761101245880127,-0.18498307466506958,-0.16285096108913422,-7.641202449798584,0.0011158068285452918,0.0020513534545898438,0.11064767837524414,3.8819227710925954,-12.576370180701664,-0.264560798453648,0.7446924144701118,0.5588666684738369,0.08777525456178471,-0.04069223091228117,3.9080964339556807,3.8563004577591675,-12.576466311531552,-12.596813698769692,0.2023645968442105,-0.9729146544887828
18.769545555114746,-0.17635014653205872,-0.22638572752475739,-7.371284008026123,-0.007829327811466311,0.0021533966064453125,0.11064767837524414,3.8806773197705957,-12.54363959746146,-0.294560798453648,0.7501980107822923,0.6949744259220976,0.08257703023181266,-0.029243888941586773,3.925225028674652,3.8371065520458507,-12.536150029971271,-12.573593885956141,0.1750349361482466,-1.1002769736656464
18.776473999023438,-0.17635014653205872,-0.22638572752475739,-7.371284008026123,-0.007829327811466311,0.002022981643676758,0.11064767837524414,3.8787302414988836,-12.507981540744941,-0.32456079845364805,0.749574481613425,0.6743159519094027,0.08016426817983509,-0.018741318264803835,3.9501403051068555,3.808785578328633,-12.48743482222559,-12.552959115452035,0.1750349361482466,-1.1002769736656464
18.783803939819336,-0.17463251948356628,-0.23589026927947998,-7.33535099029541,-0.008912949902289441,0.0027534961700439453,0.11064767837524414,3.87599093616013,-12.469323725116867,-0.3545607984536481,0.7498457394124999,0.6282721112777552,0.07732971944748744,-0.010995187560682204,3.987343929510673,3.7666508678329578,-12.426684891423848,-12.538411277277405,0.1750349361482466,-1.1002769736656464
18.793888092041016,-0.17374595999717712,-0.24069449305534363,-7.3173627853393555,-0.009441396276114965,0.002211332321166992,0.11064767837524414,3.872375408916012,-12.427578138741444,-0.3845607984536481,0.7496780294546502,0.592227384079455,0.0756278767838195,-0.007248116506010063,4.04501365704912,3.7023519736884216,-12.347391830548606,-12.53629314108454,0.1750349361482466,-1.1002769736656464
18.804063081741333,-0.1728413999080658,-0.24552766978740692,-7.299361705780029,-0.009959891033791865,0.002320528030395508,0.11064767837524414,3.867807598728208,-12.382641531865978,-0.4145607984536481,0.749517553549167,0.5544424810936697,0.07432956255000445,-0.005040507195676822,4.138124157852102,3.6007565236164023,-12.236399108388795,-12.559564775507862,0.1750349361482466,-1.1002769736656464
18.813753366470337,-0.17114494740962982,-0.2505227029323578,-7.2821879386901855,-0.01046737248603401,0.0021953582763671875,0.11064767837524414,3.8622206689820984,-12.334396010393682,-0.44456079845364815,0.7493132455605357,0.5159033215341549,0.07375681580261541,-0.0037925012426188623,4.293445391716297,3.4349544534889067,-12.067706251285067,-12.63400048435331,0.1750349361482466,-1.1002769736656464
18.824111700057983,-0.16775450110435486,-0.26056769490242004,-7.247747898101807,-0.01146570719188766,0.0022809505462646484,0.11064767837524414,3.8555582525579686,-12.28270973046576,-0.4745607984536482,0.7495269571408898,0.4557217746902149,0.07302474355895541,-0.0016446658978632063,4.5545047682900766,3.1612983692975845,-11.788264026283233,-12.812394946246918,0.1750349361482466,-1.1002769736656464
18.833752632141113,-0.1660601794719696,-0.2656092941761017,-7.230485916137695,-0.011946618924516225,0.0022509098052978516,0.11064767837524414,3.8477756441769957,-12.22743768942069,-0.5045607984536482,0.7493274913761184,0.4137564228731819,0.07255071073808321,-0.0009133154520334036,4.997613732140026,2.7033793834606126,-11.298348335669695,-13.194190838858894,0.23089989262732832,-0.7547867773589183
18.843833208084106,-0.1643664836883545,-0.2706581652164459,-7.213198184967041,-0.01241228655832427,0.0022497177124023438,0.11064767837524414,3.8824104367190886,-12.596592609817998,-0.24456079845364798,0.7491344327558258,0.37081053494492994,0.07215051743366208,-0.0004088959795703923,3.8962787515161748,3.8690376454465074,-12.610492732501362,-12.620610978462478,0.23089989262732832,-0.7547867773589183
18.85401201248169,-0.16267335414886475,-0.27571019530296326,-7.195886611938477,-0.012859579057648724,0.0023849010467529297,0.11064767837524414,3.881579755609417,-12.565781458439044,-0.274560798453648,0.7489483956301501,0.3269066413517138,0.07179124540865851,-5.517305420167151e-05,3.9080964339556807,3.8563004577591675,-12.576466311531552,-12.596813698769692,0.23089989262732832,-0.7547867773589183
18.863720417022705,-0.1592889279127121,-0.285807341337204,-7.161264419555664,-0.013707374361818686,0.0019867420196533203,0.11064767837524414,3.880110847423352,-12.532082094809809,-0.30456079845364803,0.7492191451397404,0.2570961958184498,0.07106164453407085,0.0013799193455714062,3.925225028674652,3.8371065520458507,-12.536150029971271,-12.573593885956141,0.23089989262732832,-0.7547867773589183
