time,x,y,z,yaw,ctrl_comp_time,rollout_comptime,y_ref,z_ref,yaw_ref,throttle,roll_rate,pitch_rate,yaw_rate,save_tube_pyH,save_tube_pyL,save_tube_pzH,save_tube_pzL,wy,wz
15.006336688995361,0.039369236677885056,3.930528402328491,-12.69295883178711,12.571564707308466,0.18245911598205566,0.11914181709289551,3.9290431243948842,-12.629764354046976,-0.12440824586492688,0.5898957170887837,-1.0,-0.0005672910226467805,0.01421763215422617,3.9537333169875497,3.904799290385757,-12.632073653556215,-12.639773901810948,-0.1287568164440337,0.29043830968983153
15.584062099456787,0.039369236677885056,3.930528402328491,-12.69295883178711,12.571564707308466,0.17828893661499023,0.10744643211364746,3.928566817742261,-12.616425500009441,-0.1444082458649269,0.5897073694308778,-1.0,-0.010383865186141445,0.010176636959897256,3.9634498010182777,3.89417232770905,-12.61679454542472,-12.629734465404978,-0.1287568164440337,0.29043830968983153
15.797709941864014,0.021943029016256332,3.8962535858154297,-12.687565803527832,12.568172540476487,0.0032227039337158203,0.12637996673583984,3.928028375189121,-12.601734126953959,-0.16440824586492692,0.5909095948552527,-0.9938385535192628,-0.03762445929109685,-0.022791221369308612,3.9757270133162104,3.88088707540076,-12.598718596925597,-12.619778229779197,-0.09086434696251292,-5.3190333997103725
15.807223558425903,0.021943029016256332,3.8962535858154297,-12.687565803527832,12.568172540476487,0.0024678707122802734,0.12637996673583984,3.92740076224021,-12.58569650413333,-0.18440824586492693,0.5895443409427027,-1.0,-0.09727865093740652,-0.14211990252179077,3.9912280593840337,3.8642267763556086,-12.577219507094703,-12.610547147218295,-0.04754942243241948,-6.844677357072577
15.817321538925171,0.02394716627895832,3.8964481353759766,-12.687238693237305,12.567919980605659,0.003676176071166992,0.12637996673583984,3.9266566599107984,-12.568315763342017,-0.20440824586492695,0.5880778618145391,-1.0,-0.27246697443068735,-0.4710599512608954,4.01095436618618,3.8431356056535178,-12.551361597570637,-12.602986304515989,-0.04754942243241948,-6.844677357072577
15.82521367073059,0.02394716627895832,3.8964481353759766,-12.687238693237305,12.567919980605659,0.0033190250396728516,0.12637996673583984,3.9257686435143344,-12.549591874375777,-0.22440824586492697,0.5867001450187217,-1.0,-0.4307268821014812,-0.6355299756304477,4.0364304415359715,3.8160342669089222,-12.519750318419579,-12.598493358079562,-0.04754942243241948,-6.844677357072577
15.834161758422852,0.025219915434718132,3.8965773582458496,-12.686878204345703,12.56775125166304,0.0035338401794433594,0.12637996673583984,3.9247093628763157,-12.529521630522478,-0.244408245864927,0.5858211589629164,-1.0,-0.5415088174710369,-0.7177649878152238,4.069991669210188,3.780532556295159,-12.48027127435072,-12.599179468653947,-0.04754942243241948,-6.844677357072577
15.975335359573364,0.025219915434718132,3.8965773582458496,-12.686878204345703,12.56775125166304,0.0029795169830322266,0.13240337371826172,3.923451723426052,-12.508098644111081,-0.264408245864927,0.5903092538471303,-1.0,-0.6190561722297259,-0.7588824939076119,4.115224251718924,3.7329897812169004,-12.429662511543972,-12.608296995531274,-0.04754942243241948,-6.844677357072577
15.98958158493042,0.03611366078257561,3.896030902862549,-12.657698631286621,12.550986810776369,0.003737926483154297,0.13240337371826172,3.9219690676221304,-12.485313352112508,-0.284408245864927,0.6174359472409319,-0.18146722549263483,-0.6733393205608081,-0.779441246953806,4.177603777190466,3.667876556077887,-12.362801628454362,-12.630952386901958,-0.03338282144575194,-5.7572307082075875
15.999157667160034,0.03611366078257561,3.896030902862549,-12.657698631286621,12.550986810776369,0.003549814224243164,0.13240337371826172,3.92023535617356,-12.46115303175394,-0.30440824586492704,0.6161178553396255,-0.24508049761250295,-0.7113375243925657,-0.7897206234769031,4.265327592938155,3.5769427914942407,-12.271523280639338,-12.675288696256125,-0.03338282144575194,-5.7572307082075875
16.00816512107849,0.038153767585754395,3.8948757648468018,-12.647414207458496,12.546323156807135,0.0030477046966552734,0.13240337371826172,3.9182253485266925,-12.435601826076867,-0.32440824586492706,0.6202219814884725,-0.0868536820923983,-0.737936267074796,-0.7948603117384515,4.390136388867646,3.448396472726592,-12.142768331036827,-12.754336473299151,-0.03338282144575194,-5.7572307082075875
16.01548433303833,0.038153767585754395,3.8948757648468018,-12.647414207458496,12.546323156807135,0.0037860870361328125,0.13240337371826172,3.915914782097975,-12.408640779339121,-0.3444082458649271,0.618903573988786,-0.15618027732376683,-0.7565553869523572,-0.7974301558692257,4.567517968634905,3.2667002483703635,-11.956194542663168,-12.888403132242388,-0.03338282144575194,-5.7572307082075875
16.024844646453857,0.03966132178902626,3.8937904834747314,-12.639521598815918,12.543031718533765,0.0028085708618164062,0.13240337371826172,3.9275748550593845,-12.644544249011389,-0.1137184204830841,0.6211478234483403,-0.06907333239980384,-0.7695887708666501,-0.7987150779346129,3.948002127803094,3.9075349761585945,-12.647589822719022,-12.653417220658389,-0.03338282144575194,-5.7572307082075875
16.033695220947266,0.04046816751360893,3.8931386470794678,-12.635294914245605,12.541356345372837,0.0035011768341064453,0.13240337371826172,3.9271726040184314,-12.631605060504931,-0.1337184204830841,0.6214637240214373,-0.06291894620992522,-0.7787121396066551,-0.7993575389673065,3.956684185782866,3.8980704162805826,-12.633265605905535,-12.643222930050692,-0.03338282144575194,-5.7572307082075875
16.042701721191406,0.04141274839639664,3.8916749954223633,-12.627434730529785,12.537979488245906,0.0035779476165771484,0.13240337371826172,3.9267284424806053,-12.617313934732499,-0.15371842048308412,0.6232471841880561,0.013523564453174153,-0.7850984977246586,-0.7996787694836532,3.967701444244962,3.886213431848181,-12.616386530642696,-12.632869303293228,-0.03338282144575194,-5.7572307082075875
16.053027153015137,0.04196212440729141,3.8908119201660156,-12.623204231262207,12.536283617346491,0.005652666091918945,0.13240337371826172,3.926215379599765,-12.601678870823601,-0.17371842048308414,0.6234573879016755,0.006811148129411526,-0.789568948407261,-0.7998393847418267,3.981597476802245,3.871366978192184,-12.596432328948085,-12.622895704723296,-0.03338282144575194,-5.7572307082075875
16.067188024520874,0.04196212440729141,3.8908119201660156,-12.623204231262207,12.536283617346491,0.003662109375,0.13240337371826172,3.925606046039459,-12.584704741292885,-0.19371842048308416,0.6221203826246391,-0.07474526847221419,-0.7926982638850827,-0.7999196923709133,3.9991906310911953,3.852658303245035,-12.572635243776638,-12.614082771710658,-0.03338282144575194,-5.7572307082075875
16.20952081680298,0.06373544782400131,3.8577799797058105,-12.518524169921875,12.500924442626475,0.005330801010131836,0.13120484352111816,3.924872871994447,-12.566393262301556,-0.21371842048308418,0.6556136487236423,0.015454026215908634,-0.5979478536344369,-0.7999598461854567,4.021721476989707,3.828791853242089,-12.5438491333082,-12.60758324093761,-0.26848114283732694,-2.588440635327838
16.22378635406494,0.06373544782400131,3.8577799797058105,-12.518524169921875,12.500924442626475,0.004822969436645508,0.13120484352111816,3.9239882669231734,-12.546742973928726,-0.2337184204830842,0.654178724629661,-0.0912041246305888,-0.4938555960450606,-0.7999799230927284,4.051084726906431,3.79781771032391,-12.508351527690253,-12.60511984217365,-0.26848114283732694,-2.588440635327838
16.23928952217102,0.072547547519207,3.84559965133667,-12.488548278808594,12.491043268880375,0.004757404327392578,0.13120484352111816,3.9229248004413946,-12.525749230497041,-0.2537184204830842,0.6598051905211364,0.0037276602784555024,-0.35406829092708453,-0.7999899615463643,4.090188515679079,3.7567726734012568,-12.463505989033061,-12.609322908870451,-0.26848114283732694,-2.588440635327838
16.2527916431427,0.072547547519207,3.84559965133667,-12.488548278808594,12.491043268880375,0.003614664077758789,0.13120484352111816,3.9216553838301818,-12.503404200963454,-0.2737184204830842,0.6586195637341272,-0.1150713323764938,-0.27096240556364654,-0.7999949807731822,4.143492033632465,3.70114298763481,-12.405206547651696,-12.62428593263767,-0.26848114283732694,-2.588440635327838
16.263161659240723,0.08317890018224716,3.8315517902374268,-12.45547866821289,12.479950650645916,0.003018617630004883,0.13120484352111816,3.9201534516166388,-12.479696879353156,-0.2937184204830842,0.6637367759824482,-0.017838981047406,-0.13971595763424774,-0.792877613003746,4.217752610547802,3.6241176236892154,-12.326949523768317,-12.656493752374878,-0.26848114283732694,-2.588440635327838
16.273404836654663,0.08615600317716599,3.827730655670166,-12.446765899658203,12.476817756927543,0.0028672218322753906,0.13120484352111816,3.918393142692809,-12.454613105182988,-0.31371842048308424,0.6639958657464261,-0.08707228790403476,-0.0430462159940177,-0.5823430261511423,4.322904734631578,3.515709621596423,-12.218325417025254,-12.71633069563313,-0.1711533756272075,-1.1790580287358472
16.282697916030884,0.09199687838554382,3.819645643234253,-12.42914867401123,12.470047277561358,0.0034644603729248047,0.13120484352111816,3.916349480447261,-12.428135593789925,-0.33371842048308425,0.6656823463073088,-0.10420423059981809,0.14560067248909211,-0.3558734315024838,4.472641899270908,3.362174605380938,-12.062821269110415,-12.820278266766296,-0.1711533756272075,-1.1790580287358472
16.292593240737915,0.09487166255712509,3.815382957458496,-12.420183181762695,12.466427160872536,0.0038819313049316406,0.13120484352111816,3.9271707990918987,-12.63162671854443,-0.1337184204830841,0.6659478616594867,-0.18040954143606658,0.3419204707423645,0.05624639819284499,3.956682559047631,3.8980691808165755,-12.633280858267455,-12.643244981442967,-0.1711533756272075,-1.1790580287358472
16.303133964538574,0.09790059179067612,3.810991048812866,-12.411053657531738,12.462660531958397,0.003326416015625,0.13120484352111816,3.926725712670395,-12.617342209892586,-0.15371842048308412,0.66621007098039,-0.25986840263211786,0.47934432951965517,0.42812319909642255,3.967698909851262,3.8862114929041685,-12.616405928352478,-12.63289964061314,-0.1711533756272075,-1.1790580287358472
16.434720516204834,0.09790059179067612,3.810991048812866,-12.411053657531738,12.462660531958397,0.0035288333892822266,0.12296772003173828,3.92621146620662,-12.601714534193981,-0.17371842048308414,0.6570101822447649,-1.0,0.5755410306637586,0.6140615995482113,3.9815938080014717,3.8713640716545217,-12.59645593088495,-12.622935854040808,-0.1711533756272075,-1.1790580287358472
16.444709539413452,0.1707252562046051,3.720499277114868,-12.248108863830566,12.400009964809607,0.003518342971801758,0.12296772003173828,3.92560066590763,-12.584748518850784,-0.19371842048308416,0.6747399333903938,-0.06343643602170623,0.642878721464631,0.7070307997741057,3.9991856590288726,3.8526540554037028,-12.572662906333926,-12.614134374460466,-0.2824315596407849,-1.424260178640465
16.45291829109192,0.1707252562046051,3.720499277114868,-12.248108863830566,12.400009964809607,0.0032148361206054688,0.12296772003173828,3.9248657204417676,-12.566445831990116,-0.21371842048308418,0.6735205529490349,-0.20588667301762476,0.6900151050252417,0.7535153998870529,4.021715181074961,3.828785696095037,-12.543880452770313,-12.607648105455004,-0.2824315596407849,-1.424260178640465
16.462693691253662,0.19055341184139252,3.698392391204834,-12.214170455932617,12.391025881732682,0.0030133724212646484,0.12296772003173828,3.9239790208444254,-12.546804962988341,-0.2337184204830842,0.6760606769867865,-0.11977468625744403,0.7230105735176692,0.7767576999435265,4.0510773946851355,3.7978087277417676,-12.508385739537584,-12.605200038796433,-0.2824315596407849,-1.424260178640465
16.473313808441162,0.20436805486679077,3.6830272674560547,-12.190909385681152,12.385642775438168,0.0027718544006347656,0.12296772003173828,3.922913121567003,-12.525821213060624,-0.2537184204830842,0.6773156410263546,-0.10567367761115964,0.7461074014623684,0.7883788499717632,4.09018102314839,3.7567593271794215,-12.46354175239824,-12.609420980406716,-0.19038977450233757,-1.2147349400446155
16.482707262039185,0.20436805486679077,3.6830272674560547,-12.190909385681152,12.385642775438168,0.003621816635131836,0.12296772003173828,3.9216409221216573,-12.50348669592521,-0.2737184204830842,0.676309756556644,-0.2607176648817995,0.7622751810236579,0.7941894249858816,4.143486325814143,3.7011226435789846,-12.405241504353656,-12.624405330793534,-0.19038977450233757,-1.2147349400446155
16.49260926246643,0.22596459090709686,3.6590187549591064,-12.155353546142578,12.378468339236983,0.0033369064331054688,0.12296772003173828,3.9201358487796645,-12.479790348519186,-0.2937184204830842,0.6783375768331592,-0.15033813183008526,0.7735926267165605,0.7970947124929408,4.217752486216745,3.624085773800236,-12.326979411956037,-12.656639720128213,-0.19038977450233757,-1.2147349400446155
16.50315570831299,0.22596459090709686,3.6590187549591064,-12.155353546142578,12.378468339236983,0.003475666046142578,0.12296772003173828,3.9183720357884253,-12.454717951710665,-0.31371842048308424,0.677339174779551,-0.31200851576383637,0.7815148387015923,0.7985473562464704,4.322916995609768,3.5156587419055203,-12.218342379672261,-12.716511955327475,-0.19038977450233757,-1.2147349400446155
16.51266860961914,0.24091961979866028,3.6423499584198,-12.131134986877441,12.37435886636844,0.00302886962890625,0.12296772003173828,3.916324505581251,-12.428252160921629,-0.33371842048308425,0.6782747662330812,-0.29695379362176866,0.7870603870911147,0.7992736781232352,4.472677612748077,3.3620929009346514,-12.06281100727043,-12.820509864027091,-0.19038977450233757,-1.2147349400446155
16.5226948261261,0.24091961979866028,3.6423499584198,-12.131134986877441,12.37435886636844,0.0031626224517822266,0.12296772003173828,3.9139693474649486,-12.400372546546247,-0.3537184204830843,0.6773056105311482,-0.46541690945136605,0.7909422709637802,0.7996368390616176,4.685177356095209,3.1451962997221616,-11.835548686991851,-12.993432268483456,-0.19038977450233757,-1.2147349400446155
16.532751321792603,0.26475420594215393,3.615551710128784,-12.094552040100098,12.369089704199855,0.0034139156341552734,0.12296772003173828,3.926955201377716,-12.624652784482807,-0.14371842048308411,0.6791211530527257,-0.36423201922497783,0.7936595896746461,0.7998184195308089,3.956682559047631,3.8980691808165755,-12.633280858267455,-12.643244981442967,-0.19038977450233757,-1.2147349400446155
16.67538094520569,0.26475420594215393,3.615551710128784,-12.094552040100098,12.369089704199855,0.0030646324157714844,0.13286495208740234,3.9264789398279976,-12.609695892462877,-0.16371842048308413,0.6734117602259412,-1.0,0.7955617127722523,0.7999092097654045,3.967698909851262,3.8862114929041685,-12.616405928352478,-12.63289964061314,-0.19038977450233757,-1.2147349400446155
16.68531823158264,0.4218927025794983,3.4331908226013184,-11.87767219543457,12.358926931027042,0.0033936500549316406,0.13286495208740234,3.9259198572162886,-12.593398640397194,-0.18371842048308415,0.6874643928952289,0.5940312127418848,0.7968931989405766,0.7999546048827023,3.9815938080014717,3.8713640716545217,-12.59645593088495,-12.622935854040808,-0.31367086029561914,-1.8595451762868547
16.69284963607788,0.4218927025794983,3.4331908226013184,-11.87767219543457,12.358926931027042,0.003101825714111328,0.13286495208740234,3.925250438585,-12.575764279112656,-0.20371842048308417,0.68632433500078,0.42948148484505033,0.7978252392584037,0.7999773024413512,3.9991856590288726,3.8526540554037028,-12.572662906333926,-12.614134374460466,-0.31367086029561914,-1.8595451762868547
16.702710151672363,0.4549257755279541,3.396188735961914,-11.839205741882324,12.36083310157513,0.006050586700439453,0.13286495208740234,3.924443061213452,-12.556792889167005,-0.22371842048308418,0.6877753367438774,0.6004896383169671,0.7984776674808826,0.7999886512206756,4.021715181074961,3.828785696095037,-12.543880452770313,-12.607648105455004,-0.31367086029561914,-1.8595451762868547
16.717099905014038,0.4549257755279541,3.396188735961914,-11.839205741882324,12.36083310157513,0.0056307315826416016,0.13286495208740234,3.9234701751639065,-12.536481366402473,-0.2437184204830842,0.6868689226248643,0.42711971178226005,0.7989343672366178,0.7999943256103379,4.0510773946851355,3.7978087277417676,-12.508385739537584,-12.605200038796433,-0.31367086029561914,-1.8595451762868547
16.731717348098755,0.47687849402427673,3.370943307876587,-11.812968254089355,12.362530445379882,0.003289461135864258,0.13286495208740234,3.9223044846965642,-12.51482341757359,-0.2637184204830842,0.6874399958036895,0.48164859067837207,0.7992540570656325,0.799997162805169,4.09018102314839,3.7567593271794215,-12.46354175239824,-12.609420980406716,-0.31367086029561914,-1.8595451762868547
16.740756034851074,0.49873843789100647,3.3452179431915283,-11.786373138427734,12.3646269496708,0.002956390380859375,0.13286495208740234,3.920919130008491,-12.49180956604212,-0.2837184204830842,0.6878851983046135,0.5231610285414385,0.7994778399459427,0.7999985814025845,4.143486325814143,3.7011226435789846,-12.405241504353656,-12.624405330793534,-0.31367086029561914,-1.8595451762868547
16.748175382614136,0.49873843789100647,3.3452179431915283,-11.786373138427734,12.3646269496708,0.003239870071411133,0.13286495208740234,3.9192878687576447,-12.467427167499864,-0.30371842048308423,0.6870271923806865,0.3393451099779261,0.79963448796216,0.7999992907012923,4.217752486216745,3.624085773800236,-12.326979411956037,-12.656639720128213,-0.31367086029561914,-1.8595451762868547
16.757274627685547,0.5204811692237854,3.3190064430236816,-11.759431838989258,12.367168786998024,0.003011465072631836,0.13286495208740234,3.917385256841365,-12.441660435648757,-0.32371842048308425,0.6875923553868724,0.35225279323086145,0.799744141573512,0.7999996453506462,4.322916995609768,3.5156587419055203,-12.218342379672261,-12.716511955327475,-0.31367086029561914,-1.8595451762868547
16.767833948135376,0.5204811692237854,3.3190064430236816,-11.759431838989258,12.367168786998024,0.00574183464050293,0.13286495208740234,3.915186827908686,-12.414490477737651,-0.34371842048308426,0.6867478790907025,0.1617188616168146,0.7998208991014585,0.7999998226753231,4.472677612748077,3.3620929009346514,-12.06281100727043,-12.820509864027091,-0.31367086029561914,-1.8595451762868547
16.78545594215393,0.5635253190994263,3.265145778656006,-11.704405784606934,12.373537722211797,0.005631685256958008,0.13286495208740234,3.9126692710975473,-12.385895339826297,-0.3637184204830843,0.6889072740364439,0.3117300653856807,0.7998746293710209,0.7999999113376616,4.685177356095209,3.1451962997221616,-11.835548686991851,-12.993432268483456,-0.2169457799792327,-1.7285218229898995
16.936044931411743,0.5635253190994263,3.265145778656006,-11.704405784606934,12.373537722211797,0.0037412643432617188,0.13630342483520508,3.926725712670395,-12.617342209892586,-0.15371842048308412,0.688001875753445,-1.0,0.7999122405597147,0.7999999556688309,3.956682559047631,3.8980691808165755,-12.633280858267455,-12.643244981442967,-0.2169457799792327,-1.7285218229898995
16.949679374694824,0.7770279049873352,2.956876754760742,-11.427566528320312,12.42836426995662,0.0033910274505615234,0.13630342483520508,3.92621146620662,-12.601714534193981,-0.17371842048308414,0.7025125190756794,0.25792517310802543,0.7999385683918003,0.740654064121289,3.967698909851262,3.8862114929041685,-12.616405928352478,-12.63289964061314,-0.14383587663978353,-1.6477363910795537
16.957754373550415,0.7770279049873352,2.956876754760742,-11.427566528320312,12.42836426995662,0.003329038619995117,0.13630342483520508,3.92560066590763,-12.584748518850784,-0.19371842048308416,0.7015076644661282,0.06657193173229015,0.7999569978742602,0.6762312739084504,3.9815938080014717,3.8713640716545217,-12.59645593088495,-12.622935854040808,-0.14383587663978353,-1.6477363910795537
16.967652320861816,0.796719491481781,2.924187421798706,-11.399292945861816,12.435478936643666,0.0035567283630371094,0.13630342483520508,3.9248657204417676,-12.566445831990116,-0.21371842048308418,0.7024118766337446,-0.005116506591209435,0.7999698985119822,0.6827229432920959,3.9991856590288726,3.8526540554037028,-12.572662906333926,-12.614134374460466,-0.14383587663978353,-1.6477363910795537
16.976987838745117,0.796719491481781,2.924187421798706,-11.399292945861816,12.435478936643666,0.0035593509674072266,0.13630342483520508,3.9239790208444254,-12.546804962988341,-0.2337184204830842,0.7016050098858595,-0.20457393372710708,0.7999789289583875,0.689892513509157,4.021715181074961,3.828785696095037,-12.543880452770313,-12.607648105455004,0.12906475574879223,-1.0653478612879308
16.98684597015381,0.8253093361854553,2.874753952026367,-11.3560209274292,12.446644698511651,0.0036993026733398438,0.13630342483520508,3.922913121567003,-12.525821213060624,-0.2537184204830842,0.7032014434741755,-0.21273923615951673,0.7625962556927912,0.6772548728427277,4.0510773946851355,3.7978087277417676,-12.508385739537584,-12.605200038796433,0.12906475574879223,-1.0653478612879308
16.99519920349121,0.8253093361854553,2.874753952026367,-11.3560209274292,12.446644698511651,0.003841400146484375,0.13630342483520508,3.9216409221216573,-12.50348669592521,-0.2737184204830842,0.7023952007746416,-0.4184703787145143,0.7444890739239204,0.6583267677879476,4.09018102314839,3.7567593271794215,-12.46354175239824,-12.609420980406716,0.12906475574879223,-1.0653478612879308
17.004854917526245,0.8437070846557617,2.8415393829345703,-11.326705932617188,12.45428120413859,0.003288745880126953,0.13630342483520508,3.9201358487796645,-12.479790348519186,-0.2937184204830842,0.7030476633289614,-0.48106463147249356,0.6897771267167739,0.6098956351027235,4.143486325814143,3.7011226435789846,-12.405241504353656,-12.624405330793534,0.12906475574879223,-1.0653478612879308
17.01258134841919,0.8437070846557617,2.8415393829345703,-11.326705932617188,12.45428120413859,0.003474712371826172,0.13630342483520508,3.9183720357884253,-12.454717951710665,-0.31371842048308424,0.7022617666983222,-0.6833779139668439,0.6608366021632724,0.5669126053715623,4.217752486216745,3.624085773800236,-12.326979411956037,-12.656639720128213,0.12906475574879223,-1.0653478612879308
17.02281880378723,0.8615270256996155,2.8081228733062744,-11.296982765197754,12.462051504957662,0.003261089324951172,0.13630342483520508,3.916324505581251,-12.428252160921629,-0.33371842048308425,0.7029652109981772,-0.5822267997109158,0.5930343483990422,0.47251471782093446,4.322916995609768,3.5156587419055203,-12.218342379672261,-12.716511955327475,0.12906475574879223,-1.0653478612879308
17.175813674926758,0.8615270256996155,2.8081228733062744,-11.296982765197754,12.462051504957662,0.0033898353576660156,0.14314055442810059,3.9139693474649486,-12.400372546546247,-0.3537184204830843,0.6895239468563898,-0.3172255938478057,0.5640027392720671,0.4393327466927463,4.472677612748077,3.3620929009346514,-12.06281100727043,-12.820509864027091,0.12906475574879223,-1.0653478612879308
17.186832427978516,0.9999567866325378,2.453383684158325,-10.995343208312988,12.537583175793998,0.0033326148986816406,0.14314055442810059,3.911283894282726,-12.371055644021277,-0.3737184204830843,0.7033692051122196,1.0,0.005262964822174115,0.08211102775150203,4.685177356095209,3.1451962997221616,-11.835548686991851,-12.993432268483456,0.12790244511570384,-1.877904485049363
17.194447994232178,0.9999567866325378,2.453383684158325,-10.995343208312988,12.537583175793998,0.0038661956787109375,0.14314055442810059,3.9264789398279976,-12.609695892462877,-0.16371842048308413,0.7023536341659732,1.0,-0.20361056784511028,0.11201369715793093,3.956682559047631,3.8980691808165755,-12.633280858267455,-12.643244981442967,0.12790244511570384,-1.877904485049363
17.204477310180664,1.0121604204177856,2.3967244625091553,-10.946734428405762,12.547274235029404,0.003219127655029297,0.14314055442810059,3.9259198572162886,-12.593398640397194,-0.18371842048308415,0.7037394028141748,1.0,-0.37019194420418977,0.07390256255628103,3.967698909851262,3.8862114929041685,-12.616405928352478,-12.63289964061314,0.12790244511570384,-1.877904485049363
17.213858366012573,1.0192960500717163,2.3585257530212402,-10.91368293762207,12.55358522218536,0.0034210681915283203,0.14314055442810059,3.925250438585,-12.575764279112656,-0.20371842048308417,0.7043913555643031,1.0,-0.4954693308929344,0.028319109955978455,3.9815938080014717,3.8713640716545217,-12.59645593088495,-12.622935854040808,0.12790244511570384,-1.877904485049363
17.223241329193115,1.0225499868392944,2.3392868041992188,-10.89697551727295,12.556789881924207,0.003262042999267578,0.14314055442810059,3.924443061213452,-12.556792889167005,-0.22371842048308418,0.7042263167325238,1.0,-0.5732907895309041,-0.011873790197378015,3.9991856590288726,3.8526540554037028,-12.572662906333926,-12.614134374460466,0.12790244511570384,-1.877904485049363
17.234722137451172,1.0225499868392944,2.3392868041992188,-10.89697551727295,12.556789881924207,0.0045108795166015625,0.14314055442810059,3.9234701751639065,-12.536481366402473,-0.2437184204830842,0.7034428652401952,1.0,-0.6025708833906952,-0.04798690773442056,4.021715181074961,3.828785696095037,-12.543880452770313,-12.607648105455004,0.12790244511570384,-1.877904485049363
17.244767904281616,1.0284041166305542,2.300507068634033,-10.863343238830566,12.56370290519717,0.004407644271850586,0.14314055442810059,3.9223044846965642,-12.51482341757359,-0.2637184204830842,0.7039993906773481,1.0,-0.6617996183734867,-0.04813753043738202,4.0510773946851355,3.7978087277417676,-12.508385739537584,-12.605200038796433,0.12790244511570384,-1.877904485049363
17.38706350326538,1.0284041166305542,2.300507068634033,-10.863343238830566,12.56370290519717,0.0037779808044433594,0.1310720443725586,3.920919130008491,-12.49180956604212,-0.2837184204830842,0.7033970786177535,1.0,-0.6866464583692731,-0.06044956816997628,4.09018102314839,3.7567593271794215,-12.46354175239824,-12.609420980406716,0.12790244511570384,-1.877904485049363
17.39857840538025,1.0261423587799072,1.9075205326080322,-10.529443740844727,12.632193527262393,0.0034639835357666016,0.1310720443725586,3.9192878687576447,-12.467427167499864,-0.30371842048308423,0.7197856223283118,1.0,-0.7206525208584912,-0.012210268152966235,4.143486325814143,3.7011226435789846,-12.405241504353656,-12.624405330793534,-0.008635135167895103,-2.060727395036132
17.40700078010559,1.0261423587799072,1.9075205326080322,-10.529443740844727,12.632193527262393,0.0033347606658935547,0.1310720443725586,3.917385256841365,-12.441660435648757,-0.32371842048308425,0.7188135497930722,1.0,-0.7444567646009439,0.0008878088344097658,4.217752486216745,3.624085773800236,-12.326979411956037,-12.656639720128213,-0.008635135167895103,-2.060727395036132
17.42003870010376,1.0238088369369507,1.8861231803894043,-10.51108455657959,12.634710328386525,0.005991220474243164,0.1310720443725586,3.915186827908686,-12.414490477737651,-0.34371842048308426,0.7190883199722725,1.0,-0.7611197352206608,-0.002827915148270287,4.322916995609768,3.5156587419055203,-12.218342379672261,-12.716511955327475,-0.008635135167895103,-2.060727395036132
17.434160947799683,1.0238088369369507,1.8861231803894043,-10.51108455657959,12.634710328386525,0.005576610565185547,0.1310720443725586,3.9126692710975473,-12.385895339826297,-0.3637184204830843,0.7182013921693513,1.0,-0.7727838146544626,-0.009436472822380181,4.472677612748077,3.3620929009346514,-12.06281100727043,-12.820509864027091,-0.008635135167895103,-2.060727395036132
17.445618391036987,1.0072072744369507,1.7773796319961548,-10.418163299560547,12.64470878379086,0.005471467971801758,0.1310720443725586,3.909810606501268,-12.355850061619588,-0.3837184204830843,0.7230819269754374,1.0,-0.7809486702581238,-0.03354242679924756,4.685177356095209,3.1451962997221616,-11.835548686991851,-12.993432268483456,-0.008635135167895103,-2.060727395036132
17.456148862838745,1.0072072744369507,1.7773796319961548,-10.418163299560547,12.64470878379086,0.0034072399139404297,0.1310720443725586,3.92621146620662,-12.601714534193981,-0.17371842048308414,0.7221299421042732,1.0,-0.7866640691806867,-0.044231045914461656,3.956682559047631,3.8980691808165755,-12.633280858267455,-12.643244981442967,-0.008635135167895103,-2.060727395036132
17.466520309448242,0.994444727897644,1.7116438150405884,-10.361671447753906,12.648659113998125,0.00532841682434082,0.1310720443725586,3.92560066590763,-12.584748518850784,-0.19371842048308416,0.7246558708966977,1.0,-0.7906648484264807,-0.06725759187201354,3.967698909851262,3.8862114929041685,-12.616405928352478,-12.63289964061314,-0.008635135167895103,-2.060727395036132
17.47758674621582,0.994444727897644,1.7116438150405884,-10.361671447753906,12.648659113998125,0.003470897674560547,0.1310720443725586,3.9248657204417676,-12.566445831990116,-0.21371842048308418,0.7236738666742586,1.0,-0.7934653938985364,-0.07596531669680288,3.9815938080014717,3.8713640716545217,-12.59645593088495,-12.622935854040808,0.25939286364302494,-1.3471501499338934
17.616713047027588,0.8940176963806152,1.3380353450775146,-10.034655570983887,12.650358789535922,0.003371000289916992,0.12813210487365723,3.9239790208444254,-12.546804962988341,-0.2337184204830842,0.7210639460901137,0.7381524363572914,-0.6507751467045795,-0.3104386337980569,3.9991856590288726,3.8526540554037028,-12.572662906333926,-12.614134374460466,0.25939286364302494,-1.3471501499338934
17.62608528137207,0.8940176963806152,1.3380353450775146,-10.034655570983887,12.650358789535922,0.0031747817993164062,0.12813210487365723,3.922913121567003,-12.525821213060624,-0.2537184204830842,0.7198023179669244,0.732021106106081,-0.6495022694939258,-0.21850104875169954,4.021715181074961,3.828785696095037,-12.543880452770313,-12.607648105455004,0.3871134018535233,-1.3461876805274098
17.636014223098755,0.8795077204704285,1.2947591543197632,-9.995539665222168,12.648288706924836,0.003500223159790039,0.12813210487365723,3.9216409221216573,-12.50348669592521,-0.2737184204830842,0.7213702473269444,0.646235201687081,-0.6157158085280382,-0.22069078970855785,4.0510773946851355,3.7978087277417676,-12.508385739537584,-12.605200038796433,0.3871134018535233,-1.3461876805274098
17.6438467502594,0.8795077204704285,1.2947591543197632,-9.995539665222168,12.648288706924836,0.0051882266998291016,0.12813210487365723,3.9201358487796645,-12.479790348519186,-0.2937184204830842,0.7200952771010152,0.6448475235654724,-0.6067398041109068,-0.19745316041031838,4.09018102314839,3.7567593271794215,-12.46354175239824,-12.609420980406716,0.3871134018535233,-1.3461876805274098
17.659544944763184,0.8573506474494934,1.2310552597045898,-9.936678886413574,12.644535767868446,0.004904985427856445,0.12813210487365723,3.9183720357884253,-12.454717951710665,-0.31371842048308424,0.7231862662517063,0.5016751924766729,-0.5621311190530928,-0.2259852400237022,4.143486325814143,3.7011226435789846,-12.405241504353656,-12.624405330793534,0.3871134018535233,-1.3461876805274098
17.66922926902771,0.8573506474494934,1.2310552597045898,-9.936678886413574,12.644535767868446,0.0036177635192871094,0.12813210487365723,3.916324505581251,-12.428252160921629,-0.33371842048308425,0.7218780338405588,0.5059017992549413,-0.5530290955072021,-0.19958261795657717,4.217752486216745,3.624085773800236,-12.326979411956037,-12.656639720128213,0.3871134018535233,-1.3461876805274098
17.68010711669922,0.8348239660263062,1.1689027547836304,-9.877506256103516,12.640019254608143,0.003474712371826172,0.12813210487365723,3.9139693474649486,-12.400372546546247,-0.3537184204830843,0.7250307290224268,0.34759538949285007,-0.5077224785755402,-0.22468283868211877,4.322916995609768,3.5156587419055203,-12.218342379672261,-12.716511955327475,0.4242987660374005,-1.3035418620113473
17.68843674659729,0.8348239660263062,1.1689027547836304,-9.877506256103516,12.640019254608143,0.0034513473510742188,0.12813210487365723,3.911283894282726,-12.371055644021277,-0.3737184204830843,0.7236863457910468,0.35781390341821984,-0.49729497777203824,-0.1985203460176833,4.472677612748077,3.3620929009346514,-12.06281100727043,-12.820509864027091,0.4242987660374005,-1.3035418620113473
17.69762945175171,0.8165364861488342,1.128172516822815,-9.839815139770508,12.636431541596775,0.0032906532287597656,0.12813210487365723,3.908246896563988,-12.340275013378363,-0.3937184204830843,0.7253109656556174,0.2562742756068618,-0.46998400198158324,-0.2040780441636201,4.685177356095209,3.1451962997221616,-11.835548686991851,-12.993432268483456,0.4242987660374005,-1.3035418620113473
17.705559492111206,0.8165364861488342,1.128172516822815,-9.839815139770508,12.636431541596775,0.0033636093139648438,0.12813210487365723,3.898215802446418,-12.6168069991951,-0.14029011492401033,0.7239433682950062,0.2727836767727785,-0.4621065640126333,-0.18718923390741213,3.9327896171194787,3.8633339801769537,-12.61762010441828,-12.630109166480542,0.4242987660374005,-1.3035418620113473
17.715283393859863,0.7891159057617188,1.0685617923736572,-9.782954216003418,12.630284481531193,0.0034112930297851562,0.12813210487365723,3.898487263224022,-12.601698469269744,-0.16029011492401035,0.7271054826470359,0.11864158627208887,-0.4279505032010385,-0.20288938783606777,3.9459099890655045,3.850807563598465,-12.599179059354313,-12.619656850723544,0.4242987660374005,-1.3035418620113473
17.859216690063477,0.7891159057617188,1.0685617923736572,-9.782954216003418,12.630284481531193,0.005166053771972656,0.13427424430847168,3.8986868277404683,-12.585271054938653,-0.18029011492401037,0.711779196943507,1.0,-0.41874556245526273,-0.18296648736807766,3.9622794830296506,3.834916078843336,-12.577333900910302,-12.609964722614864,0.4242987660374005,-1.3035418620113473
17.872036457061768,0.6214524507522583,0.7386578917503357,-9.415549278259277,12.588203628760004,0.0032160282135009766,0.13427424430847168,3.898786437584709,-12.567528540610898,-0.2002901149240104,0.7388382505395139,0.16341961708966213,-0.20753902820625547,-0.38922258767851614,3.98289661023362,3.814605165682789,-12.551141807702447,-12.601986338060895,0.550688413402374,-1.6148822931524836
17.88089394569397,0.6130960583686829,0.7236630320549011,-9.395944595336914,12.58581310147248,0.003403186798095703,0.13427424430847168,3.898757901295221,-12.548471526922588,-0.2202901149240104,0.7386398785926488,0.1743318211044631,-0.21011120367136718,-0.18826891871101667,4.009282031432139,3.788297868432857,-12.519189021210812,-12.59713984581228,0.550688413402374,-1.6148822931524836
17.88904333114624,0.6130960583686829,0.7236630320549011,-9.395944595336914,12.58581310147248,0.0034332275390625,0.13427424430847168,3.898573075225303,-12.528097415032207,-0.24029011492401042,0.7374080008277654,0.2529836083477133,-0.17862407497239968,-0.14504935947956332,4.043767618702382,3.753605934549362,-12.479331151119524,-12.59756764064535,0.550688413402374,-1.6148822931524836
17.90063238143921,0.5965774059295654,0.6943036913871765,-9.356529235839844,12.581030997872308,0.0053141117095947266,0.13427424430847168,3.898204045342312,-12.506400401003283,-0.26029011492401044,0.7390524942771031,0.23564465891074382,-0.14245693150012345,-0.1239768654066579,4.0899396289037595,3.706887003969789,-12.428286749146444,-12.606542768207158,0.550688413402374,-1.6148822931524836
17.911036729812622,0.5965774059295654,0.6943036913871765,-9.356529235839844,12.581030997872308,0.005200386047363281,0.13427424430847168,3.897623309414631,-12.483371480271144,-0.28029011492401046,0.7378067309826315,0.3199882834945861,-0.12837392463936018,-0.0931724758732019,4.153283899323572,3.6425997775897385,-12.361022178178676,-12.629084054734305,0.550688413402374,-1.6148822931524836
17.922221899032593,0.5803350210189819,0.6657817363739014,-9.316977500915527,12.57627580336531,0.0034334659576416016,0.13427424430847168,3.8968039590461974,-12.458998462158023,-0.3002901149240105,0.7394174894254026,0.29805469093993553,-0.09851355821686471,-0.08891018842644609,4.242029700156037,3.5524605291395317,-12.269609209771152,-12.673098528549115,0.550688413402374,-1.6148822931524836
17.932132244110107,0.5643908381462097,0.6381048560142517,-9.277194023132324,12.571747123860456,0.0033888816833496094,0.13427424430847168,3.8957198610263566,-12.433265994369412,-0.3202901149240105,0.7407951625141681,0.26109954735897234,-0.07119472025276453,-0.07486889412748902,4.367986863577874,3.4246063396249165,-12.140493969833877,-12.752112513404485,0.550688413402374,-1.6148822931524836
17.941171407699585,0.5566714406013489,0.6251246333122253,-9.258281707763672,12.569656763867611,0.003262042999267578,0.13427424430847168,3.894345837472643,-12.40615559737431,-0.3402901149240105,0.740798189388248,0.28594544298677627,-0.05333989876715026,-0.055492694977828654,4.5467691882960795,3.243372054401173,-11.953107323581456,-12.886661302438963,0.550688413402374,-1.6148822931524836
17.952029943466187,0.5414680242538452,0.5997905731201172,-9.220295906066895,12.56548560242729,0.0035676956176757812,0.13427424430847168,3.8926578442556057,-12.377645708542953,-0.36029011492401053,0.7420426931496895,0.24149459908056892,-0.032521422750018236,-0.04465541858271231,4.80108181194217,2.986003269472617,-11.67828023333818,-13.105873878924774,0.550688413402374,-1.6148822931524836
17.96070098876953,0.5339873433113098,0.5874375700950623,-9.201224327087402,12.563535794229578,0.0037221908569335938,0.13427424430847168,3.898358776331984,-12.609417955038925,-0.15029011492401034,0.742054035978871,0.26998184764289357,-0.01962849424123088,-0.02874899171562644,3.9327896171194787,3.8633339801769537,-12.61762010441828,-12.630109166480542,0.550688413402374,-1.6148822931524836
18.104845762252808,0.5339873433113098,0.5874375700950623,-9.201224327087402,12.563535794229578,0.0031609535217285156,0.13390469551086426,3.898597780936493,-12.59364931176258,-0.17029011492401036,0.7306826414469262,1.0,-0.01296698422618695,-0.016030890890210335,3.9459099890655045,3.850807563598465,-12.599179059354313,-12.619656850723544,0.550688413402374,-1.6148822931524836
18.118269443511963,0.4009595215320587,0.38835492730140686,-8.811574935913086,12.537191220916068,0.00557708740234375,0.13390469551086426,3.898750887958204,-12.576564072881666,-0.19029011492401038,0.7539063711779885,-0.5852427488181347,0.024440125052148747,-0.02580960591188686,3.9622794830296506,3.834916078843336,-12.577333900910302,-12.609964722614864,0.4068920779381383,-1.3708212750305702
18.128424644470215,0.4009595215320587,0.38835492730140686,-8.811574935913086,12.537191220916068,0.005312681198120117,0.13390469551086426,3.8987899499324983,-12.558164433511541,-0.2102901149240104,0.7521898983403726,-0.48153239264493575,0.031946935527671375,0.011807782669705915,3.98289661023362,3.814605165682789,-12.551141807702447,-12.601986338060895,0.4068920779381383,-1.3708212750305702
18.14002561569214,0.38942623138427734,0.3736294209957123,-8.771921157836914,12.535310879449755,0.0033686161041259766,0.13390469551086426,3.898686776625872,-12.538449395882433,-0.23029011492401041,0.7534016611582106,-0.559838340105663,0.042694515144502114,0.032796806568608144,4.009282031432139,3.788297868432857,-12.519189021210812,-12.59713984581228,0.4068920779381383,-1.3708212750305702
18.152305841445923,0.38942623138427734,0.3736294209957123,-8.771921157836914,12.535310879449755,0.0055615901947021484,0.13390469551086426,3.8984133164367747,-12.517414758676797,-0.25029011492401043,0.7523503177087884,-0.4346672338782793,0.050721127996029805,0.046919252669682596,4.043767618702382,3.753605934549362,-12.479331151119524,-12.59756764064535,0.4068920779381383,-1.3708212750305702
18.16853380203247,0.3675113320350647,0.3467501997947693,-8.692022323608398,12.531934445855109,0.00566411018371582,0.13390469551086426,3.897941838456656,-12.495053116456486,-0.27029011492401045,0.7554507174536248,-0.7515130228063751,0.059496891684777245,0.05906069818883689,4.0899396289037595,3.706887003969789,-12.428286749146444,-12.606542768207158,0.4068920779381383,-1.3708212750305702
18.1852605342865,0.3675113320350647,0.3467501997947693,-8.692022323608398,12.531934445855109,0.004232645034790039,0.13390469551086426,3.897245114647785,-12.471353869160131,-0.29029011492401047,0.7543551296150597,-0.6198294756688041,0.06568775994734753,0.06964434689513156,4.153283899323572,3.6425997775897385,-12.361022178178676,-12.629084054734305,0.14081239771888698,-0.9742209328924962
18.195162534713745,0.35221347212791443,0.3298925757408142,-8.632872581481934,12.529925876216236,0.0054738521575927734,0.13390469551086426,3.896296601601396,-12.446303241619178,-0.3102901149240105,0.7559058845537553,-0.8099390478690414,0.07026506818290487,0.07998830812997088,4.242029700156037,3.5524605291395317,-12.269609209771152,-12.673098528549115,0.14081239771888698,-0.9742209328924962
18.20831322669983,0.35221347212791443,0.3298925757408142,-8.632872581481934,12.529925876216236,0.0034987926483154297,0.13390469551086426,3.8950706213486264,-12.419884313010206,-0.3302901149240105,0.7548935787546419,-0.6698006057513359,0.07440935574326593,0.08697425743292202,4.367986863577874,3.4246063396249165,-12.140493969833877,-12.752112513404485,0.14081239771888698,-0.9742209328924962
18.352582931518555,0.2701578736305237,0.28363916277885437,-8.227426528930664,12.521542832300712,0.0033986568450927734,0.13300204277038574,3.893542540707394,-12.392077056131473,-0.3502901149240105,0.7617782193173934,-0.3506166931739396,0.04768760602575358,0.10172629645125889,4.5467691882960795,3.243372054401173,-11.953107323581456,-12.886661302438963,0.14081239771888698,-0.9742209328924962
18.36415147781372,0.26721400022506714,0.28403642773628235,-8.208012580871582,12.521383315516037,0.004553079605102539,0.13300204277038574,3.8916889486607142,-12.362858386363321,-0.37029011492401054,0.7614249241886889,-0.24184435052566222,0.042051355123165046,0.09609453968593035,4.80108181194217,2.986003269472617,-11.67828023333818,-13.105873878924774,-0.10606602926930478,-0.5233216787470258
18.379218816757202,0.26721400022506714,0.28403642773628235,-8.208012580871582,12.521383315516037,0.006319999694824219,0.13300204277038574,3.898487263224022,-12.601698469269744,-0.16029011492401035,0.7606894259878074,-0.08648910812972455,0.03920610674730984,0.08861521556957581,3.9327896171194787,3.8633339801769537,-12.61762010441828,-12.630109166480542,-0.16389504008004394,-0.4304583242950155
18.396047115325928,0.2588103711605072,0.28602346777915955,-8.149541854858398,12.521054084418632,0.004037141799926758,0.13300204277038574,3.8986868277404683,-12.585271054938653,-0.18029011492401037,0.7617481016340165,-0.040514914135104885,0.032298023372067726,0.08353698625507672,3.9459099890655045,3.850807563598465,-12.599179059354313,-12.619656850723544,-0.16389504008004394,-0.4304583242950155
18.40509605407715,0.2588103711605072,0.28602346777915955,-8.149541854858398,12.521054084418632,0.0033686161041259766,0.13300204277038574,3.898786437584709,-12.567528540610898,-0.2002901149240104,0.7610023342825887,0.12024765446535168,0.02936238460357872,0.07577028292641812,3.9622794830296506,3.834916078843336,-12.577333900910302,-12.609964722614864,-0.16389504008004394,-0.4304583242950155
18.414433240890503,0.25100645422935486,0.28914177417755127,-8.0910062789917,12.5209161146576,0.0034360885620117188,0.13300204277038574,3.898757901295221,-12.548471526922588,-0.2202901149240104,0.7618606765759242,0.1676911828907608,0.02419258075892022,0.06974812811320064,3.98289661023362,3.814605165682789,-12.551141807702447,-12.601986338060895,-0.16389504008004394,-0.4304583242950155
18.423721075057983,0.24612894654273987,0.29181408882141113,-8.05189037322998,12.520956751121883,0.0031654834747314453,0.13300204277038574,3.898573075225303,-12.528097415032207,-0.24029011492401042,0.7621457383926089,0.24617476502291935,0.020747745344642396,0.06369520853605065,4.009282031432139,3.788297868432857,-12.519189021210812,-12.59713984581228,-0.16389504008004394,-0.4304583242950155
18.433161973953247,0.2440204918384552,0.29492250084877014,-8.032760620117188,12.521008195875607,0.0034325122833251953,0.13300204277038574,3.898204045342312,-12.506400401003283,-0.26029011492401044,0.7618980368903854,0.3601148097947018,0.018517475964845403,0.05782789892964088,4.043767618702382,3.753605934549362,-12.479331151119524,-12.59756764064535,-0.16389504008004394,-0.4304583242950155
18.44268012046814,0.24197085201740265,0.2981110215187073,-8.013665199279785,12.521015363629214,0.003475189208984375,0.13300204277038574,3.897623309414631,-12.483371480271144,-0.28029011492401046,0.7616619472659422,0.4740184640687417,0.01681654075656288,0.05224805564850354,4.0899396289037595,3.706887003969789,-12.428286749146444,-12.606542768207158,-0.16389504008004394,-0.4304583242950155
18.593503952026367,0.21171526610851288,0.37486642599105835,-7.655570030212402,12.524659729003494,0.00596928596496582,0.13904333114624023,3.8968039590461974,-12.458998462158023,-0.3002901149240105,0.752941275500454,-1.0,0.038183222642735326,0.02477522977648739,4.153283899323572,3.6425997775897385,-12.361022178178676,-12.629084054734305,-0.16389504008004394,-0.4304583242950155
18.610904455184937,0.21171526610851288,0.37486642599105835,-7.655570030212402,12.524659729003494,0.005789279937744141,0.13904333114624023,3.8957198610263566,-12.433265994369412,-0.3202901149240105,0.7523463756248088,-1.0,0.03655968367522136,0.055986805018952465,4.242029700156037,3.5524605291395317,-12.269609209771152,-12.673098528549115,-0.20708232882109034,-1.0141335628062504
18.623900651931763,0.20926086604595184,0.3850550949573517,-7.619126319885254,12.52542261234816,0.0033233165740966797,0.13904333114624023,3.894345837472643,-12.40615559737431,-0.3402901149240105,0.7521073828497751,-1.0,0.048177701727614784,0.07655674467279014,4.367986863577874,3.4246063396249165,-12.140493969833877,-12.752112513404485,-0.20708232882109034,-1.0141335628062504
18.633548259735107,0.20926086604595184,0.3850550949573517,-7.619126319885254,12.52542261234816,0.0046977996826171875,0.13904333114624023,3.8926578442556057,-12.377645708542953,-0.36029011492401053,0.7513590331096284,-1.0,0.056676086673922994,0.09308074230190035,4.5467691882960795,3.243372054401173,-11.953107323581456,-12.886661302438963,-0.20708232882109034,-1.0141335628062504
18.643842220306396,0.20598720014095306,0.40125149488449097,-7.564235210418701,12.52658815004588,0.0045430660247802734,0.13904333114624023,3.89063314720794,-12.347711735888034,-0.38029011492401055,0.7512463520558761,-1.0,0.06939230349773967,0.10909723154393515,4.80108181194217,2.986003269472617,-11.67828023333818,-13.105873878924774,-0.20708232882109034,-1.0141335628062504
18.657746076583862,0.20598720014095306,0.40125149488449097,-7.564235210418701,12.52658815004588,0.0058748722076416016,0.13904333114624023,3.898597780936493,-12.59364931176258,-0.17029011492401036,0.7505079953869086,-1.0,0.07719769101041274,0.1238181850871317,3.9327896171194787,3.8633339801769537,-12.61762010441828,-12.630109166480542,-0.20708232882109034,-1.0141335628062504
18.672823905944824,0.20406895875930786,0.4127056300640106,-7.527646064758301,12.527342210695776,0.0033020973205566406,0.13904333114624023,3.898750887958204,-12.576564072881666,-0.19029011492401038,0.7502356215143063,-1.0,0.08681033280487381,0.13781439026443795,3.9459099890655045,3.850807563598465,-12.599179059354313,-12.619656850723544,-0.20708232882109034,-1.0141335628062504
18.819260120391846,0.1932111531496048,0.5498192310333252,-7.180798530578613,12.537689643968102,0.003427743911743164,0.13458752632141113,3.8987899499324983,-12.558164433511541,-0.2102901149240104,0.7561811670895363,-1.0,0.06616168717627509,0.12227168257096971,3.9622794830296506,3.834916078843336,-12.577333900910302,-12.609964722614864,-0.08551296251586768,-1.3135318334163726
18.82694911956787,0.1932111531496048,0.5498192310333252,-7.180798530578613,12.537689643968102,0.003688812255859375,0.13458752632141113,3.898686776625872,-12.538449395882433,-0.23029011492401041,0.7554383253764985,-1.0,0.059789326660085504,0.11062414012204003,3.98289661023362,3.814605165682789,-12.551141807702447,-12.601986338060895,-0.08551296251586768,-1.3135318334163726
18.83688521385193,0.1899775117635727,0.576758086681366,-7.128967761993408,12.539953729867683,0.004367351531982422,0.13458752632141113,3.8984133164367747,-12.517414758676797,-0.25029011492401043,0.7562043715709352,-1.0,0.04549465492002945,0.09306280214860274,4.009282031432139,3.788297868432857,-12.519189021210812,-12.59713984581228,-0.08551296251586768,-1.3135318334163726
18.84577465057373,0.1899775117635727,0.576758086681366,-7.128967761993408,12.539953729867683,0.005380868911743164,0.13458752632141113,3.897941838456656,-12.495053116456486,-0.27029011492401045,0.7555087356129273,-1.0,0.03991264191459058,0.08212112379671807,4.043767618702382,3.753605934549362,-12.479331151119524,-12.59756764064535,-0.08551296251586768,-1.3135318334163726
18.857275247573853,0.18808841705322266,0.5948238372802734,-7.0942702293396,12.541552916462775,0.0033593177795410156,0.13458752632141113,3.897245114647785,-12.471353869160131,-0.29029011492401047,0.7558355558207821,-1.0,0.030219004571967762,0.06927796186693709,4.0899396289037595,3.706887003969789,-12.428286749146444,-12.606542768207158,-0.08551296251586768,-1.3135318334163726
18.868224620819092,0.18808841705322266,0.5948238372802734,-7.0942702293396,12.541552916462775,0.006089448928833008,0.13458752632141113,3.896296601601396,-12.446303241619178,-0.3102901149240105,0.755135835828692,-1.0,0.026557190494038957,0.06199012388499682,4.153283899323572,3.6425997775897385,-12.361022178178676,-12.629084054734305,-0.08551296251586768,-1.3135318334163726
18.887339115142822,0.18490909039974213,0.6310617923736572,-7.024618625640869,12.544733117900204,0.0036458969116210938,0.13458752632141113,3.8950706213486264,-12.419884313010206,-0.3302901149240105,0.7564301081762421,-1.0,0.013765979152837112,0.046956190814601215,4.242029700156037,3.5524605291395317,-12.269609209771152,-12.673098528549115,-0.27061964000746075,-0.7469366749192488
18.895411252975464,0.18490909039974213,0.6310617923736572,-7.024618625640869,12.544733117900204,0.0057604312896728516,0.13458752632141113,3.893542540707394,-12.392077056131473,-0.3502901149240105,0.7557149211953778,-1.0,0.010236173937884625,0.04070831059774492,4.367986863577874,3.4246063396249165,-12.140493969833877,-12.752112513404485,-0.27061964000746075,-0.7469366749192488
18.91181206703186,0.18359749019145966,0.6491559743881226,-6.989664554595947,12.546274176908025,0.004264354705810547,0.13458752632141113,3.8916889486607142,-12.362858386363321,-0.37029011492401054,0.7560350570100238,-1.0,0.005489906035674858,0.033903104294812955,4.5467691882960795,3.243372054401173,-11.953107323581456,-12.886661302438963,-0.27061964000746075,-0.7469366749192488
19.078653573989868,0.17513258755207062,0.8520482182502747,-6.624686241149902,12.565464291413422,0.0041196346282958984,0.15361690521240234,3.889487831275836,-12.33220222014509,-0.39029011492401056,0.7579276773140262,0.11250125133917921,-0.009793422514374844,-0.008140286225412411,4.80108181194217,2.986003269472617,-11.67828023333818,-13.105873878924774,-0.27061964000746075,-0.7469366749192488
19.089184522628784,0.17513258755207062,0.8520482182502747,-6.624686241149902,12.565464291413422,0.003188610076904297,0.15361690521240234,3.8986868277404683,-12.585271054938653,-0.18029011492401037,0.7571358428678732,0.07622896628778708,-0.006041173340289262,-0.0047943695371127915,3.9327896171194787,3.8633339801769537,-12.61762010441828,-12.630109166480542,-0.2939489608003078,-0.6209255857809248
19.0986008644104,0.1742875725030899,0.8698907494544983,-6.59304141998291,12.567452100197192,0.0035419464111328125,0.15361690521240234,3.898786437584709,-12.567528540610898,-0.2002901149240104,0.7574943600122673,0.20185513170025748,-0.005958756906610784,-0.0039363808793849014,3.9459099890655045,3.850807563598465,-12.599179059354313,-12.619656850723544,-0.2939489608003078,-0.6209255857809248
19.107051849365234,0.1742875725030899,0.8698907494544983,-6.59304141998291,12.567452100197192,0.0033597946166992188,0.15361690521240234,3.898757901295221,-12.548471526922588,-0.2202901149240104,0.7566965218572939,0.16001714918404208,-0.005927751099225258,-0.003773394686400656,3.9622794830296506,3.834916078843336,-12.577333900910302,-12.609964722614864,-0.2939489608003078,-0.6209255857809248
19.116520404815674,0.17322562634944916,0.895425021648407,-6.5453386306762695,12.570343154054331,0.0033223628997802734,0.15361690521240234,3.898573075225303,-12.528097415032207,-0.24029011492401042,0.7575942706012878,0.3816234291798857,-0.006240984903085999,-0.005123639173421584,3.98289661023362,3.814605165682789,-12.551141807702447,-12.601986338060895,-0.2939489608003078,-0.6209255857809248
19.12463140487671,0.17322562634944916,0.895425021648407,-6.5453386306762695,12.570343154054331,0.0034127235412597656,0.15361690521240234,3.898204045342312,-12.506400401003283,-0.26029011492401044,0.7567886307355425,0.33406716130306036,-0.00619854881371361,-0.006240437674010177,4.009282031432139,3.788297868432857,-12.519189021210812,-12.59713984581228,-0.2939489608003078,-0.6209255857809248
19.13733196258545,0.17265339195728302,0.9115729928016663,-6.513396739959717,12.572208159557285,0.0035448074340820312,0.15361690521240234,3.897623309414631,-12.483371480271144,-0.28029011492401046,0.7569867151092138,0.45219588194875726,-0.006404935044755609,-0.007704765553929922,4.043767618702382,3.753605934549362,-12.479331151119524,-12.59756764064535,-0.2939489608003078,-0.6209255857809248
19.293808698654175,0.17265339195728302,0.9115729928016663,-6.513396739959717,12.572208159557285,0.0045359134674072266,0.14676165580749512,3.8968039590461974,-12.458998462158023,-0.3002901149240105,0.7552528780966353,-1.0,-0.006139779491804036,-0.008650204577913531,4.0899396289037595,3.706887003969789,-12.428286749146444,-12.606542768207158,-0.2939489608003078,-0.6209255857809248
19.307950496673584,0.16818076372146606,1.0343267917633057,-6.182062149047852,12.591127512711036,0.003262042999267578,0.14676165580749512,3.8957198610263566,-12.433265994369412,-0.3202901149240105,0.7649394467487561,-0.4067505690984079,0.00226712174729273,-0.008526772161387627,4.153283899323572,3.6425997775897385,-12.361022178178676,-12.629084054734305,-0.4333441846689931,-0.9918733013890138
19.315964221954346,0.16818076372146606,1.0343267917633057,-6.182062149047852,12.591127512711036,0.003424406051635742,0.14676165580749512,3.894345837472643,-12.40615559737431,-0.3402901149240105,0.7642232976473127,-0.5108736466657628,0.0016398120444113952,-0.02025345033515092,4.242029700156037,3.5524605291395317,-12.269609209771152,-12.673098528549115,-0.4333441846689931,-0.9918733013890138
19.32601261138916,0.1687326431274414,1.0411186218261719,-6.1511688232421875,12.592576013362034,0.0032410621643066406,0.14676165580749512,3.8926578442556057,-12.377645708542953,-0.36029011492401053,0.76444425957573,-0.5960543701436432,0.0045812514301508366,-0.0230260256638005,4.367986863577874,3.4246063396249165,-12.140493969833877,-12.752112513404485,-0.4333441846689931,-0.9918733013890138
19.337273597717285,0.1687326431274414,1.0411186218261719,-6.1511688232421875,12.592576013362034,0.0055694580078125,0.14676165580749512,3.89063314720794,-12.347711735888034,-0.38029011492401055,0.7638275284125219,-0.7075786677880009,0.004818862240653901,-0.025528724290616152,4.5467691882960795,3.243372054401173,-11.953107323581456,-12.886661302438963,-0.4333441846689931,-0.9918733013890138
19.349039554595947,0.1705072522163391,1.0488617420196533,-6.105652809143066,12.59456935306351,0.005394697189331055,0.14676165580749512,3.8882504956347703,-12.316326121229068,-0.40029011492401056,0.7640952435886779,-0.7576285846806889,0.009524988424856108,-0.023651104773015498,4.80108181194217,2.986003269472617,-11.67828023333818,-13.105873878924774,-0.4333441846689931,-0.9918733013890138
19.363718032836914,0.1705072522163391,1.0488617420196533,-6.105652809143066,12.59456935306351,0.0059413909912109375,0.14676165580749512,3.898750887958204,-12.576564072881666,-0.19029011492401038,0.763492878930557,-0.8747596707173622,0.00912011874828187,-0.027503932211411335,3.9327896171194787,3.8633339801769537,-12.61762010441828,-12.630109166480542,-0.4333441846689931,-0.9918733013890138
19.378308296203613,0.17318189144134521,1.0575530529022217,-6.0448832511901855,12.596695182074342,0.004243135452270508,0.14676165580749512,3.8987899499324983,-12.558164433511541,-0.2102901149240104,0.7639588832498184,-0.8109225618945078,0.016377521800877468,-0.0218593667578837,3.9459099890655045,3.850807563598465,-12.599179059354313,-12.619656850723544,-0.2876777567669134,-0.8706664030001251
19.38766360282898,0.17318189144134521,1.0575530529022217,-6.0448832511901855,12.596695182074342,0.003362417221069336,0.14676165580749512,3.898686776625872,-12.538449395882433,-0.23029011492401041,0.7633689650681175,-0.9340885423325826,0.014733981112487018,-0.030870618258942002,3.9622794830296506,3.834916078843336,-12.577333900910302,-12.609964722614864,-0.2876777567669134,-0.8706664030001251
19.52782154083252,0.19634543359279633,1.0659464597702026,-5.777363300323486,12.599546960833099,0.003526926040649414,0.12983107566833496,3.8984133164367747,-12.517414758676797,-0.25029011492401043,0.7607178518355836,0.8308012931748947,0.04928146015324079,0.014131514052701126,3.98289661023362,3.814605165682789,-12.551141807702447,-12.601986338060895,-0.2876777567669134,-0.8706664030001251
19.53782558441162,0.19634543359279633,1.0659464597702026,-5.777363300323486,12.599546960833099,0.0033714771270751953,0.12983107566833496,3.897941838456656,-12.495053116456486,-0.27029011492401045,0.7601958571443012,0.7177035689681841,0.03909032377187009,-0.013022931689856491,4.009282031432139,3.788297868432857,-12.519189021210812,-12.59713984581228,-0.16815400078361653,-0.8246873887184157
19.54668164253235,0.20178553462028503,1.0617860555648804,-5.733254432678223,12.599242997059957,0.003763437271118164,0.12983107566833496,3.897245114647785,-12.471353869160131,-0.29029011492401047,0.7602214194040436,1.0,0.04659667178110735,-0.031169819853612904,4.043767618702382,3.753605934549362,-12.479331151119524,-12.59756764064535,-0.16815400078361653,-0.8246873887184157
19.554877519607544,0.20178553462028503,1.0617860555648804,-5.733254432678223,12.599242997059957,0.003412961959838867,0.12983107566833496,3.896296601601396,-12.446303241619178,-0.3102901149240105,0.7596763882677403,0.9085913252282163,0.049553065001862906,-0.03646387994259405,4.0899396289037595,3.706887003969789,-12.428286749146444,-12.606542768207158,-0.16815400078361653,-0.8246873887184157
19.564022541046143,0.20554488897323608,1.0580689907073975,-5.703766822814941,12.598968618105808,0.003797769546508789,0.12983107566833496,3.8950706213486264,-12.419884313010206,-0.3302901149240105,0.7594326908858945,1.0,0.054224823916811084,-0.04354718623400322,4.153283899323572,3.6425997775897385,-12.361022178178676,-12.629084054734305,-0.16815400078361653,-0.8246873887184157
19.574167251586914,0.20554488897323608,1.0580689907073975,-5.703766822814941,12.598968618105808,0.0031762123107910156,0.12983107566833496,3.893542540707394,-12.392077056131473,-0.3502901149240105,0.7589105122899992,0.9572445613039582,0.05533072253857195,-0.04532287634100377,4.242029700156037,3.5524605291395317,-12.269609209771152,-12.673098528549115,-0.2709474486728327,-1.1535947430468168
19.583265781402588,0.20984287559986115,1.0507018566131592,-5.664336204528809,12.598576418605525,0.003327608108520508,0.12983107566833496,3.8916889486607142,-12.362858386363321,-0.37029011492401054,0.7582965385330953,1.0,0.05936829121316831,-0.05076545050352931,4.367986863577874,3.4246063396249165,-12.140493969833877,-12.752112513404485,-0.2709474486728327,-1.1535947430468168
