time,x,y,z,yaw,ctrl_comp_time,rollout_comptime,x_ref,y_ref,z_ref,yaw_ref,throttle,roll_rate,pitch_rate,yaw_rate,save_tube_pyH,save_tube_pyL,save_tube_pzH,save_tube_pzL
15.00233244895935,0.07796259224414825,3.8039486408233643,-12.42193603515625,-0.0002884705758740905,0.1377580165863037,6.0,0.0,3.800151757123107,-12.416646158062271,0.0014599322913183364,0.581779990690054,-1.0,0.020971895067151945,0.016969589173409086,3.8000755672454836,3.7990755672454832,-12.415432655334472,-12.416432655334473
15.393788576126099,0.07796259224414825,3.8039486408233643,-12.42193603515625,-0.0002884705758740905,0.16173934936523438,6.0,0.0,3.8007314633570304,-12.416983655987698,-0.008540067708681664,0.5804468809976914,-1.0,0.052662177789141076,0.08483279402330422,3.821314203294621,3.7890973301808826,-12.404402962075594,-12.408619479811774
15.650959014892578,0.0964759886264801,3.842526435852051,-12.39456844329834,-0.0018554200631617774,0.002129793167114258,6.0,0.0,3.804552923618685,-12.42261343989007,0.0008649821040437392,0.5822620719923418,-1.0,0.15886838389170405,0.2945207825300276,3.8882261052857903,3.729372890782699,-12.33735041120875,-12.38610545550141
15.789446592330933,0.0964759886264801,3.842526435852051,-12.39456844329834,-0.0018554200631617774,0.001207113265991211,6.0,0.0,3.843152395619347,-12.395397502980465,-0.0036296472132220474,0.5820674145381151,-1.0,0.35120786872419285,0.5472603912650139,4.121233803380702,3.4933009600642126,-12.09840148358548,-12.466625790298945
15.794930696487427,0.09608635306358337,3.856189250946045,-12.385160446166992,-0.0010367697801871496,0.0014350414276123047,6.0,0.0,3.84377766415791,-12.39585154400779,-0.013629647213222048,0.5806478297982047,-1.0,0.485845508106935,0.6736301956325069,5.420018433249705,2.1749353969236678,-10.725862536997502,-13.609906209972314
15.800918102264404,0.09591151773929596,3.856914520263672,-12.38491439819336,-0.000977837781511896,0.0011179447174072266,6.0,0.0,3.8443999544634266,-12.395933771344867,-0.023629647213222048,0.5792456292372224,-1.0,0.5800918556748544,0.7368150978162534,3.8000755672454836,3.7990755672454832,-12.415432655334472,-12.416432655334473
15.811429977416992,0.09573347121477127,3.8577826023101807,-12.3840970993042,-0.0009178950227678275,0.001903533935546875,6.0,0.0,3.845016885319432,-12.39564722974995,-0.03362964721322205,0.5778788221643639,-1.0,0.646064298972398,0.7684075489081267,3.821314203294621,3.7890973301808826,-12.404402962075594,-12.408619479811774
15.8211190700531,0.09554357081651688,3.85863995552063,-12.383330345153809,-0.0008411974252662355,0.0013730525970458984,6.0,0.0,3.845625985849098,-12.39499480069888,-0.04362964721322205,0.5764988683388187,-1.0,0.6922450092806786,0.7842037744540634,3.8882261052857903,3.729372890782699,-12.33735041120875,-12.38610545550141
15.831324815750122,0.09513261169195175,3.860332489013672,-12.381877899169922,-0.0004513096485681755,0.0023567676544189453,6.0,0.0,3.8462247001572694,-12.393979199440208,-0.053629647213222054,0.5759994947129122,-1.0,0.7245715064964751,0.7921018872270317,4.121233803380702,3.4933009600642126,-12.09840148358548,-12.466625790298945
15.841317176818848,0.09491428732872009,3.8611648082733154,-12.38111686706543,-9.700720533201341e-05,0.002187967300415039,6.0,0.0,3.8468103920589587,-12.392602972184076,-0.06362964721322205,0.5755758402136583,-1.0,0.7472000545475325,0.7960509436135158,5.420018433249705,2.1749353969236678,-10.725862536997502,-13.609906209972314
15.851479291915894,0.09468848258256912,3.861987352371216,-12.380301475524902,0.0003706578949341508,0.0024576187133789062,6.0,0.0,3.8473803498904244,-12.390868493427247,-0.07362964721322204,0.5753863966672921,-1.0,0.7630400381832728,0.798025471806758,3.8044486408233644,3.803448640823364,-12.42143603515625,-12.42243603515625
15.861247301101685,0.09421289712190628,3.8635990619659424,-12.378400802612305,0.0016343849075707273,0.0012340545654296875,6.0,0.0,3.847931791398917,-12.388777963416537,-0.08362964721322204,0.5768402351827274,-1.0,0.774128026728291,0.7990127359033788,3.825971365152416,3.7937464711982662,-12.410051808225848,-12.41429743907434
15.87113356590271,0.09396084398031235,3.8643858432769775,-12.377286911010742,0.0024204045720582074,0.0015163421630859375,6.0,0.0,3.8484618687071097,-12.386333405752747,-0.09362964721322203,0.5770403100674362,-1.0,0.7818896187098037,0.7995063679516895,3.893207870202558,3.734244694003763,-12.342597046314374,-12.391587663074299
15.881164789199829,0.09396084398031235,3.8643858432769775,-12.377286911010742,0.0024204045720582074,0.0012717247009277344,6.0,0.0,3.848967673348181,-12.38353666513708,-0.10362964721322203,0.5756775357777438,-1.0,0.7873227330968626,0.7997531839758446,4.1267728006130895,3.4981397703034065,-12.102935933871539,-12.472284189450718
15.89125394821167,0.09341968595981598,3.865910053253174,-12.374693870544434,0.004265362000363676,0.0014185905456542969,6.0,0.0,3.8494462413674757,-12.380389405261885,-0.11362964721322202,0.5776388537363295,-1.0,0.7911259131678039,0.7998765919879224,5.4274455235692605,2.1783834741710657,-10.72848144327351,-13.61698458453962
15.90105652809143,0.09341968595981598,3.865910053253174,-12.374693870544434,0.004265362000363676,0.0010271072387695312,6.0,0.0,3.8498945584866227,-12.376893106847422,-0.12362964721322202,0.5762741763157452,-1.0,0.7937881392174627,0.7999382959939613,3.843026435852051,3.8420264358520506,-12.39406844329834,-12.39506844329834
16.03499674797058,0.09341968595981598,3.865910053253174,-12.374693870544434,0.004265362000363676,0.0011942386627197266,6.0,0.0,3.8664636143257964,-12.374358690733263,-0.03136601680601113,0.5895436450379966,-1.0,0.7956516974522239,0.7999691479969807,3.86455820381374,3.83236553360048,-12.384107779552071,-12.388559031953424
16.04267144203186,0.09161682426929474,3.875765323638916,-12.320259094238281,0.03080259037441032,0.0012280941009521484,6.0,0.0,3.8670110365023143,-12.373662631572273,-0.04136601680601113,0.6219988095501695,-0.03230936157616682,0.7969561882165567,0.7999845739984904,3.9312586338221625,3.7725902104199354,-12.317804013334968,-12.367658237925884
16.05115246772766,0.09063708782196045,3.875779390335083,-12.310895919799805,0.03449462683913446,0.0011248588562011719,6.0,0.0,3.867549665494103,-12.372608402948748,-0.05136601680601113,0.6247794236654207,0.04426555340276361,0.7978693317515897,0.7999922869992452,4.163545066827512,3.536118178322401,-12.079781544183579,-12.449363889819196
16.06137204170227,0.09063708782196045,3.875779390335083,-12.310895919799805,0.03449462683913446,0.001425027847290039,6.0,0.0,3.8680767671707974,-12.371198544129003,-0.061366016806011135,0.623529825472039,-0.02888662632751804,0.7985085322261128,0.7999961434996227,5.458665239183093,2.2195088111599994,-10.711044383896033,-13.590468054353126
16.071152448654175,0.090207040309906,3.8757474422454834,-12.293281555175781,0.040134766422239496,0.0014753341674804688,6.0,0.0,3.8685895323931243,-12.369435421101764,-0.07136601680601114,0.6284052177835285,0.12609213344125259,0.7522904278159649,0.7999980717498113,3.843026435852051,3.8420264358520506,-12.39406844329834,-12.39506844329834
16.08118724822998,0.090207040309906,3.8757474422454834,-12.293281555175781,0.040134766422239496,0.0013000965118408203,6.0,0.0,3.8690850819238887,-12.367321224059928,-0.08136601680601113,0.6271569683537687,0.04805800709644781,0.7149875053258685,0.7999990358749057,3.86455820381374,3.83236553360048,-12.384107779552071,-12.388559031953424
16.091346502304077,0.08944088965654373,3.8752288818359375,-12.280872344970703,0.04403186231351443,0.0014450550079345703,6.0,0.0,3.869560471413147,-12.364857965022827,-0.09136601680601113,0.6294067951668899,0.12078809629733422,0.6520434596905091,0.7999995179374529,3.9312586338221625,3.7725902104199354,-12.317804013334968,-12.367658237925884
16.101144552230835,0.08944088965654373,3.8752288818359375,-12.280872344970703,0.04403186231351443,0.0014662742614746094,6.0,0.0,3.870012696453549,-12.362047475600953,-0.10136601680601112,0.6281588266599053,0.03754845753772251,0.6135841266306384,0.7999997589687264,4.163545066827512,3.536118178322401,-12.079781544183579,-12.449363889819196
16.111342430114746,0.0874936655163765,3.8735711574554443,-12.261448860168457,0.05030176151237724,0.0013952255249023438,6.0,0.0,3.870438697701782,-12.358891404905009,-0.11136601680601112,0.6319110355198498,0.15275931839871149,0.5303884632030346,0.7999998794843632,5.458665239183093,2.2195088111599994,-10.711044383896033,-13.590468054353126
16.121402263641357,0.0874936655163765,3.8735711574554443,-12.261448860168457,0.05030176151237724,0.0015823841094970703,6.0,0.0,3.870835366062014,-12.355391217600953,-0.12136601680601111,0.6306689210829381,0.06412454456987304,0.4826421580593504,0.7999999397421816,3.843026435852051,3.8420264358520506,-12.39406844329834,-12.39506844329834
16.13118886947632,0.08662032335996628,3.872774362564087,-12.254751205444336,0.052537596761260366,0.0013058185577392578,6.0,0.0,3.871199547927185,-12.351548192112643,-0.13136601680601112,0.6310697581505587,0.03217675516360474,0.4371521829261432,0.7999999698710909,3.86455820381374,3.83236553360048,-12.384107779552071,-12.388559031953424
16.14128851890564,0.08563033491373062,3.871854305267334,-12.247941970825195,0.0548527590537478,0.0014843940734863281,6.0,0.0,3.871528050473978,-12.347363418973464,-0.14136601680601113,0.6314689824380301,-0.005697914490345846,0.3925887640689048,0.7999999849355455,3.9312586338221625,3.7725902104199354,-12.317804013334968,-12.367658237925884
16.151249408721924,0.08329053223133087,3.8696393966674805,-12.233983993530273,0.059779803695946626,0.0013675689697265625,6.0,0.0,3.8718176470072656,-12.342837799328265,-0.15136601680601114,0.6335089682595195,0.0021172528249220335,0.3293527002688273,0.7999999924677728,4.163545066827512,3.536118178322401,-12.079781544183579,-12.449363889819196
16.307525873184204,0.08329053223133087,3.8696393966674805,-12.233983993530273,0.059779803695946626,0.0017020702362060547,6.0,0.0,3.869259386313888,-12.226349405735174,-0.2319000417979046,0.6387147254424245,-1.0,0.29865183806821,0.7999999962338864,5.458665239183093,2.2195088111599994,-10.711044383896033,-13.590468054353126
16.31305241584778,0.03757918253540993,3.818394899368286,-12.072012901306152,0.12945477544783185,0.0026323795318603516,6.0,0.0,3.8688042390049597,-12.218413920628812,-0.2419000417979046,0.6701063283964414,-0.3321953167208065,-0.011143282711143156,0.7999999981169432,3.843026435852051,3.8420264358520506,-12.39406844329834,-12.39506844329834
16.320976972579956,0.03370470181107521,3.8141772747039795,-12.061985969543457,0.13394261743389096,0.0016400814056396484,6.0,0.0,3.8682699713589574,-12.210175857986771,-0.2519000417979046,0.6705000826613418,-0.4118512681923814,-0.20853533225058352,0.41784557245700704,3.86455820381374,3.83236553360048,-12.384107779552071,-12.388559031953424
16.331475734710693,0.02551710046827793,3.80540132522583,-12.041566848754883,0.14309931137837523,0.003067493438720703,6.0,0.0,3.8676526445208554,-12.201633329944666,-0.2619000417979046,0.6729132556883266,-0.4578537700914479,-0.3859747325754085,-0.1264906825590771,3.9312586338221625,3.7725902104199354,-12.317804013334968,-12.367658237925884
16.341503381729126,0.02119029313325882,3.800842046737671,-12.031171798706055,0.14775075515173483,0.0032520294189453125,6.0,0.0,3.8669483699431213,-12.1927842418385,-0.2719000417979046,0.6736005731681174,-0.5501956707976499,-0.5101823128027859,-0.46324534127953865,4.163545066827512,3.536118178322401,-12.079781544183579,-12.449363889819196
16.351162433624268,0.012061052955687046,3.7913780212402344,-12.01002311706543,0.15724071069630685,0.0017213821411132812,6.0,0.0,3.866153315148363,-12.183626293201613,-0.2819000417979046,0.675835232365818,-0.5947157773639865,-0.5971276189619501,-0.6316226706397693,5.458665239183093,2.2195088111599994,-10.711044383896033,-13.590468054353126
16.361218214035034,0.007248004898428917,3.7864673137664795,-11.999303817749023,0.16209828523998268,0.001958131790161133,6.0,0.0,3.8652637094697333,-12.174156978917402,-0.29190004179790463,0.676257820450108,-0.6829177155669347,-0.6579893332733652,-0.7158113353198846,3.843026435852051,3.8420264358520506,-12.39406844329834,-12.39506844329834
16.37149477005005,0.002261692425236106,3.781432628631592,-11.988495826721191,0.16703221456971018,0.002042055130004883,6.0,0.0,3.864275849765028,-12.164373590526884,-0.30190004179790464,0.6766024098439818,-0.7697995821577223,-0.7005925332913556,-0.7579056676599424,3.86455820381374,3.83236553360048,-12.384107779552071,-12.388559031953424
16.381240606307983,-0.0029035164043307304,3.7762696743011475,-11.977611541748047,0.1720023431769926,0.001975536346435547,6.0,0.0,3.8631861061004535,-12.154273217689989,-0.31190004179790465,0.6768058327511045,-0.8537811331631143,-0.730414773303949,-0.7789528338299713,3.9312586338221625,3.7725902104199354,-12.317804013334968,-12.367658237925884
16.391499757766724,-0.008254436776041985,3.770972490310669,-11.966669082641602,0.17698559582518852,0.0020792484283447266,6.0,0.0,3.8619909274001025,-12.143852749799466,-0.32190004179790466,0.6768433957637344,-0.9337726274536335,-0.7512903413127643,-0.7894764169149856,4.163545066827512,3.536118178322401,-12.079781544183579,-12.449363889819196
16.534805059432983,-0.008254436776041985,3.770972490310669,-11.966669082641602,0.17698559582518852,0.0034134387969970703,6.0,0.0,3.7669425038175843,-11.953079167347463,-0.19809777867614942,0.6575974136151593,-1.0,-0.765903238918935,-0.7947382084574929,5.458665239183093,2.2195088111599994,-10.711044383896033,-13.590468054353126
16.544564485549927,-0.1544671654701233,3.6387641429901123,-11.743873596191406,0.2504409193887849,0.0019986629486083984,6.0,0.0,3.7629111020961497,-11.939202998330178,-0.20809777867614943,0.6746480609592082,1.0,-0.7761322672432546,-0.7973691042287464,3.843026435852051,3.8420264358520506,-12.39406844329834,-12.39506844329834
16.55103349685669,-0.1729605495929718,3.6212246417999268,-11.719134330749512,0.2551811868882938,0.001605987548828125,6.0,0.0,3.7588736653147516,-11.925039779630136,-0.21809777867614943,0.6750559764393171,1.0,-0.7832925870702783,-0.7986845521143732,3.86455820381374,3.83236553360048,-12.384107779552071,-12.388559031953424
16.56121277809143,-0.18232552707195282,3.6121718883514404,-11.706693649291992,0.2573729310667659,0.0019898414611816406,6.0,0.0,3.7548256041297043,-11.910588497633293,-0.22809777867614944,0.674944722740879,1.0,-0.7883048109491948,-0.7993422760571867,3.9312586338221625,3.7725902104199354,-12.317804013334968,-12.367658237925884
16.571251392364502,-0.19304685294628143,3.603433132171631,-11.693845748901367,0.2594542507790644,0.002106904983520508,6.0,0.0,3.750762365583963,-11.895847921578648,-0.23809777867614945,0.6748979174700467,1.0,-0.7918133676644363,-0.7996711380285934,4.163545066827512,3.536118178322401,-12.079781544183579,-12.449363889819196
16.581249237060547,-0.20381325483322144,3.594493865966797,-11.680939674377441,0.2611854813684079,0.0018641948699951172,6.0,0.0,3.7466794389974765,-11.88081660422214,-0.24809777867614946,0.674878467753682,1.0,-0.7942693573651054,-0.7998355690142968,5.458665239183093,2.2195088111599994,-10.711044383896033,-13.590468054353126
16.5913188457489,-0.2254665046930313,3.575988292694092,-11.654974937438965,0.264229707488719,0.0019681453704833984,6.0,0.0,3.7425723618450983,-11.865492882656516,-0.25809777867614947,0.6755137287405799,1.0,-0.7959885501555738,-0.7999177845071483,3.843026435852051,3.8420264358520506,-12.39406844329834,-12.39506844329834
16.60115933418274,-0.2363394945859909,3.566408157348633,-11.641924858093262,0.26549044203587396,0.0021593570709228516,6.0,0.0,3.738436725618023,-11.84987487928655,-0.2680977786761495,0.6753412231618561,1.0,-0.7971919851089017,-0.7999588922535742,3.86455820381374,3.83236553360048,-12.384107779552071,-12.388559031953424
16.611295223236084,-0.24724236130714417,3.556610345840454,-11.628840446472168,0.2665708707525128,0.0020422935485839844,6.0,0.0,3.734268181664735,-11.833960502958911,-0.2780977786761495,0.6752507960288786,1.0,-0.7980343895762312,-0.7999794461267872,3.9312586338221625,3.7725902104199354,-12.317804013334968,-12.367658237925884
16.621192693710327,-0.25817161798477173,3.546595811843872,-11.615701675415039,0.2675022969253922,0.0022385120391845703,6.0,0.0,3.7300624470075006,-11.817747450245887,-0.2880977786761495,0.675203704862067,1.0,-0.7986240727033619,-0.7999897230633937,4.163545066827512,3.536118178322401,-12.079781544183579,-12.449363889819196
16.764765977859497,-0.25817161798477173,3.546595811843872,-11.615701675415039,0.2675022969253922,0.0018966197967529297,6.0,0.0,3.5395783391213205,-11.596913918606871,-0.3574628510409249,0.6864570864919673,-1.0,-0.7990368508923533,-0.7999948615316969,5.458665239183093,2.2195088111599994,-10.711044383896033,-13.590468054353126
16.77341651916504,-0.482810914516449,3.311184883117676,-11.34841251373291,0.2627371234950373,0.0019299983978271484,6.0,0.0,3.5324860666992666,-11.577806829850918,-0.3674628510409249,0.7037915996585681,0.15584901214566393,-0.7993257956246473,-0.7999974307658485,3.843026435852051,3.8420264358520506,-12.39406844329834,-12.39506844329834
16.781214714050293,-0.4950117766857147,3.296943187713623,-11.33358097076416,0.26119793414555725,0.0019276142120361328,6.0,0.0,3.5253153621597453,-11.558375713881613,-0.3774628510409249,0.703775007145455,-0.003147330382497149,-0.7995280569372532,-0.7999987153829242,3.86455820381374,3.83236553360048,-12.384107779552071,-12.388559031953424
16.791252851486206,-0.5192907452583313,3.268124580383301,-11.303773880004883,0.2577313948459326,0.0022041797637939453,6.0,0.0,3.5180627290033026,-11.53861568297762,-0.3874628510409249,0.7051605761134054,-0.1353252694319731,-0.7996696398560772,-0.7999993576914621,3.9312586338221625,3.7725902104199354,-12.317804013334968,-12.367658237925884
16.80126976966858,-0.531365692615509,3.2535572052001953,-11.288803100585938,0.25580399099553647,0.0027883052825927734,6.0,0.0,3.5107248118959737,-11.518521660184593,-0.39746285104092494,0.7054312249526576,-0.30849549208862626,-0.799768747899254,-0.7999996788457311,4.163545066827512,3.536118178322401,-12.079781544183579,-12.449363889819196
16.811423301696777,-0.5433958172798157,3.238888740539551,-11.273820877075195,0.253761064500937,0.001990795135498047,6.0,0.0,3.503298401840806,-11.498088382670957,-0.40746285104092494,0.705608780997178,-0.4808924512295216,-0.7998381235294778,-0.7999998394228656,5.458665239183093,2.2195088111599994,-10.711044383896033,-13.590468054353126
16.821250438690186,-0.5555704236030579,3.2231688499450684,-11.257722854614258,0.25161041242074994,0.0022950172424316406,6.0,0.0,3.4957804412707896,-11.477310405214448,-0.41746285104092495,0.7057791351163013,-0.6456920469338241,-0.7998866864706344,-0.7999999197114328,3.843026435852051,3.8420264358520506,-12.39406844329834,-12.39506844329834
16.831276893615723,-0.579759955406189,3.191498041152954,-11.225565910339355,0.2471715785079,0.0019936561584472656,6.0,0.0,3.4881680290601427,-11.45618210381715,-0.42746285104092496,0.7066363456808519,-0.7458172818076922,-0.7999206805294441,-0.7999999598557165,3.86455820381374,3.83236553360048,-12.384107779552071,-12.388559031953424
16.841366291046143,-0.591769814491272,3.1755528450012207,-11.20950984954834,0.24479718067655126,0.003236055374145508,6.0,0.0,3.4804584254509647,-11.434697679446648,-0.43746285104092497,0.706725057665893,-0.9002994505895248,-0.7999444763706108,-0.7999999799278582,3.9312586338221625,3.7725902104199354,-12.317804013334968,-12.367658237925884
16.85130786895752,-0.6037194132804871,3.1595377922058105,-11.193469047546387,0.2423309962609275,0.0021216869354248047,6.0,0.0,3.472649056892366,-11.412851161900843,-0.447462851040925,0.7068144436149995,-1.0,-0.7999611334594277,-0.7999999899639291,4.163545066827512,3.536118178322401,-12.079781544183579,-12.449363889819196
16.995434045791626,-0.6037194132804871,3.1595377922058105,-11.193469047546387,0.2423309962609275,0.0017020702362060547,6.0,0.0,3.1443535296316596,-11.172571426973493,-0.18575692264947377,0.6824534060338713,-1.0,-0.7999727934215993,-0.7999999949819646,5.458665239183093,2.2195088111599994,-10.711044383896033,-13.590468054353126
17.00099277496338,-0.8164462447166443,2.84220552444458,-10.89028263092041,0.18608298436110388,0.0016584396362304688,6.0,0.0,3.129239729072479,-11.151335739623443,-0.19575692264947378,0.692536260999242,1.0,-0.7999809553951196,-0.5063568768386815,3.843026435852051,3.8420264358520506,-12.39406844329834,-12.39506844329834
17.01128602027893,-0.8266724348068237,2.824686288833618,-10.87426471710205,0.1829007932936255,0.0020210742950439453,6.0,0.0,3.1141917891446464,-11.12976144521845,-0.2048647254702914,0.6920365961721079,1.0,-0.7999866687765838,-0.45837334978637917,3.86455820381374,3.83236553360048,-12.384107779552071,-12.388559031953424
17.02129554748535,-0.836756706237793,2.8070569038391113,-10.858221054077148,0.17972865391091145,0.0035347938537597656,6.0,0.0,3.0991855994178525,-11.107861159580805,-0.21265964762382597,0.6917309447314163,1.0,-0.7999906681436086,-0.458414799839604,3.9312586338221625,3.7725902104199354,-12.317804013334968,-12.367658237925884
17.03115439414978,-0.8564532399177551,2.771456718444824,-10.826045989990234,0.17345719773675117,0.0017914772033691406,6.0,0.0,3.084187715608337,-11.085653639410102,-0.2192050367053738,0.6918920832289345,1.0,-0.799993467700526,-0.4605638511844612,4.163545066827512,3.536118178322401,-12.079781544183579,-12.449363889819196
17.0415940284729,-0.8660724759101868,2.7534728050231934,-10.809911727905273,0.170425585178699,0.0033042430877685547,6.0,0.0,3.0691661785895747,-11.06315672135729,-0.22456281210199072,0.6915546639065057,1.0,-0.7999954273903682,-0.46164731216326904,5.458665239183093,2.2195088111599994,-10.711044383896033,-13.590468054353126
17.051340579986572,-0.8755326271057129,2.735358238220215,-10.793749809265137,0.16748887404449397,0.002036571502685547,6.0,0.0,3.054090552330548,-11.04038749745153,-0.2287934144138566,0.6912781023679225,1.0,-0.7803597413034202,-0.463478456308884,3.843026435852051,3.8420264358520506,-12.39406844329834,-12.39506844329834
17.06152081489563,-0.8755326271057129,2.735358238220215,-10.793749809265137,0.16748887404449397,0.0031919479370117188,6.0,0.0,3.0389319514954316,-11.017362463330802,-0.23195576468774076,0.6905943497177636,1.0,-0.7747137978554532,-0.4542656619529242,3.86455820381374,3.83236553360048,-12.384107779552071,-12.388559031953424
17.071187019348145,-0.9031993746757507,2.681087017059326,-10.744721412658691,0.1588592795972386,0.0033354759216308594,6.0,0.0,3.0236630606108,-10.994097641602902,-0.234107232767425,0.6917194512387159,1.0,-0.68408574469696,-0.4600845677795946,3.9312586338221625,3.7725902104199354,-12.317804013334968,-12.367658237925884
17.081357955932617,-0.9121320247650146,2.6628684997558594,-10.728233337402344,0.15589203628095233,0.0031490325927734375,6.0,0.0,3.0082581462687425,-10.970608682601778,-0.235303614025004,0.6917620376984935,1.0,-0.6278847430830493,-0.42306412005889604,4.163545066827512,3.536118178322401,-12.079781544183579,-12.449363889819196
17.21323299407959,-0.9121320247650146,2.6628684997558594,-10.728233337402344,0.15589203628095233,0.0017673969268798828,6.0,0.0,2.646953612704114,-10.702869668872154,-0.29505868882537345,0.701035019273847,0.47453906420002934,-0.6124693185954924,-0.38466146804513573,5.458665239183093,2.2195088111599994,-10.711044383896033,-13.590468054353126
17.221086740493774,-1.0364998579025269,2.3320930004119873,-10.438793182373047,0.09757843948342512,0.0017533302307128906,6.0,0.0,2.630673744522717,-10.677391357178081,-0.289597448948999,0.7169929162613236,1.0,-0.13587992117498723,-0.425572241378874,3.843026435852051,3.8420264358520506,-12.39406844329834,-12.39506844329834
17.231457948684692,-1.0364998579025269,2.3320930004119873,-10.438793182373047,0.09757843948342512,0.001886129379272461,6.0,0.0,2.614013076504755,-10.65181559068414,-0.28347158205853196,0.7161589807411898,1.0,0.020861506482634025,-0.31933554659238345,3.86455820381374,3.83236553360048,-12.384107779552071,-12.388559031953424
17.24123477935791,-1.052830457687378,2.269413709640503,-10.385382652282715,0.08604290972290446,0.0013568401336669922,6.0,0.0,2.5969576183353245,-10.626159618970348,-0.2767305625522069,0.7187714293319656,1.0,0.16265563985348686,-0.24151751772360397,3.9312586338221625,3.7725902104199354,-12.317804013334968,-12.367658237925884
17.251373529434204,-1.052830457687378,2.269413709640503,-10.385382652282715,0.08604290972290446,0.0012955665588378906,6.0,0.0,2.579495186876534,-10.600440700884207,-0.2694221414054384,0.7181135153730696,1.0,0.20982981622067035,-0.15018083373181987,4.163545066827512,3.536118178322401,-12.079781544183579,-12.449363889819196
17.261236667633057,-1.06260085105896,2.2274622917175293,-10.349489212036133,0.0781013392514201,0.0013349056243896484,6.0,0.0,2.5616153803611756,-10.574676046680173,-0.26159237258761825,0.7194338477369172,1.0,0.28730027853237466,-0.11497136991983123,5.458665239183093,2.2195088111599994,-10.711044383896033,-13.590468054353126
17.271289825439453,-1.06260085105896,2.2274622917175293,-10.349489212036133,0.0781013392514201,0.0016703605651855469,6.0,0.0,2.5433095478443644,-10.54888275569953,-0.2532856409940689,0.7187702684251412,1.0,0.3132650387592166,-0.06971558405831793,3.843026435852051,3.8420264358520506,-12.39406844329834,-12.39506844329834
17.281264781951904,-1.071422815322876,2.1854140758514404,-10.313444137573242,0.06980110436243266,0.0013740062713623047,6.0,0.0,2.5245707538279185,-10.52307775094207,-0.2445446914615297,0.7198548552033531,1.0,0.37453185246810144,-0.057487104257064936,3.86455820381374,3.83236553360048,-12.384107779552071,-12.388559031953424
17.291287660598755,-1.0754681825637817,2.1643636226654053,-10.295372009277344,0.06554928935133905,0.001577138900756836,6.0,0.0,2.5053937380420526,-10.497277711782193,-0.2354106585017764,0.7200310932177514,1.0,0.41510257580413606,-0.03305107484562436,3.9312586338221625,3.7725902104199354,-12.317804013334968,-12.367658237925884
17.301299571990967,-1.0792672634124756,2.143301486968994,-10.27726936340332,0.06127517551039233,0.0010302066802978516,6.0,0.0,2.485774870440265,-10.471499005984544,-0.22592309644924005,0.7202017396581628,1.0,0.44706608879490917,-0.01127904017294623,4.163545066827512,3.536118178322401,-12.079781544183579,-12.449363889819196
17.311145067214966,-1.0828197002410889,2.12223219871521,-10.259138107299805,0.05701329535974776,0.0013685226440429688,6.0,0.0,2.4657121015337324,-10.445757622077663,-0.21612000977457219,0.720369458102478,1.0,0.473646246384331,0.007071277739305215,5.458665239183093,2.2195088111599994,-10.711044383896033,-13.590468054353126
17.321220636367798,-1.0888793468475342,2.0788207054138184,-10.222193717956543,0.04861396549587701,0.0013489723205566406,6.0,0.0,2.4452049082591145,-10.420069103047888,-0.20612000977457218,0.7214012955795202,1.0,0.5080966860071442,0.020408832900853657,3.866410053253174,3.8654100532531737,-12.374193870544433,-12.375193870544434
17.434666633605957,-1.0888793468475342,2.0788207054138184,-10.222193717956543,0.04861396549587701,0.0010902881622314453,6.0,0.0,2.054362530216421,-10.198830423076712,-0.036702386676618806,0.7023759922283045,1.0,0.5174746871735626,0.042011868090477245,3.8870854189065116,3.854585313217516,-12.35235236116014,-12.358430074041772
17.44223165512085,-1.1021859645843506,1.7500213384628296,-9.938729286193848,0.002441747972140154,0.001215219497680664,6.0,0.0,2.0296303402184024,-10.175598439240762,-0.026702386676618804,0.7156311040484836,0.8342115822596367,0.5644258738978224,0.09324017188196132,3.9541428585533085,3.7908167543864635,-12.272791848035364,-12.330508417535203
17.451223134994507,-1.100736141204834,1.728665828704834,-9.919400215148926,0.0004647036082485942,0.0011830329895019531,6.0,0.0,2.0046340758889585,-10.152502606608815,-0.016702386676618802,0.7158819827121496,0.7824149046845377,0.5820800081532929,0.1319364277054858,4.198315029929988,3.536902562985698,-12.013640576802272,-12.413738058512656
17.461281061172485,-1.0990973711013794,1.7074193954467773,-9.90005874633789,-0.001186072803064403,0.002259969711303711,6.0,0.0,1.979383766156593,-10.129547484120035,-0.006702386676618802,0.7161454219785194,0.7308375601515016,0.5914442757786292,0.15502418143765834,5.570120128714114,2.1361728193181473,-10.552898479918353,-13.626688313547708
17.471221208572388,-1.0972727537155151,1.6862865686416626,-9.880722045898438,-0.0027102815055700114,0.0017549991607666016,6.0,0.0,1.9538895218667902,-10.106737347462031,0.003297613323381198,0.7164279972204584,0.6795597685686611,0.5962529951456182,0.16996865218979057,3.866410053253174,3.8654100532531737,-12.374193870544433,-12.375193870544434
17.481164693832397,-1.0930802822113037,1.6443806886672974,-9.842000961303711,-0.005348358149395702,0.001329183578491211,6.0,0.0,1.9281615291896232,-10.084076187199464,0.013297613323381198,0.7178338451207481,0.5951859102162705,0.5969006124314463,0.1856991780818728,3.8870854189065116,3.854585313217516,-12.35235236116014,-12.358430074041772
17.49130630493164,-1.0907188653945923,1.6236175298690796,-9.822611808776855,-0.006446180129547799,0.0012943744659423828,6.0,0.0,1.902210042981318,-10.061567707063,0.0232976133233812,0.7181765575177842,0.5441410407607025,0.5972964690961372,0.19330506629611277,3.9541428585533085,3.7908167543864635,-12.272791848035364,-12.330508417535203
17.50107431411743,-1.0881848335266113,1.6029876470565796,-9.803205490112305,-0.007384462208955653,0.0010862350463867188,6.0,0.0,1.8760453801038257,-10.039215322399647,0.0332976133233812,0.7185313372152564,0.49501350965192636,0.5957483924552757,0.2003058591818611,4.198315029929988,3.536902562985698,-12.013640576802272,-12.413738058512656
17.51116704940796,-1.08548104763031,1.5824956893920898,-9.783778190612793,-0.008164452435646632,0.001226186752319336,6.0,0.0,1.8496779127064675,-10.017022158785343,0.0432976133233812,0.7189003490722481,0.4480158291415358,0.5929497391348265,0.20617424719894292,5.570120128714114,2.1361728193181473,-10.552898479918353,-13.626688313547708
17.521132469177246,-1.0795694589614868,1.5419403314590454,-9.744893074035645,-0.00927646057281549,0.0017271041870117188,6.0,0.0,1.823118061473732,-9.9949910508006,0.053297613323381204,0.7204204058510394,0.36669939781007976,0.5849113166585193,0.21770330081891945,3.866410053253174,3.8654100532531737,-12.374193870544433,-12.375193870544434
17.53116488456726,-1.0763683319091797,1.521885871887207,-9.725419044494629,-0.009615189275907252,0.0010993480682373047,6.0,0.0,1.7963762888433175,-9.973124540969831,0.0632976133233812,0.7208129143992286,0.32427092645980005,0.5795996787430567,0.2196972444448616,3.8870854189065116,3.854585313217516,-12.35235236116014,-12.358430074041772
17.541212797164917,-1.073011040687561,1.5019874572753906,-9.70592212677002,-0.009813224357480568,0.0012998580932617188,6.0,0.0,1.7694630921985166,-9.951424878864897,0.0732976133233812,0.7212145896057441,0.28501334383466104,0.5732357414408362,0.22243180070882526,3.9541428585533085,3.7908167543864635,-12.272791848035364,-12.330508417535203
17.551280736923218,-1.0695010423660278,1.4822489023208618,-9.686403274536133,-0.00988190969338587,0.0011565685272216797,6.0,0.0,1.7423889970390392,-9.92989402037327,0.08329761332338119,0.7216252857779863,0.24899982676014099,0.5663517815398327,0.2247214097842113,4.198315029929988,3.536902562985698,-12.013640576802272,-12.413738058512656
17.669252395629883,-1.0695010423660278,1.4822489023208618,-9.686403274536133,-0.00988190969338587,0.0011165142059326172,6.0,0.0,1.4543794498106086,-9.668432964224015,0.22466989794111222,0.7132964525908098,0.27645839069744405,0.5636078960463299,0.22024300872026956,5.570120128714114,2.1361728193181473,-10.552898479918353,-13.626688313547708
17.674638509750366,-0.9872190952301025,1.2035930156707764,-9.39267635345459,0.0028242868464720683,0.0011069774627685547,6.0,0.0,1.4266520963057627,-9.650409764403973,0.22715191414985217,0.7304782942442035,-0.19803476289310917,0.46983891782409426,0.31831499946522845,3.866410053253174,3.8654100532531737,-12.374193870544433,-12.375193870544434
17.681192636489868,-0.9807048439979553,1.1865216493606567,-9.37292766571045,0.004309757820547433,0.0011053085327148438,6.0,0.0,1.3990743056443486,-9.632325600549693,0.22936111673124343,0.7309779206590636,-0.2586887157725534,0.4552129257347897,0.25801188932084335,3.8870854189065116,3.854585313217516,-12.35235236116014,-12.358430074041772
17.69122886657715,-0.9674442410469055,1.152995228767395,-9.333342552185059,0.007445370944072993,0.0014150142669677734,6.0,0.0,1.3716531504452345,-9.614172822854012,0.23130721467521786,0.7327225214606167,-0.34966587712474073,0.4270056888910654,0.233481385353011,3.9541428585533085,3.7908167543864635,-12.272791848035364,-12.330508417535203
17.70118498802185,-0.959839403629303,1.137133002281189,-9.31309700012207,0.009092357969219006,0.0011911392211914062,6.0,0.0,1.3443953267497395,-9.595944207241192,0.2329998552462847,0.7332807685185502,-0.4148835399928099,0.4070920402934746,0.20887865487700485,4.198315029929988,3.536902562985698,-12.013640576802272,-12.413738058512656
17.711196899414062,-0.9521790146827698,1.1214689016342163,-9.292829513549805,0.010967344016025948,0.0013179779052734375,6.0,0.0,1.317307167898913,-9.577632954608275,0.2344486084641187,0.7338499133833679,-0.480665597861074,0.38986829880326346,0.18935233849774769,5.570120128714114,2.1361728193181473,-10.552898479918353,-13.626688313547708
17.72143864631653,-0.936701238155365,1.0907461643218994,-9.252272605895996,0.014813305278853411,0.0018451213836669922,6.0,0.0,1.2903946576704075,-9.559232688449017,0.2356629526826542,0.7355771082473008,-0.5801581442290651,0.36784442862241945,0.17488476719127588,3.866410053253174,3.8654100532531737,-12.374193870544433,-12.375193870544434
17.731158018112183,-0.9288883805274963,1.0756804943084717,-9.231978416442871,0.016736693739933806,0.0012683868408203125,6.0,0.0,1.2636634427046014,-9.540737451007614,0.23665226123863617,0.7360378466278825,-0.6416447560751817,0.3514610942678011,0.15490928338503132,3.8870854189065116,3.854585313217516,-12.35235236116014,-12.358430074041772
17.74106454849243,-0.921029806137085,1.06082284450531,-9.211676597595215,0.018641988008412158,0.0011479854583740234,6.0,0.0,1.237118844254123,-9.522141698102907,0.23742579013847698,0.7364884570809115,-0.6995629865067089,0.3367741853296399,0.1369210810015263,3.9541428585533085,3.7908167543864635,-12.272791848035364,-12.330508417535203
17.752124309539795,-0.9131283164024353,1.0461736917495728,-9.191368103027344,0.02051236423150099,0.003699779510498047,6.0,0.0,1.210765869294301,-9.503440292757144,0.2379926667505342,0.7369294754923126,-0.7535410926085999,0.3233694019515884,0.12017905167562698,4.198315029929988,3.536902562985698,-12.013640576802272,-12.413738058512656
17.762969970703125,-0.9051864147186279,1.0317332744598389,-9.171053886413574,0.02235498038301925,0.0010437965393066406,6.0,0.0,1.184609221034433,-9.484628497756693,0.23836187946853377,0.7373592568026883,-0.8035565460048142,0.31090228113401214,0.10430710778042655,5.570120128714114,2.1361728193181473,-10.552898479918353,-13.626688313547708
17.77119469642639,-0.8891909718513489,1.0034763813018799,-9.13043212890625,0.025958252571453844,0.0016508102416992188,6.0,0.0,1.1586533088712387,-9.465701967265444,0.23854226831078557,0.7389235788946005,-0.861600799094085,0.29436217545883253,0.08797266994871321,3.866410053253174,3.8654100532531737,-12.374193870544433,-12.375193870544434
17.781176567077637,-0.8811420202255249,0.989657998085022,-9.110123634338379,0.027712296253663393,0.0010755062103271484,6.0,0.0,1.1329022578265608,-9.446656737604991,0.2385425164190509,0.7393178415110696,-0.8994739387008435,0.28161168166743444,0.07049927821937133,3.8870854189065116,3.854585313217516,-12.35235236116014,-12.358430074041772
17.7911217212677,-0.8730618953704834,0.9760441780090332,-9.089812278747559,0.02943493815066775,0.0013206005096435547,6.0,0.0,1.1073599175113786,-9.427489217309175,0.23837114242039398,0.7397008550541161,-0.9331989562501839,0.27036642754195916,0.054875167872001744,3.9541428585533085,3.7908167543864635,-12.272791848035364,-12.330508417535203
17.90177297592163,-0.8730618953704834,0.9760441780090332,-9.089812278747559,0.02943493815066775,0.0010933876037597656,6.0,0.0,0.9529669884641903,-9.07072754448987,0.28198229744489345,0.7258055206654067,-1.0,0.2642571555301724,0.042956647780948536,4.198315029929988,3.536902562985698,-12.013640576802272,-12.413738058512656
17.911213159561157,-0.7492896318435669,0.7984902262687683,-8.784276008605957,0.051644755258925715,0.0012068748474121094,6.0,0.0,0.9303382745662931,-9.051283913262402,0.2721986264189453,0.7403870697313288,-0.692324170378017,0.20118754119599572,-0.03570297961856467,5.570120128714114,2.1361728193181473,-10.552898479918353,-13.626688313547708
17.92118501663208,-0.7325282096862793,0.7777290344238281,-8.7437162399292,0.05407692791994975,0.0014109611511230469,6.0,0.0,0.9081497802687477,-9.031496644639748,0.26273164542793004,0.7413933973634885,-0.6262892521105909,0.18219120383062018,-0.047079294893016696,3.866410053253174,3.8654100532531737,-12.374193870544433,-12.375193870544434
17.931212663650513,-0.7241388559341431,0.7675421833992004,-8.723462104797363,0.05524693922591766,0.0011451244354248047,6.0,0.0,0.8863909917710077,-9.011382661671329,0.2535782021930196,0.7414941382543305,-0.6037642530653953,0.1741167369078689,-0.05200975157254032,3.8870854189065116,3.854585313217516,-12.35235236116014,-12.358430074041772
17.94121789932251,-0.7157453894615173,0.7574768662452698,-8.703222274780273,0.05638010981929812,0.0013475418090820312,6.0,0.0,0.8650512427003397,-8.990958160980306,0.24473478328089324,0.7416010888990124,-0.5787147070402232,0.16886795669529062,-0.05650330707603875,3.9541428585533085,3.7908167543864635,-12.272791848035364,-12.330508417535203
17.951254844665527,-0.7073577046394348,0.747527539730072,-8.682999610900879,0.057464584758404644,0.0010247230529785156,6.0,0.0,0.8441197554420071,-8.97023863058755,0.23619754069395654,0.7416602816308024,-0.5518581941551267,0.1644472385431383,-0.06062050826294099,4.198315029929988,3.536902562985698,-12.013640576802272,-12.413738058512656
17.96116042137146,-0.6990853548049927,0.7385368347167969,-8.662432670593262,0.05848420862465856,0.0013256072998046875,6.0,0.0,0.8235856798664406,-8.949238869095286,0.22796231760455904,0.741724725827777,-0.5291188639929072,0.16044094133430906,-0.06428401639254941,5.570120128714114,2.1361728193181473,-10.552898479918353,-13.626688313547708
17.97129511833191,-0.6908093094825745,0.7296396493911743,-8.641897201538086,0.05960039275193985,0.001983642578125,6.0,0.0,0.8034381294748721,-8.927973005971568,0.22002467322790775,0.7417595683723257,-0.5061300266937538,0.1566719814159691,-0.06787371837370235,3.866410053253174,3.8654100532531737,-12.374193870544433,-12.375193870544434
17.981359481811523,-0.6742511987686157,0.712107241153717,-8.600959777832031,0.06165762517742541,0.0013804435729980469,6.0,0.0,0.783666215001888,-8.906454522697365,0.2123799068303036,0.7425547982664349,-0.43324104125968255,0.15123364495504726,-0.07390159097833947,3.8870854189065116,3.854585313217516,-12.35235236116014,-12.358430074041772
17.991313934326172,-0.6659716367721558,0.7034624218940735,-8.58053970336914,0.06260144664252845,0.0012269020080566406,6.0,0.0,0.7642590755277427,-8.884696274558326,0.20502308087127602,0.7425424792405495,-0.41042756359967913,0.14827687807046783,-0.07606836114455157,3.9541428585533085,3.7908167543864635,-12.272791848035364,-12.330508417535203
18.00108051300049,-0.6576929092407227,0.6948923468589783,-8.560153007507324,0.06348703133572214,0.0012862682342529297,6.0,0.0,0.7452059071652691,-8.862710512883313,0.1979490432801285,0.7425178351894044,-0.387636165286222,0.14617946513937685,-0.07841028877125827,4.198315029929988,3.536902562985698,-12.013640576802272,-12.413738058512656
18.011220693588257,-0.6411319375038147,0.6779690384864807,-8.51948070526123,0.06510466972612179,0.0011188983917236328,6.0,0.0,0.726495989396033,-8.840508907551053,0.19115244886931723,0.7432163818788561,-0.3159716907529663,0.1434960632672049,-0.08285001129606501,5.570120128714114,2.1361728193181473,-10.552898479918353,-13.626688313547708
18.021317958831787,-0.6328513622283936,0.6696073412895203,-8.499208450317383,0.06583349874288974,0.0016217231750488281,6.0,0.0,0.7081187091382144,-8.818102569604976,0.18462777988894058,0.7431537344122366,-0.293599201764573,0.14206626458810603,-0.08419165019006619,3.866410053253174,3.8654100532531737,-12.374193870544433,-12.375193870544434
18.135388135910034,-0.6328513622283936,0.6696073412895203,-8.499208450317383,0.06583349874288974,0.0010373592376708984,6.0,0.0,0.6557774463585796,-8.475585008673889,0.08766547542168387,0.7332563279108142,-0.4033595619307834,0.1418313637978469,-0.08399843002390099,3.8870854189065116,3.854585313217516,-12.35235236116014,-12.358430074041772
18.142633199691772,-0.511711061000824,0.5549825429916382,-8.19693660736084,0.07299235984833839,0.0012247562408447266,6.0,0.0,0.6421292531263338,-8.451862301475314,0.08391496399793993,0.7425831141838588,0.22205564738006978,0.1286132433238059,-0.11114999563579596,3.9541428585533085,3.7908167543864635,-12.272791848035364,-12.330508417535203
18.151161909103394,-0.5037980079650879,0.5477722883224487,-8.176983833312988,0.07325669820056965,0.0010020732879638672,6.0,0.0,0.6286527503502712,-8.428046537580961,0.08043664478496428,0.7424545173498006,0.2393822067586041,0.126807240160837,-0.09912069629505964,4.198315029929988,3.536902562985698,-12.013640576802272,-12.413738058512656
18.16112208366394,-0.4958590865135193,0.5405762195587158,-8.157068252563477,0.0734927163970137,0.0010662078857421875,6.0,0.0,0.6153383624179029,-8.40414356734361,0.07721977610501829,0.7423229927940904,0.2572495153344171,0.12551358873729898,-0.09366916217514096,5.570120128714114,2.1361728193181473,-10.552898479918353,-13.626688313547708
18.17121195793152,-0.4879307448863983,0.533385694026947,-8.137187957763672,0.07369969501237367,0.0015397071838378906,6.0,0.0,0.6021769465943573,-8.380158906579172,0.07425377702825703,0.7422024180530933,0.2758830866199905,0.12425724424600554,-0.09132238940723965,3.866410053253174,3.8654100532531737,-12.374193870544433,-12.375193870544434
18.18116021156311,-0.47210797667503357,0.5190132260322571,-8.09755802154541,0.07401774101793164,0.0011258125305175781,6.0,0.0,0.5891597890619733,-8.356097758836613,0.07152823689693315,0.7426487717860567,0.33702417680574054,0.12188204972254255,-0.0911820438692769,3.8870854189065116,3.854585313217516,-12.35235236116014,-12.358430074041772
18.191165685653687,-0.4642144739627838,0.5118274092674255,-8.077799797058105,0.0741323457554359,0.0013780593872070312,6.0,0.0,0.5762785998851823,-8.331965036057493,0.0690329239686572,0.7424667268581099,0.3524033417434894,0.1202471238563545,-0.08940880648443604,3.9541428585533085,3.7908167543864635,-12.272791848035364,-12.330508417535203
18.20114779472351,-0.4476155936717987,0.49741825461387634,-8.037590980529785,0.07427895949630431,0.0010602474212646484,6.0,0.0,0.563525507023009,-8.307765377715475,0.06675779321465065,0.7429141580437458,0.3984965875794174,0.11832437608799026,-0.08901067661500252,4.198315029929988,3.536902562985698,-12.013640576802272,-12.413738058512656
18.21120262145996,-0.43892937898635864,0.49019312858581543,-8.017157554626465,0.07430129022588737,0.001190185546875,6.0,0.0,0.5508930495013357,-8.28350316852617,0.0646929933089641,0.7427911046324229,0.404971576783276,0.11742236287164308,-0.08741069037397005,5.570120128714114,2.1361728193181473,-10.552898479918353,-13.626688313547708
18.221121072769165,-0.4302748739719391,0.48296409845352173,-7.996795177459717,0.07430015552742339,0.0012524127960205078,6.0,0.0,0.5383741698476434,-8.259182554816938,0.06282887284448367,0.7426678759120459,0.4083620717354623,0.11675507831677974,-0.08664626794164856,3.866410053253174,3.8654100532531737,-12.374193870544433,-12.375193870544434
18.231350421905518,-0.42165547609329224,0.47572776675224304,-7.976484775543213,0.07427883598191945,0.0012288093566894531,6.0,0.0,0.5259622058822342,-8.234807459644708,0.06115598581123581,0.7425452775188138,0.40888689239395914,0.11611640979085182,-0.0862371199125144,3.8870854189065116,3.854585313217516,-12.35235236116014,-12.358430074041772
18.2413067817688,-0.41306746006011963,0.4684876501560211,-7.956225872039795,0.07423820951826902,0.0012173652648925781,6.0,0.0,0.5136508819519139,-8.210381596747865,0.05966509637204696,0.7424230182768505,0.40665409200607716,0.11544909975544097,-0.0859903968025004,3.9541428585533085,3.7908167543864635,-12.272791848035364,-12.330508417535203
18.251227617263794,-0.40451085567474365,0.4612441956996918,-7.936017990112305,0.07417571133252332,0.0011792182922363281,6.0,0.0,0.5014342996847357,-8.185908483415648,0.058347182970040934,0.7423010780638442,0.40180434254522374,0.11472611873909731,-0.08582504113642998,4.198315029929988,3.536902562985698,-12.013640576802272,-12.413738058512656
18.36944317817688,-0.40451085567474365,0.4612441956996918,-7.936017990112305,0.07417571133252332,0.0008854866027832031,6.0,0.0,0.45065601893857915,-7.912085821358979,0.013163340953418827,0.7373190717560343,0.2281070775558816,0.11491917703797114,-0.08624222043598835,5.570120128714114,2.1361728193181473,-10.552898479918353,-13.626688313547708
18.373789072036743,-0.2764905095100403,0.3435523808002472,-7.615828037261963,0.07013418869845091,0.0011138916015625,6.0,0.0,0.4400236107235522,-7.888151982619769,0.015469609059643669,0.7468565573789109,0.2787400805920301,0.096106629171597,-0.07858268530360964,3.866410053253174,3.8654100532531737,-12.374193870544433,-12.375193870544434
18.381258487701416,-0.2764905095100403,0.3435523808002472,-7.615828037261963,0.07013418869845091,0.0012104511260986328,6.0,0.0,0.4293485554158177,-7.864217678119049,0.017794528091093647,0.746159864327381,0.2569579268220117,0.09380788480449744,-0.07726112956463829,3.8870854189065116,3.854585313217516,-12.35235236116014,-12.358430074041772
18.39120101928711,-0.26164329051971436,0.3287646770477295,-7.576148986816406,0.06928075916112543,0.0012552738189697266,6.0,0.0,0.41863262459711675,-7.840284023499727,0.02013188832856562,0.7467933589952273,0.22510547512264306,0.08995685878143518,-0.07531997776587009,3.9541428585533085,3.7908167543864635,-12.272791848035364,-12.330508417535203
18.401148557662964,-0.26164329051971436,0.3287646770477295,-7.576148986816406,0.06928075916112543,0.0010619163513183594,6.0,0.0,0.40787776256253083,-7.816352048029683,0.02247580848224191,0.7460978196805828,0.20351283251881183,0.0895164689340681,-0.07659938849256837,4.198315029929988,3.536902562985698,-12.013640576802272,-12.413738058512656
18.41134810447693,-0.23953203856945038,0.3068140149116516,-7.516977310180664,0.06793516636380001,0.0019979476928710938,6.0,0.0,0.3970860722727232,-7.79242269696472,0.024820727348812455,0.7473868807015183,0.16193872969623488,0.08395054628944061,-0.07412032421760156,5.570120128714114,2.1361728193181473,-10.552898479918353,-13.626688313547708
18.421190977096558,-0.23953203856945038,0.3068140149116516,-7.516977310180664,0.06793516636380001,0.0018079280853271484,6.0,0.0,0.3862598017716316,-7.768496834064043,0.02716139540088787,0.7466930569699348,0.14053901614665665,0.08330291392566656,-0.07578956955561757,3.866410053253174,3.8654100532531737,-12.374193870544433,-12.375193870544434
18.43115234375,-0.22490641474723816,0.2923581600189209,-7.477799892425537,0.06700027463072236,0.0011348724365234375,6.0,0.0,0.3754013310740606,-7.744575244251766,0.029492866326003335,0.7472779445718767,0.10583809137036107,0.07984425753837161,-0.07512520515522687,3.8870854189065116,3.854585313217516,-12.35235236116014,-12.358430074041772
18.441073179244995,-0.22490641474723816,0.2923581600189209,-7.477799892425537,0.06700027463072236,0.0012590885162353516,6.0,0.0,0.364513159526111,-7.720658636415889,0.03181048853155572,0.7465851603728036,0.0846347378572554,0.07942718076991812,-0.07668016938608206,3.9541428585533085,3.7908167543864635,-12.272791848035364,-12.330508417535203
18.451258420944214,-0.20307980477809906,0.26989367604255676,-7.419060707092285,0.0655664541493952,0.001028299331665039,6.0,0.0,0.3535978936399341,-7.696747646334421,0.034109896631112205,0.7477963763066802,0.050632304698987246,0.07490407074446181,-0.07519258820231685,4.198315029929988,3.536902562985698,-12.013640576802272,-12.413738058512656
18.4614155292511,-0.20307980477809906,0.26989367604255676,-7.419060707092285,0.0655664541493952,0.001949310302734375,6.0,0.0,0.3426582354029121,-7.672842839716912,0.03638700292667331,0.7471051832391845,0.02962870479908075,0.0743709732944044,-0.07638983383554757,5.570120128714114,2.1361728193181473,-10.552898479918353,-13.626688313547708
18.471075296401978,-0.1886027753353119,0.2537423372268677,-7.379738807678223,0.0644456155955522,0.0015516281127929688,6.0,0.0,0.3316969710600531,-7.648944715348567,0.038637988900661904,0.7476734084476687,0.009644087899354947,0.0715830839770426,-0.07593402471664412,3.8701393966674806,3.8691393966674803,-12.233483993530273,-12.234483993530274
18.580429553985596,-0.1886027753353119,0.2537423372268677,-7.379738807678223,0.0644456155955522,0.0010173320770263672,6.0,0.0,0.24262313505658759,-7.357282859615742,0.08461789589704398,0.7414267984303269,-0.13476961258955433,0.07159571586039253,-0.07679991994312171,3.8794032433590755,3.8445786114411282,-12.134795992761125,-12.152909506837803
18.58600115776062,-0.0974874347448349,0.1555619239807129,-7.1292724609375,0.05683645732629222,0.0010573863983154297,6.0,0.0,0.23161682010439047,-7.334789719157806,0.083351317945216,0.7488432657165909,-0.09543638169637987,0.057014571424534616,-0.07363417993451264,3.943335292144065,3.743717617131189,-11.96129477728319,-12.081143816683916
18.59215235710144,-0.09132812172174454,0.1480931043624878,-7.110439777374268,0.056241704365904664,0.0019326210021972656,6.0,0.0,0.22072039966660878,-7.312261445586601,0.08216236913456655,0.7487572776901523,-0.10578948486575387,0.05418003369826992,-0.07150248141132089,4.276922152334735,3.3458922387973424,-11.537375315680809,-12.186133375630273
18.601074695587158,-0.08518832176923752,0.1407012790441513,-7.091648578643799,0.05561480643337681,0.0010356903076171875,6.0,0.0,0.20993102569682728,-7.289700017137683,0.08104762766264878,0.7486723148625937,-0.11602058394268275,0.05239667122964808,-0.0703753414690489,6.263693040881328,1.2641225857010527,-9.352296714187466,-13.96676458991845
18.611260175704956,-0.07296983152627945,0.12614643573760986,-7.0541887283325195,0.05435751313691506,0.0012638568878173828,6.0,0.0,0.19924599118674244,-7.26710733479596,0.080003741122131,0.7491850971248171,-0.11732663199538347,0.0491227249133496,-0.06910232097125797,3.8701393966674806,3.8691393966674803,-12.233483993530273,-12.234483993530274
18.621153116226196,-0.06689240783452988,0.11898248642683029,-7.035518646240234,0.05372938383647985,0.0019655227661132812,6.0,0.0,0.18866272645881546,-7.244485225910818,0.07902742841524887,0.7491061225415387,-0.1274004343881858,0.047214510865568285,-0.06820801020004877,3.8794032433590755,3.8445786114411282,-12.134795992761125,-12.152909506837803
18.631231546401978,-0.06083686649799347,0.11189395934343338,-7.016902446746826,0.05310379232907177,0.0012238025665283203,6.0,0.0,0.17817879538543532,-7.221835447639212,0.0781154814295758,0.7490194099372814,-0.13703385872364068,0.0454581982495472,-0.06757362588388248,3.943335292144065,3.743717617131189,-11.96129477728319,-12.081143816683916
18.64126968383789,-0.05480392649769783,0.10488057136535645,-6.998325824737549,0.0524802067795977,0.001318216323852539,6.0,0.0,0.16779189154840707,-7.199159690225319,0.07726476648638332,0.7489297315840597,-0.14599001958201924,0.04376250460675022,-0.06704999688870006,4.276922152334735,3.3458922387973424,-11.537375315680809,-12.186133375630273
18.651322841644287,-0.042814671993255615,0.09108158200979233,-6.961291790008545,0.05123043655975579,0.001115560531616211,6.0,0.0,0.15749983435171502,-7.176459580125092,0.07647222557258991,0.7494162947472301,-0.14307186348050252,0.0408358959017494,-0.06613114757765493,6.263693040881328,1.2641225857010527,-9.352296714187466,-13.96676458991845
18.661218643188477,-0.0368594229221344,0.08429477363824844,-6.942834377288818,0.050603675415094765,0.0011255741119384766,6.0,0.0,0.14730056509968092,-7.15373668298378,0.07573487736701814,0.7493182257142532,-0.14972013532162862,0.03937143687026931,-0.06533404575482533,3.8701393966674806,3.8691393966674803,-12.233483993530273,-12.234483993530274
18.671347856521606,-0.03092907927930355,0.07758080214262009,-6.924415588378906,0.04998089732323731,0.0016412734985351562,6.0,0.0,0.1371921430518423,-7.130992506474157,0.07504981807139774,0.7492188882359977,-0.15556810730498905,0.03815938556036364,-0.0646959420510308,3.8794032433590755,3.8445786114411282,-12.134795992761125,-12.152909506837803
18.681395053863525,-0.025024253875017166,0.07093897461891174,-6.906048774719238,0.049357395131574604,0.0011720657348632812,6.0,0.0,0.12717274146511584,-7.108228503002894,0.07441422205626727,0.7491182563972387,-0.1606863907847674,0.037059318041263084,-0.06411663939012154,3.943335292144065,3.743717617131189,-11.96129477728319,-12.081143816683916
18.691197633743286,-0.013292912393808365,0.057868462055921555,-6.8694305419921875,0.048118301898882276,0.0013551712036132812,6.0,0.0,0.11724064363308409,-7.085446072292162,0.07382534233164048,0.7495805258289223,-0.1508519343138531,0.03510607519284937,-0.06319585878335088,4.276922152334735,3.3458922387973424,-11.537375315680809,-12.186133375630273
18.70112681388855,-0.007467217743396759,0.051438115537166595,-6.851179122924805,0.047502895917856426,0.0010662078857421875,6.0,0.0,0.10739423893154883,-7.062646563843205,0.07328051085201547,0.7494737710742594,-0.15409420205252988,0.03410628310851563,-0.06229199265133734,6.263693040881328,1.2641225857010527,-9.352296714187466,-13.96676458991845
18.820476293563843,-0.007467217743396759,0.051438115537166595,-6.851179122924805,0.047502895917856426,0.0020563602447509766,6.0,0.0,0.042271119843238475,-6.829464575408759,0.08833955784378403,0.7449245686707968,-0.25926539079962385,0.034486856555545384,-0.06193529649758533,3.8701393966674806,3.8691393966674803,-12.233483993530273,-12.234483993530274
18.827512502670288,0.08145910501480103,-0.038859423249959946,-6.579187393188477,0.039083026383817436,0.0013971328735351562,6.0,0.0,0.03324861106106725,-6.807712314009752,0.08586663633508977,0.7525306709236042,-0.005029946716098244,0.027630778460090995,-0.05921243335263802,3.8794032433590755,3.8445786114411282,-12.134795992761125,-12.152909506837803
18.831592559814453,0.0870988741517067,-0.044388726353645325,-6.561398029327393,0.038564108319830086,0.0012505054473876953,6.0,0.0,0.02436565316477923,-6.785924943385885,0.08351004797356382,0.7523964086942913,-0.0014486486775857899,0.02675182572648553,-0.054292239734529985,3.943335292144065,3.743717617131189,-11.96129477728319,-12.081143816683916
18.841443061828613,0.09265852719545364,-0.0503210611641407,-6.543361186981201,0.03804738368392953,0.0013949871063232422,6.0,0.0,0.015617478338413262,-6.764104955271054,0.08126638864458705,0.752265181960232,0.004276607847947506,0.02620270491338241,-0.05158903742229269,4.276922152334735,3.3458922387973424,-11.537375315680809,-12.186133375630273
18.851248025894165,0.10366329550743103,-0.061991941183805466,-6.507425785064697,0.03705953150694723,0.0011570453643798828,6.0,0.0,0.006999485930648213,-6.742254734060395,0.07913225554042103,0.752659942452085,0.032736617845942534,0.02503630447069559,-0.04968671372784959,6.263693040881328,1.2641225857010527,-9.352296714187466,-13.96676458991845
18.86126947402954,0.10911906510591507,-0.06772036850452423,-6.489524841308594,0.03657207253062609,0.0011730194091796875,6.0,0.0,-0.0014927588932195624,-6.720376562149686,0.07710425297270122,0.7525375281467244,0.03938319713862548,0.024376727326291002,-0.04823802109803917,3.8701393966674806,3.8691393966674803,-12.233483993530273,-12.234483993530274
18.871115922927856,0.1145365759730339,-0.0733882412314415,-6.4716691970825195,0.03608652706305762,0.0012502670288085938,6.0,0.0,-0.009863526778366914,-6.6984726250325055,0.07517899783848958,0.7523876575818282,0.046242252291198827,0.023749326087248532,-0.04722858088549062,3.8794032433590755,3.8445786114411282,-12.134795992761125,-12.152909506837803
18.88147473335266,0.11991556733846664,-0.07899694889783859,-6.453873157501221,0.035605379007190616,0.0012946128845214844,6.0,0.0,-0.018116926063911392,-6.676545016159926,0.07335312475035566,0.7522208153441524,0.05257502971029693,0.023158997012709612,-0.0464325784616547,3.943335292144065,3.743717617131189,-11.96129477728319,-12.081143816683916
18.891106128692627,0.1305573284626007,-0.09004267305135727,-6.418424606323242,0.03465671979036023,0.0011339187622070312,6.0,0.0,-0.026256904901054142,-6.6545957415684045,0.07162329084096712,0.7525142944588376,0.07821759355619601,0.022060801770224334,-0.04545251011210576,4.276922152334735,3.3458922387973424,-11.537375315680809,-12.186133375630273
18.901190280914307,0.1358199417591095,-0.09548227488994598,-6.4007720947265625,0.03418768149479677,0.0012431144714355469,6.0,0.0,-0.034287253585179964,-6.632626724282242,0.06998618025265842,0.752336125204508,0.08135855313348994,0.021510681137651564,-0.044498161813146996,6.263693040881328,1.2641225857010527,-9.352296714187466,-13.96676458991845
18.911162614822388,0.1410437375307083,-0.1008678451180458,-6.383166790008545,0.03372521287196032,0.0012276172637939453,6.0,0.0,-0.042211607082167646,-6.610639808497562,0.0684385083224122,0.7521576300259456,0.08337173809350912,0.0209967470045838,-0.043740761924499987,3.8701393966674806,3.8691393966674803,-12.233483993530273,-12.234483993530274
18.921253442764282,0.1462286114692688,-0.10620035231113434,-6.3656086921691895,0.033265955775935545,0.0013110637664794922,6.0,0.0,-0.050033447730118474,-6.588636763555219,0.06697702547263319,0.7519796462038375,0.08436486520587777,0.020466943457764616,-0.0430788160536729,3.8794032433590755,3.8445786114411282,-12.134795992761125,-12.152909506837803
19.030553102493286,0.1462286114692688,-0.10620035231113434,-6.3656086921691895,0.033265955775935545,0.0011742115020751953,6.0,0.0,-0.11307788414542588,-6.34447285355426,0.05518200338929011,0.7474959332624306,-0.06308562829058556,0.02087375675880882,-0.042861371148744755,3.943335292144065,3.743717617131189,-11.96129477728319,-12.081143816683916
19.036076307296753,0.21507585048675537,-0.17500080168247223,-6.120299816131592,0.027366278736754304,0.0008325576782226562,6.0,0.0,-0.11988742600040636,-6.32333009725637,0.05459519906408959,0.7535168035668192,0.06508652951447058,0.011988912250533364,-0.03972746990584173,4.276922152334735,3.3458922387973424,-11.537375315680809,-12.186133375630273
19.041043758392334,0.21971330046653748,-0.17954343557357788,-6.103002548217773,0.02697696420551055,0.0012562274932861328,6.0,0.0,-0.12663048479688216,-6.302181473849722,0.05405020740678316,0.7533803131587217,0.056965325233621675,0.010989948090017762,-0.036896739586481674,6.263693040881328,1.2641225857010527,-9.352296714187466,-13.96676458991845
19.051162719726562,0.22886383533477783,-0.18848848342895508,-6.068563461303711,0.0262088071206769,0.0010383129119873047,6.0,0.0,-0.13330847933392764,-6.281028001614973,0.05354484566291323,0.75371788013024,0.05355108047422884,0.009438699709992246,-0.03491701388395472,3.8701393966674806,3.8691393966674803,-12.233483993530273,-12.234483993530274
19.061315298080444,0.23337695002555847,-0.1928907334804535,-6.051419258117676,0.02582823425007065,0.0011239051818847656,6.0,0.0,-0.13992274338194258,-6.259870667989388,0.053076988217774325,0.7535817431076246,0.0443854886877727,0.00860942878903844,-0.03374141128543497,3.8794032433590755,3.8445786114411282,-12.134795992761125,-12.152909506837803
