time,x,y,z,yaw,ctrl_comp_time,x_ref,y_ref,z_ref,yaw_ref,throttle,roll_rate,pitch_rate,yaw_rate,save_tube_pyH,save_tube_pyL,save_tube_pzH,save_tube_pzL
15.002607583999634,0.03462066501379013,3.8502249717712402,-12.407514572143555,0.0022189091851060037,0.12123775482177734,0.0,3.850542850518793,-12.408160361236163,-0.0069542348569049065,0.5829498068459726,-1.0,0.03734089941157852,0.015547818208549903,-12.407414572143555,-12.407614572143554,0.031691035425663,0.03149103542566299
15.69073748588562,0.04118816927075386,3.89630389213562,-12.40056037902832,0.002618712664454161,0.1781759262084961,0.0,3.850542850518793,-12.408160361236163,-0.0069542348569049065,0.57996008578298,-1.0,0.08036951850188795,0.1226648291381553,-12.395585005709693,-12.399180283958342,0.33648473041477556,-0.3555252425738572
15.828855037689209,0.03430630639195442,3.908201217651367,-12.438638687133789,0.0030588309587125904,0.0013706684112548828,0.0,3.896688523670272,-12.401644572180587,-0.016914483437932504,0.5951699759797656,-0.7151346640130296,0.21629765469748374,0.443628150673759,-12.327539564481448,-12.375870563627364,0.6514201365550897,-0.9478127859222764
15.836999893188477,0.03381875902414322,3.908463478088379,-12.438338279724121,0.003271673455993048,0.0020716190338134766,0.0,3.8970619656469743,-12.40235110514865,-0.026914483437932506,0.5956532924789004,-0.7320779489939944,0.3914083582882386,0.6218140753368795,-12.08830383247228,-12.454161981598451,1.2413792500082366,-2.0074823799031374
15.84683108329773,0.03333503380417824,3.9087018966674805,-12.437841415405273,0.003496382357860966,0.0013103485107421875,0.0,3.8974219198008537,-12.40268291035788,-0.03691448343793251,0.5961560713767191,-0.7485553172429764,0.5139858508017671,0.7109070376684398,-10.71922976142461,-13.59037735790594,2.7980526459908823,-4.2215314078721455
15.856900215148926,0.03285408020019531,3.908919334411621,-12.437171936035156,0.003731498186410463,0.0013363361358642578,0.0,3.8977659999983882,-12.402642757945554,-0.04691448343793251,0.59667139872572,-0.7649145191391331,0.599790095561237,0.7554535188342199,-12.407414572143555,-12.407614572143554,0.031691035425663,0.03149103542566299
15.866708040237427,0.03190022334456444,3.9092602729797363,-12.435243606567383,0.004290142593234583,0.0009734630584716797,0.0,3.8980917368722374,-12.402233252850367,-0.05691448343793251,0.5989623610083715,-0.7216467361868235,0.6598530668928659,0.7777267594171099,-12.395585005709691,-12.399180283958342,0.33648473041413796,-0.355525242574492
15.876952648162842,0.031426575034856796,3.9093756675720215,-12.43399715423584,0.00466505554577528,0.0013339519500732422,0.0,3.8983965825417144,-12.401456832035814,-0.0669144834379325,0.5993196336597759,-0.7366976254412447,0.7018971468250061,0.788863379708555,-12.327539564481448,-12.375870563627346,0.651420136553733,-0.9478127859235408
15.887028932571411,0.030271494761109352,3.910038471221924,-12.431169509887695,0.005580111184180558,0.0011355876922607422,0.0,3.898677915415029,-12.400315761849786,-0.0769144834379325,0.6011172487948755,-0.6923316224538614,0.7313280027775043,0.7944316898542775,-12.088303832472178,-12.454161981598492,1.2413792500055199,-2.0074823799046193
15.897076845169067,0.0297015979886055,3.9102907180786133,-12.42953109741211,0.006089099677275042,0.0010685920715332031,0.0,3.89893304506937,-12.398812135522627,-0.0869144834379325,0.6013279618479468,-0.709909546028624,0.751929601944253,0.7972158449271388,-10.719229761426252,-13.590377357904153,2.7980526459564556,-4.221531407843949
15.906988382339478,0.029135555028915405,3.91048526763916,-12.427729606628418,0.006628350566911592,0.0013403892517089844,0.0,3.899159217204845,-12.39694787080572,-0.09691448343793249,0.6015393372836153,-0.7288108091203629,0.766350721360977,0.7986079224635695,-12.40046037902832,-12.40066037902832,0.03931189159154892,0.03911189159154892
15.916762828826904,0.028574548661708832,3.9106204509735107,-12.425765991210938,0.007192276429333698,0.0009768009185791016,0.0,3.899353618668235,-12.39472470775257,-0.10691448343793249,0.6017564169050007,-0.7494821442928319,0.7764455049526839,0.7993039612317848,-12.39264251301423,-12.396806902490905,0.33416203684932855,-0.3574652364626515
15.927129745483398,0.027453096583485603,3.9106931686401367,-12.421354293823242,0.008398615566047887,0.0022406578063964844,0.0,3.8995133825424912,-12.392144206644188,-0.11691448343793248,0.6035241997554849,-0.7064993167448352,0.7835118534668788,0.7996519806158925,-12.327684814565998,-12.378326618223833,0.6385573334042093,-0.9585281719339154
15.936810493469238,0.026888543739914894,3.9106242656707764,-12.418904304504395,0.00903779589234291,0.0011067390441894531,0.0,3.8996355932978477,-12.389207746060466,-0.1269144834379325,0.6037771469603622,-0.7312402469498906,0.7884582974268152,0.7998259903079462,-12.091396816520609,-12.460464913385728,1.2157659888079022,-2.0243809173880796
15.946939468383789,0.026318224146962166,3.9104809761047363,-12.416316986083984,0.009699771250105224,0.0013742446899414062,0.0,3.8997172920003935,-12.385916521099057,-0.1369144834379325,0.6040444935872181,-0.7583107426602199,0.7919208081987706,0.7999129951539731,-10.73766327857018,-13.586589167267153,2.7520316685711936,-4.236384768107945
16.080518007278442,0.026318224146962166,3.9104809761047363,-12.416316986083984,0.009699771250105224,0.000972747802734375,0.0,3.9105174337971937,-12.412324293864339,-0.17011830825553775,0.6162389610519363,-1.0,0.7943445657391395,0.7999564975769865,-12.40046037902832,-12.40066037902832,0.03931189159154892,0.03911189159154892
16.089462995529175,0.01646968349814415,3.894946813583374,-12.343035697937012,0.02564244394636353,0.0012807846069335938,0.0,3.9104915574650434,-12.408003991150137,-0.18011830825553776,0.6429367413477538,0.15673078759430936,0.7960411960173976,0.7999782487884933,-12.39264251301423,-12.396806902490905,0.33416203684932855,-0.3574652364626515
16.097790002822876,0.01646968349814415,3.894946813583374,-12.343035697937012,0.02564244394636353,0.001172780990600586,0.0,3.9103998201086703,-12.40335590000529,-0.19011830825553777,0.6418200867362991,0.048991726847187556,0.6549258853144392,0.7999891243942466,-12.327684814565998,-12.378326618223833,0.6385573334042093,-0.9585281719339154
16.106858730316162,0.01372775062918663,3.8890016078948975,-12.324682235717773,0.029486482744681408,0.0012688636779785156,0.0,3.9102386947202454,-12.398379643728282,-0.20011830825553778,0.6459855503016287,0.19573518632256048,0.513905717840007,0.7999945621971233,-12.091396816520609,-12.460464913385728,1.2157659888079022,-2.0243809173880796
16.11673641204834,0.012674113735556602,3.886760711669922,-12.318224906921387,0.03082465662613912,0.0009703636169433594,0.0,3.910004659909254,-12.393074646441743,-0.2101183082555378,0.6466329770199833,0.17122421431822232,0.4102890378197769,0.7999972810985616,-10.73766327857018,-13.586589167267153,2.7520316685711936,-4.236384768107945
16.127091646194458,0.011544441804289818,3.884383201599121,-12.311599731445312,0.032198978201868844,0.0013935565948486328,0.0,3.9096942055434183,-12.387440132838734,-0.2201183082555378,0.6471634813957055,0.1463746537561632,0.3330469001395223,0.7999986405492808,-12.40046037902832,-12.40066037902832,0.03931189159154892,0.03911189159154892
16.13692879676819,0.009834310971200466,3.8808019161224365,-12.30444049835205,0.03365100037902563,0.001264333724975586,0.0,3.909303838400736,-12.381475128085908,-0.2301183082555378,0.6475779195420359,0.12359367868107363,0.26912495484205456,0.7999993202746404,-12.39264251301423,-12.396806902490905,0.33416203684932855,-0.3574652364626515
16.14686632156372,0.006189627572894096,3.8732454776763916,-12.289753913879395,0.03713728523589502,0.0012655258178710938,0.0,3.908830087828381,-12.375178457883543,-0.24011830825553782,0.6493067900828895,0.18624331179017561,0.19162918997608117,0.7985268889741843,-12.327684814565998,-12.378326618223833,0.6385573334042093,-0.9585281719339154
16.1567063331604,0.00424659438431263,3.869260787963867,-12.282233238220215,0.03917851944150186,0.0010237693786621094,0.0,3.9082695114042116,-12.368548748682285,-0.2501183082555378,0.6496141244653422,0.14613229993890853,0.1328744441214645,0.6704703299094821,-12.091396816520609,-12.460464913385728,1.2157659888079022,-2.0243809173880796
16.166934490203857,0.00010298742563463748,3.860865592956543,-12.266810417175293,0.04394073035215132,0.0011522769927978516,0.0,3.907618700596673,-12.361584428056387,-0.26011830825553783,0.6512943864213003,0.17686230476700593,0.007581808959069847,0.546197097882933,-10.73766327857018,-13.586589167267153,2.7520316685711936,-4.236384768107945
16.176910161972046,-0.002103096805512905,3.8564512729644775,-12.258910179138184,0.046657113487151625,0.0014464855194091797,0.0,3.906874286418897,-12.354283725233028,-0.27011830825553784,0.6516106334637524,0.11902857822828361,-0.12643278636061916,0.3059928140811482,-12.40046037902832,-12.40066037902832,0.03931189159154892,0.03911189159154892
16.187022924423218,-0.00440172990784049,3.851890802383423,-12.250882148742676,0.049570483369755086,0.002079010009765625,0.0,3.9060329450728344,-12.346644671777211,-0.28011830825553785,0.651932722038501,0.055151191545703915,-0.3180906425431648,-0.038854594483043514,-12.39264251301423,-12.396806902490905,0.33416203684932855,-0.3574652364626515
16.319316387176514,-0.05417093262076378,3.75335693359375,-12.107378005981445,0.10988019913463032,0.0033957958221435547,0.0,3.850150047174293,-12.240022415253177,-0.32377642057987444,0.6801620131371033,0.10983387213071127,-0.4626634497802154,-0.4194272972415218,-12.327684814565998,-12.378326618223833,0.6385573334042093,-0.9585281719339154
16.326847791671753,-0.06209055706858635,3.7378029823303223,-12.087353706359863,0.1173464125195306,0.0019352436065673828,0.0,3.8482968735200234,-12.228853337433032,-0.33377642057987444,0.6813714175554487,0.10895303996864159,-0.5638644148461508,-0.6097136486207609,-12.091396816520609,-12.460464913385728,1.2157659888079022,-2.0243809173880796
16.337106943130493,-0.06618300080299377,3.729820966720581,-12.077149391174316,0.12098345721810146,0.0020902156829833984,0.0,3.8463276640678026,-12.217371022821895,-0.34377642057987445,0.6817714529694335,0.022735907961210167,-0.6347050903923056,-0.7048568243103805,-10.73766327857018,-13.586589167267153,2.7520316685711936,-4.236384768107945
16.347057342529297,-0.07036503404378891,3.7217023372650146,-12.06684398651123,0.12460700040761447,0.0020203590393066406,0.0,3.8442389078067687,-12.205571380664704,-0.35377642057987446,0.6821927040632094,-0.06675273830946793,-0.684293563274614,-0.7524284121551903,-12.40046037902832,-12.40066037902832,0.03931189159154892,0.03911189159154892
16.35703730583191,-0.07463663071393967,3.713444948196411,-12.056416511535645,0.12811112577616746,0.0019075870513916016,0.0,3.842027205578633,-12.19345012442424,-0.36377642057987447,0.682473732973851,-0.15692195804697406,-0.7190054942922298,-0.7762142060775952,-12.39264251301423,-12.396806902490905,0.33416203684932855,-0.3574652364626515
16.366833209991455,-0.08345993608236313,3.6964871883392334,-12.035284042358398,0.1348768335328765,0.0020294189453125,0.0,3.8396892755269394,-12.18100277443863,-0.3737764205798745,0.6834011063471487,-0.1587236883125207,-0.7433038460045609,-0.7881071030387976,-12.327684814565998,-12.378326618223833,0.6385573334042093,-0.9585281719339154
16.37693977355957,-0.08801405876874924,3.687777280807495,-12.02460765838623,0.13818359545527997,0.002140045166015625,0.0,3.837221958481371,-12.168224660721776,-0.3837764205798745,0.6832863843423571,-0.2450890574536374,-0.7603126922031926,-0.7940535515193988,-12.091396816520609,-12.460464913385728,1.2157659888079022,-2.0243809173880796
16.387057781219482,-0.0931449830532074,3.6784462928771973,-12.013507843017578,0.14144332045560512,0.002230405807495117,0.0,3.8346222232735983,-12.155110925904623,-0.3937764205798745,0.6831852453684896,-0.33004837335096415,-0.7722188845422349,-0.7970267757596995,-10.73766327857018,-13.586589167267153,2.7520316685711936,-4.236384768107945
16.397537231445312,-0.09836101531982422,3.668966054916382,-12.002354621887207,0.14453630667676104,0.0017466545104980469,0.0,3.831887171981227,-12.141656528315071,-0.4037764205798745,0.6830747974939203,-0.41620891491693746,-0.7805532191795644,-0.7985133878798497,-12.40046037902832,-12.40066037902832,0.03931189159154892,0.03911189159154892
16.407024145126343,-0.10903695970773697,3.6495556831359863,-11.979944229125977,0.1504627642240205,0.002149820327758789,0.0,3.829014045096506,-12.127856245194291,-0.4137764205798745,0.683682356681835,-0.4014071119678484,-0.7863872534256952,-0.7992566939399249,-12.39264251301423,-12.396806902490905,0.33416203684932855,-0.3574652364626515
16.41678738594055,-0.1144900918006897,3.6396243572235107,-11.968657493591309,0.1533147336670304,0.0018630027770996094,0.0,3.8260002266165065,-12.113704676047057,-0.4237764205798745,0.6835548337660008,-0.4879954421486252,-0.7904710773979866,-0.7996283469699624,-12.327684814565998,-12.378326618223833,0.6385573334042093,-0.9585281719339154
16.427120208740234,-0.12001554667949677,3.629542589187622,-11.957316398620605,0.15605405953093543,0.003162860870361328,0.0,3.822843249051595,-12.099196246123697,-0.43377642057987453,0.683446116105643,-0.5756993240959561,-0.7933297541785906,-0.7998141734849813,-12.091396816520609,-12.460464913385728,1.2157659888079022,-2.0243809173880796
16.575280904769897,-0.23928040266036987,3.401160478591919,-11.727663040161133,0.1865150872017135,0.0019316673278808594,0.0,3.62263035410467,-11.940827064808534,-0.2973278736822501,0.6842647549340881,1.0,-0.7953308279250134,-0.7999070867424907,-10.73766327857018,-13.586589167267153,2.7520316685711936,-4.236384768107945
16.590946912765503,-0.23928040266036987,3.401160478591919,-11.727663040161133,0.1865150872017135,0.0031104087829589844,0.0,3.615670248547893,-11.924016378789805,-0.3073278736822501,0.6834797111630273,1.0,-0.7967315795475094,-0.7999535433712454,-12.40046037902832,-12.40066037902832,0.03931189159154892,0.03911189159154892
16.60330104827881,-0.25254562497138977,3.373065948486328,-11.701878547668457,0.187604154220639,0.0018794536590576172,0.0,3.608658353390535,-11.906881206971514,-0.31732787368225013,0.683935464348417,1.0,-0.7977121056832566,-0.7999731605200711,-12.39264251301423,-12.396806902490905,0.33416203684932855,-0.3574652364626515
16.60949206352234,-0.25254562497138977,3.373065948486328,-11.701878547668457,0.187604154220639,0.0019466876983642578,0.0,3.6015908433955826,-11.889418211686708,-0.32732787368225014,0.6831869844883628,1.0,-0.7983984739782796,-0.7999865802600356,-12.327684814565998,-12.378326618223833,0.6385573334042093,-0.9585281719339154
16.61660408973694,-0.27221962809562683,3.3296072483062744,-11.662803649902344,0.18852423625379094,0.0012664794921875,0.0,3.5944639928147475,-11.871623853363205,-0.33732787368225015,0.6839162370259465,1.0,-0.7988789317847957,-0.7873754433622002,-12.091396816520609,-12.460464913385728,1.2157659888079022,-2.0243809173880796
16.627107620239258,-0.27221962809562683,3.3296072483062744,-11.662803649902344,0.18852423625379094,0.0020716190338134766,0.0,3.587274180936896,-11.853494392838035,-0.34732787368225015,0.6831881312437853,1.0,-0.7992152522493571,-0.7859845044332805,-10.73766327857018,-13.586589167267153,2.7520316685711936,-4.236384768107945
16.63700294494629,-0.2857091426849365,3.298898220062256,-11.63642406463623,0.18861963739586313,0.0018734931945800781,0.0,3.580017897582316,-11.835025893815864,-0.35732787368225016,0.683563518308649,1.0,-0.7994506765745499,-0.7738213608989807,-12.40046037902832,-12.40066037902832,0.03931189159154892,0.03911189159154892
16.64677119255066,-0.2857091426849365,3.298898220062256,-11.63642406463623,0.18861963739586313,0.0015153884887695312,0.0,3.57269174853928,-11.816214225469706,-0.36732787368225017,0.6828748711664238,1.0,-0.799615473602185,-0.7723320834522888,-12.39264251301423,-12.396806902490905,0.33416203684932855,-0.3574652364626515
16.657184600830078,-0.30641302466392517,3.2503480911254883,-11.596366882324219,0.18763979843706563,0.00257110595703125,0.0,3.5652924609394314,-11.797055065182105,-0.3773278736822502,0.684025876827336,1.0,-0.7997308315215295,-0.7511720629797343,-12.327684814565998,-12.378326618223833,0.6385573334042093,-0.9585281719339154
16.666656255722046,-0.30641302466392517,3.2503480911254883,-11.596366882324219,0.18763979843706563,0.0014007091522216797,0.0,3.5578168885685733,-11.77754390142489,-0.3873278736822502,0.6833349739750076,1.0,-0.7998115820650706,-0.7476001916694406,-12.091396816520609,-12.460464913385728,1.2157659888079022,-2.0243809173880796
16.79380512237549,-0.30641302466392517,3.2503480911254883,-11.596366882324219,0.18763979843706563,0.0018362998962402344,0.0,3.2393104608206196,-11.574393905849998,-0.382339882066658,0.6911384448844499,-1.0,-0.7998681074455495,-0.7474738704839423,-10.73766327857018,-13.586589167267153,2.7520316685711936,-4.236384768107945
16.80180311203003,-0.40507251024246216,2.9645919799804688,-11.371407508850098,0.1693361115197265,0.0018830299377441406,0.0,3.2282108215202294,-11.552057469559315,-0.392339882066658,0.7021769549389865,-0.014856351211163354,-0.5005646591617775,-0.22247065566344593,-12.40046037902832,-12.40066037902832,0.03931189159154892,0.03911189159154892
16.80695366859436,-0.40507251024246216,2.9645919799804688,-11.371407508850098,0.1693361115197265,0.00396728515625,0.0,3.2170462111291585,-11.529352445420116,-0.402339882066658,0.7013976687565279,-0.24190594334716842,-0.40735701471014546,-0.31030612203587593,-12.39264251301423,-12.396806902490905,0.33416203684932855,-0.3574652364626515
16.816744089126587,-0.42538386583328247,2.886171579360962,-11.312015533447266,0.1619907601932393,0.00250244140625,0.0,3.205813819070838,-11.506273525558209,-0.412339882066658,0.7044022555102951,-0.27794875520137863,-0.2903084651240225,-0.2947679504686952,-12.327684814565998,-12.378326618223833,0.6385573334042093,-0.9585281719339154
16.827360153198242,-0.42538386583328247,2.886171579360962,-11.312015533447266,0.1619907601932393,0.003082752227783203,0.0,3.1945109912514633,-11.48281522591853,-0.422339882066658,0.7037963158515034,-0.5122683004903592,-0.23108214436083327,-0.2864440684321008,-12.091396816520609,-12.460464913385728,1.2157659888079022,-2.0243809173880796
16.837061643600464,-0.4347713887691498,2.846567392349243,-11.281962394714355,0.15770818587532262,0.0030145645141601562,0.0,3.1831352349378386,-11.458971890051364,-0.4322146783204512,0.704842074636822,-0.6466440095550374,-0.16030879400638032,-0.24179212352177876,-10.73766327857018,-13.586589167267153,2.7520316685711936,-4.236384768107945
16.846710920333862,-0.4347713887691498,2.846567392349243,-11.281962394714355,0.15770818587532262,0.0024492740631103516,0.0,3.1716811894235213,-11.434739126920478,-0.4402547153130505,0.7042752114248039,-0.703097028848146,-0.12355678756034631,-0.22026897217946273,-12.40046037902832,-12.40066037902832,0.03931189159154892,0.03911189159154892
16.85711646080017,-0.4436114430427551,2.806741237640381,-11.251784324645996,0.1528481650944104,0.003935098648071289,0.0,3.1601015361194724,-11.410132213122345,-0.446551257588286,0.705091305439525,-0.6494025015950342,-0.06880641938338034,-0.18276552038101304,-12.39264251301423,-12.396806902490905,0.33416203684932855,-0.3574652364626515
16.86658549308777,-0.44781842827796936,2.7867541313171387,-11.236659049987793,0.1502173632561173,0.0012905597686767578,0.0,3.148350823895081,-11.385166518861789,-0.45119331340743546,0.7051871049824306,-0.640087680974823,-0.027282787721689405,-0.16726901104707484,-12.327684814565998,-12.378326618223833,0.6385573334042093,-0.9585281719339154
16.877042531967163,-0.4518809914588928,2.766721487045288,-11.221498489379883,0.14749352176490532,0.001909494400024414,0.0,3.1363854952592947,-11.359857737246863,-0.45426755940626695,0.7052786671949465,-0.6233942465199482,0.0072747332858249,-0.15682661862456387,-12.091396816520609,-12.460464913385728,1.2157659888079022,-2.0243809173880796
16.887134552001953,-0.45579764246940613,2.74664568901062,-11.206304550170898,0.14470544610245126,0.002060413360595703,0.0,3.124163914261087,-11.334222067364776,-0.45585828670749556,0.7053573358282964,-0.5993960808468812,0.03735344511503322,-0.1485274611615095,-10.73766327857018,-13.586589167267153,2.7520316685711936,-4.236384768107945
16.89743161201477,-0.46214213967323303,2.7041397094726562,-11.176802635192871,0.13950209287260487,0.0013384819030761719,0.0,3.1116463970656305,-11.308276355761876,-0.4560473663030845,0.7059098497994736,-0.4639847026129911,0.07832424621732008,-0.13047080949434298,-12.40046037902832,-12.40066037902832,0.03931189159154892,0.03911189159154892
16.906816959381104,-0.46509838104248047,2.682859420776367,-11.162007331848145,0.1371170324496925,0.002646923065185547,0.0,3.0987952454395136,-11.282038200505013,-0.4549142315043693,0.7058780637921787,-0.4144623390725737,0.10961655626439329,-0.12552962259325892,-12.39264251301423,-12.396806902490905,0.33416203684932855,-0.3574652364626515
17.029298543930054,-0.46509838104248047,2.682859420776367,-11.162007331848145,0.1371170324496925,0.001463174819946289,0.0,2.6632540333610226,-11.139277705064238,-0.16963200024194663,0.6825804880486631,0.7115602191091268,0.12352076677047805,-0.12962152607531363,-12.327684814565998,-12.378326618223833,0.6385573334042093,-0.9585281719339154
17.0368971824646,-0.49023309350013733,2.3382668495178223,-10.92078971862793,0.0996788566349876,0.0017426013946533203,0.0,2.643344139826363,-11.11650331313303,-0.1622273276331033,0.6904565048701977,1.0,0.2760338065109814,-0.13773812541082447,-12.091396816520609,-12.460464913385728,1.2157659888079022,-2.0243809173880796
17.046797275543213,-0.4901849925518036,2.316532611846924,-10.905783653259277,0.09775215270481188,0.0017518997192382812,0.0,2.6231280536022075,-11.093695845480749,-0.15456463851514474,0.6900316267692411,1.0,0.3496152585263534,-0.1322702216473117,-10.73766327857018,-13.586589167267153,2.7520316685711936,-4.236384768107945
17.05703639984131,-0.4896683096885681,2.2728703022003174,-10.875589370727539,0.09381441501689566,0.002441883087158203,0.0,2.6026051449720993,-11.07086653707936,-0.1466736843156164,0.690166032228674,1.0,0.39786130770824485,-0.12860605077942924,-12.40046037902832,-12.40066037902832,0.03931189159154892,0.03911189159154892
17.066692113876343,-0.4892025589942932,2.2509396076202393,-10.860400199890137,0.09185879209071365,0.0015060901641845703,0.0,2.581775797953822,-11.048026141355578,-0.1385829401030415,0.6898591683829087,1.0,0.4266731132468613,-0.12635256672618905,-12.39264251301423,-12.396806902490905,0.33416203684932855,-0.3574652364626515
17.077091693878174,-0.48860055208206177,2.228940010070801,-10.84514045715332,0.08989902706122865,0.0018856525421142578,0.0,2.5606413651932898,-11.025184904715408,-0.13031963100133068,0.6895832073353578,1.0,0.4473238041506609,-0.12832630937366485,-12.327684814565998,-12.378326618223833,0.6385573334042093,-0.9585281719339154
17.086934804916382,-0.4878634512424469,2.2068703174591064,-10.82981014251709,0.0879141264974568,0.0023174285888671875,0.0,2.539204121153456,-11.002352543050886,-0.12190975880060549,0.6893419531606745,1.0,0.4641325690729854,-0.13338760449832512,-12.091396816520609,-12.460464913385728,1.2157659888079022,-2.0243809173880796
17.096670866012573,-0.4878634512424469,2.2068703174591064,-10.82981014251709,0.0879141264974568,0.001361846923828125,0.0,2.517467213887705,-10.979538220536634,-0.11337812868759548,0.688568427066368,1.0,0.4712177696648774,-0.13381906608239014,-10.73766327857018,-13.586589167267153,2.7520316685711936,-4.236384768107945
17.107031106948853,-0.4848608076572418,2.1402440071105957,-10.78339958190918,0.08165866524528181,0.0015325546264648438,0.0,2.4954346156916714,-10.956750530967138,-0.10474837603520844,0.6896354860740498,1.0,0.49234040427873643,-0.1488249381228305,-12.40046037902832,-12.40066037902832,0.03931189159154892,0.03911189159154892
17.11664915084839,-0.48359936475753784,2.1179046630859375,-10.767791748046875,0.07946691709498413,0.0009343624114990234,0.0,2.4731110729285377,-10.933997481831756,-0.09604299320484616,0.6895108621549317,1.0,0.5052359060837635,-0.1576420804178035,-12.39264251301423,-12.396806902490905,0.33416203684932855,-0.3574652364626515
17.127105951309204,-0.4822137653827667,2.0955026149749756,-10.752107620239258,0.07723887989670072,0.0013725757598876953,0.0,2.4505020553205688,-10.911286481273411,-0.08728335632672796,0.6893989773372331,1.0,0.5132935849121261,-0.16336304209673785,-12.327684814565998,-12.378326618223833,0.6385573334042093,-0.9585281719339154
17.136875867843628,-0.47849956154823303,2.051098108291626,-10.719585418701172,0.07271671706260134,0.0017254352569580078,0.0,2.4276137049941777,-10.888624328029044,-0.07848975203308742,0.6900607507360734,1.0,0.51953157371278,-0.16835221867733136,-12.091396816520609,-12.460464913385728,1.2157659888079022,-2.0243809173880796
17.146777629852295,-0.476174533367157,2.029090404510498,-10.702771186828613,0.07081230992423412,0.0010328292846679688,0.0,2.404452785557267,-10.866017204405333,-0.0696814041268181,0.6900563969213404,1.0,0.5228272243254599,-0.17086739898516987,-10.73766327857018,-13.586589167267153,2.7520316685711936,-4.236384768107945
17.263251543045044,-0.476174533367157,2.029090404510498,-10.702771186828613,0.07081230992423412,0.0012357234954833984,0.0,2.0063949461441672,-10.677628772786356,-0.16724227882639758,0.6939207311482062,1.0,0.5236417463199198,-0.17166229138535033,-12.416216986083985,-12.416416986083984,-0.059958355331420896,-0.0601583553314209
17.27353811264038,-0.42790424823760986,1.6937934160232544,-10.444626808166504,0.04478821988918276,0.0014908313751220703,0.0,1.9833005826895391,-10.652556280479024,-0.15724227882639757,0.7053998089537205,1.0,0.45799347192104395,-0.10586522665660109,-12.354836918528324,-12.368331937584449,0.0805734933045854,-0.5999885245018541
17.27867889404297,-0.42325693368911743,1.6706382036209106,-10.426753997802734,0.04350591438560388,0.001142740249633789,0.0,1.959815792134335,-10.627562010619235,-0.14724227882639757,0.7055434784052788,1.0,0.4290087032213114,-0.09051358969294455,-12.224071114207966,-12.322030860917433,0.23986723904938642,-1.348195561452655
17.28730273246765,-0.41855326294898987,1.647517442703247,-10.408835411071777,0.0422588566123857,0.0014498233795166016,0.0,1.93594922047339,-10.602654018123728,-0.13724227882639756,0.7056967846871435,1.0,0.4119847255158579,-0.08549968204384023,-11.875160038857308,-12.420620296059258,0.7141872176973226,-2.5951595750367478
17.296980619430542,-0.4089881181716919,1.601397156715393,-10.372865676879883,0.0398859493384195,0.0009005069732666016,0.0,1.9117096760478585,-10.57784010818205,-0.12724227882639755,0.7067303374171774,1.0,0.3917351143872844,-0.07386855734142493,-10.05090298478294,-13.912045738489129,2.290382508330388,-5.120009640532755
17.306818962097168,-0.40413227677345276,1.578406810760498,-10.354849815368652,0.03876277404019197,0.0015921592712402344,0.0,1.8871061237868223,-10.553127832462922,-0.11724227882639755,0.7068258990383363,1.0,0.3775569898738728,-0.06858487021027405,-12.416216986083985,-12.416416986083984,-0.059958355331420896,-0.0601583553314209
17.316738605499268,-0.3992309868335724,1.555469274520874,-10.336803436279297,0.037682450920190264,0.0009055137634277344,0.0,1.8621476793547882,-10.528524485460922,-0.10724227882639756,0.7068915387360787,1.0,0.3655126140823104,-0.06392022497578073,-12.354836918528324,-12.368331937584449,0.0805734933045854,-0.5999885245018541
17.32695984840393,-0.3943060636520386,1.5325731039047241,-10.318726539611816,0.03664356154250351,0.00164794921875,0.0,1.836843603208646,-10.504037100985983,-0.09724227882639756,0.7069437884151323,1.0,0.3543942222136077,-0.058967139274907376,-12.224071114207966,-12.322030860917433,0.23986723904938642,-1.348195561452655
17.336710214614868,-0.38434213399887085,1.48697030544281,-10.282498359680176,0.03461538785344333,0.0012094974517822266,0.0,1.8112032945677248,-10.479672448798093,-0.08724227882639757,0.7077663388659009,1.0,0.3370836452633667,-0.04580073304924445,-11.875160038857308,-12.420620296059258,0.7141872176973226,-2.5951595750367478
17.346810340881348,-0.37930846214294434,1.4642729759216309,-10.264347076416016,0.03365758100058694,0.0013234615325927734,0.0,1.785236285300654,-10.455437031389485,-0.07724227882639757,0.7078317401473868,0.9796991453948974,0.3255905959038915,-0.04130188111481292,-10.05090298478294,-13.912045738489129,2.290382508330388,-5.120009640532755
17.35709834098816,-0.3742440342903137,1.441651463508606,-10.246200561523438,0.03273671812643118,0.0016987323760986328,0.0,1.7589522337327976,-10.431337080916448,-0.06724227882639758,0.7079101099568742,0.9250069142396291,0.3161100204409502,-0.038816876074106575,-12.416216986083985,-12.416416986083984,-0.059958355331420896,-0.0601583553314209
17.366639852523804,-0.36915144324302673,1.4191101789474487,-10.228028297424316,0.031852684497375064,0.0008978843688964844,0.0,1.732360918378089,-10.4073785562828,-0.057242278826397576,0.7079988695850428,0.8703173898977369,0.30766506732319465,-0.038265477963074904,-12.354836918528324,-12.368331937584449,0.0805734933045854,-0.5999885245018541
17.377017498016357,-0.35889148712158203,1.3742866516113281,-10.191608428955078,0.030188047731615392,0.0014069080352783203,0.0,1.7054722315991457,-10.383567140376915,-0.047242278826397574,0.7089281853548809,0.801907684980717,0.2937130004450889,-0.030735706253602887,-12.224071114207966,-12.322030860917433,0.23986723904938642,-1.348195561452655
17.486697912216187,-0.35889148712158203,1.3742866516113281,-10.191608428955078,0.030188047731615392,0.0016241073608398438,0.0,1.3454941809103438,-10.171482745273517,0.09565338455833926,0.7042298212632708,1.0,0.29015268847406395,-0.038500333747322035,-11.875160038857308,-12.420620296059258,0.7141872176973226,-2.5951595750367478
17.49661874771118,-0.2810991406440735,1.0507304668426514,-9.914950370788574,0.023066873634676244,0.0009071826934814453,0.0,1.3165750837533898,-10.151530434680714,0.10565338455833925,0.7176112848492652,0.6327477020667294,0.18797600383098503,0.11860831885875145,-10.05090298478294,-13.912045738489129,2.290382508330388,-5.120009640532755
17.50685143470764,-0.2758864164352417,1.0302590131759644,-9.896294593811035,0.022807756668198356,0.0012271404266357422,0.0,1.287539805483732,-10.13175244382524,0.11565338455833925,0.7179890575314688,0.601207595492588,0.18558336303128065,0.037274796742466615,-12.416216986083985,-12.416416986083984,-0.059958355331420896,-0.0601583553314209
17.516748905181885,-0.2708143889904022,1.0102649927139282,-9.877401351928711,0.022576348414870898,0.0010929107666015625,0.0,1.2583987908121026,-10.112149426900952,0.12565338455833924,0.7184042147583267,0.569120444482967,0.17087689077419815,0.02234062887602905,-12.354836918528324,-12.368331937584449,0.0805734933045854,-0.5999885245018541
17.527096271514893,-0.2657463550567627,0.9904276132583618,-9.858474731445312,0.022439916535019117,0.0015463829040527344,0.0,1.229162476979006,-10.092721745778295,0.13565338455833925,0.7188060601009527,0.5375534096527678,0.1590403679006509,0.01517241501735088,-12.224071114207966,-12.322030860917433,0.23986723904938642,-1.348195561452655
17.536684274673462,-0.255633145570755,0.9512422680854797,-9.820540428161621,0.02221748560252143,0.001392364501953125,0.0,1.1998412869213184,-10.073469470299994,0.14565338455833926,0.7202378637602531,0.46260994967958613,0.14309563182916968,0.017560802285583467,-11.875160038857308,-12.420620296059258,0.7141872176973226,-2.5951595750367478
17.546813249588013,-0.25059208273887634,0.9319028258323669,-9.801534652709961,0.022109984191482218,0.0012257099151611328,0.0,1.170445622447198,-10.054392378740603,0.15565338455833927,0.7206239742838391,0.43301591462965416,0.13353816883541722,0.011768276237046994,-10.05090298478294,-13.912045738489129,2.290382508330388,-5.120009640532755
17.55721139907837,-0.24556347727775574,0.9127376079559326,-9.78253173828125,0.021990891399737714,0.0017368793487548828,0.0,1.1409858574232798,-10.03548995842933,0.16565338455833928,0.7210223630463027,0.406162820418952,0.1252427882131978,0.008762486731807198,-12.416216986083985,-12.416416986083984,-0.059958355331420896,-0.0601583553314209
17.56667733192444,-0.24054931104183197,0.8937497138977051,-9.763501167297363,0.0218574459484827,0.001130819320678711,0.0,1.1114723309781045,-10.016761406535382,0.1756533845583393,0.7214338092464861,0.38220617697487014,0.11800553871445614,0.006904899226008322,-12.354836918528324,-12.368331937584449,0.0805734933045854,-0.5999885245018541
17.577085256576538,-0.23057131469249725,0.8563195466995239,-9.725356101989746,0.02155042514637595,0.0014498233795166016,0.0,1.0819153407256816,-9.998205631015036,0.1856533845583393,0.7229734593404014,0.31674383152557095,0.10765444252178791,0.009731819843996375,-12.224071114207966,-12.322030860917433,0.23986723904938642,-1.348195561452655
17.58712649345398,-0.2256106734275818,0.8378831148147583,-9.7062406539917,0.021388716837187183,0.0016429424285888672,0.0,1.0523251360130557,-9.979821251719482,0.1956533845583393,0.7234214207722286,0.29957618448169887,0.10129913238209058,0.006450178406511534,-11.875160038857308,-12.420620296059258,0.7141872176973226,-2.5951595750367478
17.597028255462646,-0.2206709384918213,0.8196362257003784,-9.687094688415527,0.02122249974790083,0.0008840560913085938,0.0,1.0227119111956908,-9.961606601662409,0.2056533845583393,0.7238818874978823,0.285753162307387,0.0955092264396771,0.0048682486954836,-10.05090298478294,-13.912045738489129,2.290382508330388,-5.120009640532755
17.607022285461426,-0.21578969061374664,0.8015768527984619,-9.66791820526123,0.021051883076421668,0.0013499259948730469,0.0,0.9930857989444499,-9.943559728446203,0.21565338455833932,0.7243516996699688,0.27533963525179395,0.09018478764817396,0.003974882924078403,-12.416216986083985,-12.416416986083984,-0.059958355331420896,-0.0601583553314209
17.726177215576172,-0.21578969061374664,0.8015768527984619,-9.66791820526123,0.021051883076421668,0.0014729499816894531,0.0,0.7734062877801797,-9.651537975755762,0.29287042805264624,0.7145604623268261,0.25863369733517994,0.08867336010846376,5.1957452478615086e-05,-12.354836918528324,-12.368331937584449,0.0805734933045854,-0.5999885245018541
17.733966588974,-0.14023667573928833,0.5316146612167358,-9.33907699584961,0.018115831436614993,0.0008234977722167969,0.0,0.7454392074871473,-9.63507346980364,0.295023996719593,0.7348934612851354,-0.5332555680270781,0.03465936336321517,0.054094719785813185,-12.224071114207966,-12.322030860917433,0.23986723904938642,-1.348195561452655
17.73667049407959,-0.14023667573928833,0.5316146612167358,-9.33907699584961,0.018115831436614993,0.0015223026275634766,0.0,0.717684811999312,-9.618511915178425,0.2967639876193122,0.7342107384798708,-0.5611656848817035,0.02798061983863176,0.02001154116169366,-11.875160038857308,-12.420620296059258,0.7141872176973226,-2.5951595750367478
17.746810913085938,-0.13610823452472687,0.5176918506622314,-9.319440841674805,0.017979293189480355,0.0011179447174072266,0.0,0.6901517121402619,-9.601841433337327,0.29810926634534096,0.7348344293038092,-0.6379407493532588,0.019059208538102553,0.003400530178608697,-10.05090298478294,-13.912045738489129,2.290382508330388,-5.120009640532755
17.757067918777466,-0.13201476633548737,0.5039810538291931,-9.299790382385254,0.01786000370954957,0.001379251480102539,0.0,0.6628479612786793,-9.585051025262855,0.2990783541765892,0.7354766048161574,-0.7151144237469145,0.011201028325997868,-0.0063264776734625015,-12.416216986083985,-12.416416986083984,-0.059958355331420896,-0.0601583553314209
17.766708850860596,-0.12888509035110474,0.491447776556015,-9.280768394470215,0.01774058766513248,0.0010237693786621094,0.0,0.6357810840795478,-9.568130554292013,0.29968941074288913,0.7360692768080194,-0.7977333862729339,0.0039174737969066295,-0.012380606092149735,-12.354836918528324,-12.368331937584449,0.0805734933045854,-0.5999885245018541
17.7769935131073,-0.12888509035110474,0.491447776556015,-9.280768394470215,0.01774058766513248,0.0011882781982421875,0.0,0.6089581024544917,-9.551070726331757,0.2999602186446889,0.7353723027838845,-0.8249563149105442,0.0008510527092954892,-0.016964657223990265,-12.224071114207966,-12.322030860917433,0.23986723904938642,-1.348195561452655
17.78679323196411,-0.11958613246679306,0.45505765080451965,-9.223411560058594,0.01740140995887901,0.001524209976196289,0.0,0.5823855589602225,-9.533863067827397,0.299908169942419,0.738303797848338,-0.998648745489263,-0.010224312169348174,-0.018532021602309882,-11.875160038857308,-12.420620296059258,0.7141872176973226,-2.5951595750367478
17.79691457748413,-0.11958613246679306,0.45505765080451965,-9.223411560058594,0.01740140995887901,0.0009176731109619141,0.0,0.556069537890179,-9.516499901820625,0.299550254428268,0.7376007212283984,-1.0,-0.013824163590597708,-0.020806857161626165,-10.05090298478294,-13.912045738489129,2.290382508330388,-5.120009640532755
17.80683159828186,-0.11347493529319763,0.43182364106178284,-9.18496322631836,0.01702708763945962,0.0016112327575683594,0.0,0.5300156842976624,-9.498974322405832,0.29890304959143316,0.7392962657254474,-1.0,-0.01991376879865815,-0.0219243909698559,-12.416216986083985,-12.416416986083984,-0.059958355331420896,-0.0601583553314209
17.81673574447632,-0.11347493529319763,0.43182364106178284,-9.18496322631836,0.01702708763945962,0.0010035037994384766,0.0,0.5042292211796634,-9.481280167867402,0.2979827121872094,0.7385857573161325,-1.0,-0.02173982378950483,-0.022636259478961564,-12.354836918528324,-12.368331937584449,0.0805734933045854,-0.5999885245018541
17.82705545425415,-0.10447345674037933,0.39849573373794556,-9.127069473266602,0.01629409978171409,0.0015633106231689453,0.0,0.47871496503962413,-9.463411992756408,0.29680497132040906,0.741403880473045,-1.0,-0.027801377786679838,-0.022621307222542273,-12.224071114207966,-12.322030860917433,0.23986723904938642,-1.348195561452655
17.836735010147095,-0.10447345674037933,0.39849573373794556,-9.127069473266602,0.01629409978171409,0.002177715301513672,0.0,0.4534773400350376,-9.44536503914274,0.2953851229544324,0.740686956470039,-1.0,-0.02944485611495345,-0.022646619148009164,-11.875160038857308,-12.420620296059258,0.7141872176973226,-2.5951595750367478
17.949702978134155,-0.10447345674037933,0.39849573373794556,-9.127069473266602,0.01629409978171409,0.0009160041809082031,0.0,0.37630310573582326,-9.108323957655493,0.3229480248707961,0.7262912399694089,-1.0,-0.029670938694362176,-0.022647866270212355,-10.05090298478294,-13.912045738489129,2.290382508330388,-5.120009640532755
17.957940340042114,-0.06393366307020187,0.2666762173175812,-8.83148193359375,0.011866725634635145,0.001051187515258789,0.0,0.3545868487666224,-9.089207599098078,0.3129480248707961,0.7414427030343117,-0.8305484543768782,-0.038034653246668965,-0.016606218292466918,-12.416216986083985,-12.416416986083984,-0.059958355331420896,-0.0601583553314209
17.966804027557373,-0.059075016528367996,0.2526992857456207,-8.791645050048828,0.01137434396714683,0.0009808540344238281,0.0,0.333343548264585,-9.069731693402082,0.3029480248707961,0.7425460743296504,-0.8065736155411509,-0.03945862278956583,-0.01231573637717946,-12.354836918528324,-12.368331937584449,0.0805734933045854,-0.5999885245018541
17.977030277252197,-0.059075016528367996,0.2526992857456207,-8.791645050048828,0.01137434396714683,0.0015423297882080078,0.0,0.3125695505067638,-9.049907366299516,0.2929480248707961,0.7417827524148256,-0.8548573352995165,-0.03964685514313581,-0.01027290494951968,-12.224071114207966,-12.322030860917433,0.23986723904938642,-1.348195561452655
17.98687434196472,-0.05197066068649292,0.23250308632850647,-8.731889724731445,0.01069280716753128,0.001959562301635742,0.0,0.292260966782137,-9.029745567935413,0.28294802487079607,0.7437288497139138,-0.7824297620626467,-0.03961605450757465,-0.006652551828694167,-11.875160038857308,-12.420620296059258,0.7141872176973226,-2.5951595750367478
17.996992826461792,-0.05197066068649292,0.23250308632850647,-8.731889724731445,0.01069280716753128,0.0010571479797363281,0.0,0.2724136776911115,-9.00925706744563,0.27294802487079606,0.7429590273131671,-0.8343296953300092,-0.039656839592087045,-0.005840809859893032,-10.05090298478294,-13.912045738489129,2.290382508330388,-5.120009640532755
18.00683569908142,-0.04735841229557991,0.21949489414691925,-8.692069053649902,0.010246975563021704,0.0012917518615722656,0.0,0.25302333757378553,-8.988452447627532,0.26294802487079605,0.7438585231798873,-0.7996840117676353,-0.03911594999310944,-0.0034473220173285458,-12.416216986083985,-12.416416986083984,-0.059958355331420896,-0.0601583553314209
18.016793966293335,-0.04735841229557991,0.21949489414691925,-8.692069053649902,0.010246975563021704,0.0011200904846191406,0.0,0.23408537906521076,-8.967342099707297,0.25294802487079604,0.7430828618398312,-0.8552631624167107,-0.03904141710616561,-0.0029296769554487557,-12.354836918528324,-12.368331937584449,0.0805734933045854,-0.5999885245018541
18.026951789855957,-0.042541809380054474,0.20849105715751648,-8.652024269104004,0.009828456717096604,0.0014672279357910156,0.0,0.21559501777577494,-8.945936218207555,0.24294802487079603,0.7439594027079166,-0.8297297110285369,-0.0382154710496361,-0.0007310634796256989,-12.224071114207966,-12.322030860917433,0.23986723904938642,-1.348195561452655
18.036733388900757,-0.04001172259449959,0.2039315104484558,-8.63187026977539,0.009764357742328998,0.0013666152954101562,0.0,0.1975472570946971,-8.924244795919034,0.2332316070963791,0.7440078576368754,-0.8223168630718171,-0.037776644725321225,0.00017923355207048242,-11.875160038857308,-12.420620296059258,0.7141872176973226,-2.5951595750367478
18.04680848121643,-0.03751474246382713,0.19941015541553497,-8.611735343933105,0.009691890555763721,0.0010755062103271484,0.0,0.17993066432176916,-8.90228261384924,0.22385845645571012,0.7440373421322561,-0.8075202377809079,-0.037266094160524975,0.0009121095607788016,-10.05090298478294,-13.912045738489129,2.290382508330388,-5.120009640532755
18.056739807128906,-0.03505067899823189,0.19492346048355103,-8.591621398925781,0.009629256954434812,0.001110076904296875,0.0,0.16273232061518522,-8.880064849121803,0.21482397709678044,0.7440468197322087,-0.7911271064664462,-0.0367364504730704,0.001459594698998498,-12.416216986083985,-12.416416986083984,-0.059958355331420896,-0.0601583553314209
18.06677556037903,-0.030219826847314835,0.1860395222902298,-8.551485061645508,0.009529648867116831,0.0010018348693847656,0.0,0.14593929128640182,-8.857605906313083,0.20612325896473552,0.7448007442810726,-0.7286756229459673,-0.03588376039582242,0.0024300125802538073,-12.354836918528324,-12.368331937584449,0.0805734933045854,-0.5999885245018541
18.07709002494812,-0.02785254828631878,0.181634783744812,-8.531463623046875,0.009490102857002185,0.0012173652648925781,0.0,0.12953866521579158,-8.83491944626018,0.19775110351935707,0.7447629141633213,-0.7070830527732131,-0.0354158891621485,0.002451424324217853,-12.224071114207966,-12.322030860917433,0.23986723904938642,-1.348195561452655
18.18915867805481,-0.02785254828631878,0.181634783744812,-8.531463623046875,0.009490102857002185,0.001168966293334961,0.0,0.17029194772292247,-8.507511857114505,0.086840375354503,0.7341501775086717,-0.6849675678182545,-0.0351463968821809,0.0021386032252351857,-11.875160038857308,-12.420620296059258,0.7141872176973226,-2.5951595750367478
18.198747634887695,0.005096940323710442,0.12489350885152817,-8.231415748596191,0.009942993862395869,0.0009243488311767578,0.0,0.1592019098739554,-8.483441449095082,0.08041878267850705,0.7435292761630967,0.09963650949021796,-0.026852952085847197,0.01122389459220576,-10.05090298478294,-13.912045738489129,2.290382508330388,-5.120009640532755
18.20688509941101,0.007124392781406641,0.12156114727258682,-8.211444854736328,0.01003962044979785,0.0020923614501953125,0.0,0.14834881525145477,-8.459260871709615,0.07441105553626436,0.7433896130687611,0.1378653666439612,-0.026212476007671386,0.004049787990029995,-12.416216986083985,-12.416416986083984,-0.059958355331420896,-0.0601583553314209
18.216779470443726,0.009121662005782127,0.11817196756601334,-8.191505432128906,0.01013816449065649,0.0012638568878173828,0.0,0.13771737997696668,-8.43497798960898,0.0688030692629813,0.7432427867881838,0.17786729458631367,-0.02486042320413887,0.0002549004637027669,-12.354836918528324,-12.368331937584449,0.0805734933045854,-0.5999885245018541
18.227224588394165,0.013027463108301163,0.11121229827404022,-8.151782989501953,0.010337313216361176,0.001544952392578125,0.0,0.1272928982960327,-8.410600108995602,0.06358081137542294,0.7437004060750863,0.2860343792071236,-0.023045885288584426,-0.0017250572295976108,-12.224071114207966,-12.322030860917433,0.23986723904938642,-1.348195561452655
18.23677897453308,0.014936882071197033,0.10763565450906754,-8.13196849822998,0.010438328617260708,0.001584768295288086,0.0,0.11706124671571883,-8.386134023733138,0.05873039968033094,0.7434992342547153,0.3291984019564958,-0.021846211700735176,-0.0036560405606522396,-11.875160038857308,-12.420620296059258,0.7141872176973226,-2.5951595750367478
18.24696683883667,0.016822699457406998,0.10398976504802704,-8.112190246582031,0.010542598424786043,0.0014078617095947266,0.0,0.10700888554572363,-8.361586058065681,0.05423809913629537,0.7432686946937298,0.3701331209139614,-0.02077833461762896,-0.004969792121699901,-10.05090298478294,-13.912045738489129,2.290382508330388,-5.120009640532755
18.256916999816895,0.018680253997445107,0.10027195513248444,-8.092449188232422,0.010645721030235311,0.00177001953125,0.0,0.09712285813652256,-8.336962106081765,0.050090337496353804,0.7430374112639303,0.4072308619001292,-0.019808011926354882,-0.00595864066249468,-12.250782148742676,-12.250982148742676,-0.5006650256156921,-0.5008650256156921
18.266805410385132,0.022312941029667854,0.0926133543252945,-8.053101539611816,0.010845423295315033,0.0011069774627685547,0.0,0.08739078808120121,-8.31226766806882,0.046273719762230305,0.7433471926236423,0.4901582388156649,-0.018493239003263162,-0.006752329267183675,-12.11673840470685,-12.138974085681733,-0.5180046096317281,-1.171875267862934
18.277158498764038,0.024461673572659492,0.08952122181653976,-8.033393859863281,0.01094215167898687,0.0012812614440917969,0.0,0.07780087462265742,-8.287507883911182,0.04277504148414032,0.7431664642135183,0.5088258445546997,-0.017389937103261068,-0.007856757630060935,-11.8965039248537,-12.042612714330152,-0.5049304817321981,-2.053111308237436
18.286890745162964,0.026575550436973572,0.0863371193408966,-8.013718605041504,0.011063838537802424,0.002095937728881836,0.0,0.06834188648471574,-8.262687563689711,0.03958130094252692,0.7429857219828672,0.5232254096940734,-0.016352615215142294,-0.00870718212490653,-11.39120712073082,-12.148247378752375,-0.11608618785833962,-3.4812552139277084
18.29737877845764,0.028655217960476875,0.08306167274713516,-7.994076251983643,0.011181613613122608,0.0009872913360595703,0.0,0.05900315432437578,-8.237811215643687,0.03667971025001125,0.7428094782070667,0.5336547698008595,-0.015376768923945938,-0.009405117972951958,-8.872938278929846,-14.17293770830033,1.5915484645924334,-6.34997630377459
18.30672526359558,0.03271432965993881,0.07624132186174393,-7.954884052276611,0.011405806342672766,0.0012311935424804688,0.0,0.04977456198286051,-8.212883071656476,0.03405770541328498,0.7431989860417333,0.5658182157225552,-0.013789491858244926,-0.01021318752950216,-12.250782148742676,-12.250982148742676,-0.5006650256156921,-0.5008650256156921
18.418981075286865,0.03271432965993881,0.07624132186174393,-7.954884052276611,0.011405806342672766,0.0008919239044189453,0.0,0.06942555748796254,-7.930347740815703,-0.05680118163161734,0.7380023207503095,0.4258285476490702,-0.01324227635000019,-0.010778831528267644,-12.11673840470685,-12.138974085681733,-0.5180046096317281,-1.171875267862934
18.428122520446777,0.05644205957651138,0.013557449914515018,-7.667106628417969,0.012379622119796815,0.0013337135314941406,0.0,0.06244699218043908,-7.90581336040655,-0.05251662450786894,0.7457475922299124,0.46819189555407087,-0.008569004820858863,-0.013045046010084287,-11.8965039248537,-12.042612714330152,-0.5049304817321981,-2.053111308237436
18.436664819717407,0.057192113250494,0.008570699952542782,-7.648473262786865,0.012388505132457161,0.0011081695556640625,0.0,0.05530899331365898,-7.88128311133771,-0.048215472312727777,0.7456353138451034,0.43824826470423245,-0.008042265210269508,-0.013862756611056194,-11.39120712073082,-12.148247378752375,-0.11608618785833962,-3.4812552139277084
18.446977376937866,0.05793629586696625,0.0035546766594052315,-7.629854679107666,0.012389045489783,0.0012540817260742188,0.0,0.048015211634327454,-7.856759080229578,-0.043906898232889874,0.7455266193521273,0.40697173499699246,-0.008210619163901813,-0.014122894169563154,-8.872938278929846,-14.17293770830033,1.5915484645924334,-6.34997630377459
18.456766366958618,0.058708228170871735,-0.0014906756114214659,-7.611249923706055,0.012385078483490129,0.0010607242584228516,0.0,0.04056955888372877,-7.83224323625847,-0.039599584582680765,0.7454287149346901,0.37445215460467524,-0.008481409984537327,-0.014202540917867894,-12.250782148742676,-12.250982148742676,-0.5006650256156921,-0.5008650256156921
18.466790914535522,0.06023171544075012,-0.011644602753221989,-7.574109077453613,0.012372735865234664,0.0010502338409423828,0.0,0.032976186017588845,-7.807737428241063,-0.03530173538847483,0.7459044244805255,0.3283321728412151,-0.00892950619985521,-0.01420192828111705,-12.11673840470685,-12.138974085681733,-0.5180046096317281,-1.171875267862934
18.476948499679565,0.06098288297653198,-0.016746407374739647,-7.555574893951416,0.012360318255839622,0.001430511474609375,0.0,0.02523946204714785,-7.783243382553312,-0.031021089021136563,0.7457983992327293,0.2945007920671354,-0.009186955907655253,-0.014165594577884973,-11.8965039248537,-12.042612714330152,-0.5049304817321981,-2.053111308237436
18.486815214157104,0.06172683462500572,-0.021860552951693535,-7.537057876586914,0.012342739170935091,0.0013196468353271484,0.0,0.01736395352287692,-7.758762701852314,-0.026764930858094216,0.7456904006034385,0.2604870959790573,-0.009471911132764143,-0.014088870183684673,-11.39120712073082,-12.148247378752375,-0.11608618785833962,-3.4812552139277084
18.496873378753662,0.06246339902281761,-0.026983844116330147,-7.518558502197266,0.012320429076824133,0.0011196136474609375,0.0,0.00935440467980104,-7.734296864564856,-0.022540105957726136,0.7455836295616013,0.22648636855517496,-0.009812194314241547,-0.013976688942656893,-8.872938278929846,-14.17293770830033,1.5915484645924334,-6.34997630377459
18.506850004196167,0.06391359120607376,-0.03724556043744087,-7.4816155433654785,0.012259907829868204,0.001323699951171875,0.0,0.0012157182607699254,-7.709847225102386,-0.018353031729688357,0.7460293691269256,0.1797845296057509,-0.010440005375978488,-0.013826309031586275,-12.250782148742676,-12.250982148742676,-0.5006650256156921,-0.5008650256156921
18.51682472229004,0.06462672352790833,-0.04237809777259827,-7.463198661804199,0.012221493450878385,0.0010828971862792969,0.0,-0.0070470629687012145,-7.685415014758999,-0.014209710585655967,0.7459232875519727,0.14669572253978463,-0.010815409108744966,-0.01364994521674438,-12.11673840470685,-12.138974085681733,-0.5180046096317281,-1.171875267862934
18.52699327468872,0.0658966451883316,-0.04816552624106407,-7.445176601409912,0.012179919188655918,0.001252889633178711,0.0,-0.0154287740031739,-7.661001343246534,-0.010115742555706044,0.745784657004041,0.11751171384696607,-0.01076398945775559,-0.013521798291676056,-11.8965039248537,-12.042612714330152,-0.5049304817321981,-2.053111308237436
18.536710500717163,0.06714563071727753,-0.05393720045685768,-7.427163600921631,0.012108112672857312,0.0011849403381347656,0.0,-0.023924144669552463,-7.636607200819099,-0.006076337856251281,0.7456467727804411,0.08895700221158603,-0.010632552081526955,-0.013386748010101037,-11.39120712073082,-12.148247378752375,-0.11608618785833962,-3.4812552139277084
18.656214237213135,0.06714563071727753,-0.05393720045685768,-7.427163600921631,0.012108112672857312,0.0010924339294433594,0.0,-0.063006953387626,-7.404262965733184,0.04340488255573926,0.7412881334085695,0.0130284322375806,-0.010470019369920858,-0.013230094506591503,-8.872938278929846,-14.17293770830033,1.5915484645924334,-6.34997630377459
18.664900541305542,0.08441474288702011,-0.14869031310081482,-7.12309455871582,0.010517919822360937,0.001066446304321289,0.0,-0.07203798122370084,-7.381346122492635,0.043601746620250605,0.7498888907517314,-0.03662090758999606,-0.009427773960161579,-0.012566033868580656,-12.250782148742676,-12.250982148742676,-0.5006650256156921,-0.5008650256156921
18.667611598968506,0.08441474288702011,-0.14869031310081482,-7.12309455871582,0.010517919822360937,0.0008256435394287109,0.0,-0.0810316532966225,-7.358414440088389,0.0438601268783264,0.7492310396780634,-0.055839195316175205,-0.009330887575635405,-0.012037541569225887,-12.11673840470685,-12.138974085681733,-0.5180046096317281,-1.171875267862934
18.676872968673706,0.08510612696409225,-0.15412676334381104,-7.105349540710449,0.01042264552615886,0.0012831687927246094,0.0,-0.0899891603451448,-7.335469225949911,0.04417513959815229,0.7491281659949746,-0.07368306567707616,-0.009459149435755423,-0.011651046233202317,-11.8965039248537,-12.042612714330152,-0.5049304817321981,-2.053111308237436
18.686933755874634,0.08578387647867203,-0.15952004492282867,-7.087616443634033,0.010329257535845529,0.0013613700866699219,0.0,-0.09891152293914468,-7.312511728763276,0.04454207922164906,0.7490351617995071,-0.09150081648914668,-0.009636979160614595,-0.011336656433565,-11.39120712073082,-12.148247378752375,-0.11608618785833962,-3.4812552139277084
18.696809768676758,0.086448073387146,-0.16486966609954834,-7.069894790649414,0.010235388013515194,0.0011057853698730469,0.0,-0.10779959977137274,-7.289543141049549,0.04495641650376504,0.7489499497775932,-0.10900940219396127,-0.009811711861605465,-0.011054312887912483,-8.872938278929846,-14.17293770830033,1.5915484645924334,-6.34997630377459
18.706729412078857,0.08773577213287354,-0.17543508112430573,-7.034493446350098,0.01004513770502985,0.0015952587127685547,0.0,-0.11665409580646939,-7.266564601621395,0.045413796450292254,0.7493819651870477,-0.12327281584878019,-0.010149301439518123,-0.010725905255972184,-12.250782148742676,-12.250982148742676,-0.5006650256156921,-0.5008650256156921
18.716772317886353,0.08835918456315994,-0.18064939975738525,-7.016839981079102,0.009952227645555783,0.0012094974517822266,0.0,-0.1254755702777653,-7.243577197931598,0.04591003606975459,0.7492565045757651,-0.13824363834353898,-0.010351882079540051,-0.01042789838055813,-12.11673840470685,-12.138974085681733,-0.5180046096317281,-1.171875267862934
18.72704768180847,0.08896907418966293,-0.18581771850585938,-6.999204635620117,0.009858423434259592,0.0015058517456054688,0.0,-0.13426444452341263,-7.220581968325574,0.04644112195427167,0.7491296788860518,-0.15206674898454609,-0.010546491425374688,-0.010141463016386616,-11.8965039248537,-12.042612714330152,-0.5049304817321981,-2.053111308237436
18.736794471740723,0.08956059068441391,-0.19090485572814941,-6.981589317321777,0.00976548237433024,0.0010325908660888672,0.0,-0.14302100965436115,-7.19757990420848,0.047003207703674395,0.7490023807275148,-0.16495960769414317,-0.010761672821474031,-0.00985963327630228,-11.39120712073082,-12.148247378752375,-0.11608618785833962,-3.4812552139277084
18.746622562408447,0.09070243686437607,-0.2009410560131073,-6.946413993835449,0.009615497542996655,0.0008666515350341797,0.0,-0.15174543404760302,-7.174571952136164,0.04759261120653863,0.749390016221042,-0.16906433591868655,-0.011183955717054675,-0.009528355809283774,-8.872938278929846,-14.17293770830033,1.5915484645924334,-6.34997630377459
18.756805896759033,0.09125292301177979,-0.2058902084827423,-6.928855895996094,0.00954163670858247,0.0012383460998535156,0.0,-0.16043777065896814,-7.1515590158379085,0.04820581179121072,0.7492578787417078,-0.17880959623266698,-0.011417731899951109,-0.00924017023478268,-12.250782148742676,-12.250982148742676,-0.5006650256156921,-0.5008650256156921
18.76704692840576,0.09178992360830307,-0.21079351007938385,-6.911338806152344,0.009470599382695372,0.0013728141784667969,0.0,-0.16909796415055897,-7.128541958177797,0.048839447259323814,0.7491241079936223,-0.18750112056177048,-0.011621871756998081,-0.00896341226526745,-12.11673840470685,-12.138974085681733,-0.5180046096317281,-1.171875267862934
18.876470804214478,0.09178992360830307,-0.21079351007938385,-6.911338806152344,0.009470599382695372,0.001222848892211914,0.0,-0.21869479960265592,-6.889514092035502,0.06976028858533032,0.7442953056342643,-0.2623950879325442,-0.011533961388105756,-0.008759164266403422,-11.8965039248537,-12.042612714330152,-0.5049304817321981,-2.053111308237436
18.88466787338257,0.10098510980606079,-0.2792341113090515,-6.654582977294922,0.008800753082955456,0.000881195068359375,0.0,-0.22646858924527502,-6.867655979202729,0.06729048665045402,0.7508542486966026,-0.041004663183466794,-0.012060445136417996,-0.007328322593257347,-11.39120712073082,-12.148247378752375,-0.11608618785833962,-3.4812552139277084
18.887093544006348,0.10098510980606079,-0.2792341113090515,-6.654582977294922,0.008800753082955456,0.0009768009185791016,0.0,-0.23412064562836166,-6.845767049151819,0.0649696083840807,0.7502132641725826,-0.057741373286249065,-0.01219023066732663,-0.007640304606874409,-8.872938278929846,-14.17293770830033,1.5915484645924334,-6.34997630377459
18.89679789543152,0.10145102441310883,-0.28352090716362,-6.63763427734375,0.008752631136041248,0.0010979175567626953,0.0,-0.24165649355148533,-6.823849754432113,0.06279246691796415,0.7500338820103587,-0.053763782311625624,-0.012219251592491388,-0.007629030768318688,-12.250782148742676,-12.250982148742676,-0.5006650256156921,-0.5008650256156921
18.90702247619629,0.10402686148881912,-0.29116177558898926,-6.605032920837402,0.008680449931372028,0.0014133453369140625,0.0,-0.24908141931868508,-6.801906426582831,0.06075392064275574,0.7502712599350553,-0.032307169324925444,-0.011226913029916118,-0.007549546304286702,-12.11673840470685,-12.138974085681733,-0.5180046096317281,-1.171875267862934
18.916857481002808,0.10526016354560852,-0.29494884610176086,-6.588754177093506,0.008659118157918956,0.0010623931884765625,0.0,-0.2564004744126704,-6.779939283576321,0.058848879587140475,0.7500595837314273,-0.029241303364595184,-0.01068652100078373,-0.007678834831055063,-11.8965039248537,-12.042612714330152,-0.5049304817321981,-2.053111308237436
18.926913499832153,0.10645807534456253,-0.29871466755867004,-6.572481632232666,0.008636864722622525,0.0011532306671142578,0.0,-0.2636184794814746,-6.7579504367881205,0.057072311340786365,0.749838365545985,-0.026220793250294833,-0.010170182736424649,-0.0077778171516473425,-11.39120712073082,-12.148247378752375,-0.11608618785833962,-3.4812552139277084
18.936741828918457,0.10762138664722443,-0.30246010422706604,-6.556216716766357,0.008614032688027195,0.0011487007141113281,0.0,-0.27074002860402474,-6.735941897516185,0.0554192465369612,0.7496133432462238,-0.023533965447144534,-0.009655808733257817,-0.007863896363946597,-8.872938278929846,-14.17293770830033,1.5915484645924334,-6.34997630377459
18.946929931640625,0.1098475307226181,-0.309895396232605,-6.5237135887146,0.00856896880467957,0.0012035369873046875,0.0,-0.2777694938031868,-6.713915583071915,0.053884783910608226,0.7497958578580843,-0.0040149987755103145,-0.00874754842917839,-0.00792602198220009,-12.250782148742676,-12.250982148742676,-0.5006650256156921,-0.5008650256156921
