time,x,y,z,yaw,ctrl_comp_time,rollout_comptime,y_ref,z_ref,yaw_ref,throttle,roll_rate,pitch_rate,yaw_rate,save_tube_pyH,save_tube_pyL,save_tube_pzH,save_tube_pzL,wy,wz
15.00940728187561,0.0023022310342639685,3.892390727996826,-12.701616287231445,0.0019466223427417747,0.16800308227539062,0.12569570541381836,3.881701539514532,-12.636207085588623,-0.14357011080094811,0.5908128667261262,-1.0,-0.02590300866103197,0.016236467438941794,3.9105694845492893,3.85195624886782,-12.637226073493315,-12.648318222844374,0.0,0.0
15.571553707122803,0.0023022310342639685,3.892390727996826,-12.701616287231445,0.0019466223427417747,0.1680004596710205,0.11086893081665039,3.882522500405758,-12.622082066754158,-0.16357011080094813,0.5907669004591766,-1.0,-0.08043493152118793,-0.06138898492192563,3.9228645234923345,3.8413805936721395,-12.620260022551777,-12.638360178017765,0.0,0.0
15.703237056732178,-0.018459400162100792,3.891474962234497,-12.683993339538574,-0.0008320277964575924,0.002067089080810547,0.10859417915344238,3.883245345887646,-12.606635374329178,-0.18357011080094815,0.5909329432184732,-0.9231094092568366,-0.2066256032861394,-0.32187177428937197,3.938006883403722,3.82778895237314,-12.600181914269514,-12.628865413654845,0.0,0.0
15.709654808044434,-0.018459400162100792,3.891474962234497,-12.683993339538574,-0.0008320277964575924,0.0026581287384033203,0.10859417915344238,3.8838423161191424,-12.589870076505868,-0.20357011080094817,0.5895716673021267,-0.9912339265167409,-0.3846379223002976,-0.560935887144686,3.956812104637383,3.810310508944526,-12.57621325604315,-12.620621709702144,0.0,0.0
15.718678712844849,-0.01865319348871708,3.8905906677246094,-12.682849884033203,-0.000903022337799374,0.002260923385620117,0.10859417915344238,3.8842855415724853,-12.571786073063178,-0.22357011080094819,0.5881870599996911,-1.0,-0.5092465456102083,-0.680467943572343,3.980515633786176,3.787654142517831,-12.547198364074978,-12.614787722911641,0.0,0.0
15.728168487548828,-0.018795954063534737,3.8897342681884766,-12.681571960449219,-0.0010088271129943126,0.002863168716430664,0.10859417915344238,3.884547223283271,-12.55238008045758,-0.2435701108009482,0.5870688937084274,-1.0,-0.5964725819271458,-0.7402339717861716,4.011004539721451,3.757877070528451,-12.511398518063642,-12.613098792290698,0.0,0.0
15.736751079559326,-0.018795954063534737,3.8897342681884766,-12.681571960449219,-0.0010088271129943126,0.0024487972259521484,0.10859417915344238,3.884599814003984,-12.531645626972177,-0.2635701108009482,0.5856912308203893,-1.0,-0.6575308073490022,-0.7701169858930857,4.051175118150986,3.7180276056980373,-12.466169798076985,-12.618189082466046,0.0,0.0
15.748367071151733,-0.01886626146733761,3.8884403705596924,-12.681153297424316,-0.0014092545744211855,0.0025894641876220703,0.10859417915344238,3.8844161997164512,-12.509573057919845,-0.28357011080094824,0.5857791190063174,-1.0,-0.7002715651443016,-0.7850584929465428,4.105467984124888,3.663610426330054,-12.407466236623891,-12.63408843196936,0.0,0.0
15.75896692276001,-0.018870072439312935,3.887578010559082,-12.681312561035156,-0.0017960303587800765,0.0029904842376708984,0.10859417915344238,3.883969880964704,-12.486149550863772,-0.30357011080094826,0.5854006055596204,-1.0,-0.7301900956010111,-0.7925292464732715,4.180610988998912,3.5878440223255,-12.329118029347542,-12.666944162980807,0.0,0.0
15.768409490585327,-0.018833443522453308,3.8859002590179443,-12.681109428405762,-0.0029223871551457272,0.002855539321899414,0.10859417915344238,3.8832351534777305,-12.461359140787446,-0.3235701108009483,0.5864668161315547,-1.0,-0.7511330669207078,-0.7962646232366358,4.286491765040441,3.480788512664019,-12.221304161352675,-12.726548495413114,0.0,0.0
15.778526306152344,-0.0187905952334404,3.885080575942993,-12.680720329284668,-0.003652897853332421,0.002845287322998047,0.10859417915344238,3.8821872875614356,-12.43518275511604,-0.3435701108009483,0.5864496077557034,-1.0,-0.7657931468444955,-0.798132311618318,4.436731199318787,3.32877253165712,-12.066789915723595,-12.83010109861313,0.0,0.0
15.788280248641968,-0.01872897520661354,3.884270191192627,-12.680132865905762,-0.0044854998255728,0.0028972625732421875,0.10859417915344238,3.880802705750653,-12.407598258462192,-0.3635701108009483,0.586495312000824,-1.0,-0.7760552027911469,-0.7990661558091591,4.649483192845514,3.11359382697755,-11.840732737189583,-13.002403307498833,0.0,0.0
15.798683166503906,-0.018646594136953354,3.8834657669067383,-12.679342269897461,-0.0054095410214700865,0.0026166439056396484,0.10859417915344238,3.898038029553794,-12.646216811287562,-0.13436172716710787,0.5865928996219236,-1.0,-0.7832386419538029,-0.7995330779045794,3.922121168576297,3.8730742959163336,-12.648199725974187,-12.656847141551687,0.0,0.0
15.808753490447998,-0.018410470336675644,3.8818626403808594,-12.67715072631836,-0.00750609618587262,0.0031023025512695312,0.10859417915344238,3.8988729249419953,-12.63260677399174,-0.1543617271671079,0.5883091217900938,-1.0,-0.788267049367662,-0.7997665389522898,3.9331998831162935,3.8637285733776863,-12.63241509157771,-12.646740054682688,0.0,0.0
15.818418502807617,-0.018252141773700714,3.881056547164917,-12.675745964050293,-0.008657826388399858,0.002628803253173828,0.10859417915344238,3.8996240612378346,-12.61767373748002,-0.1743617271671079,0.5885330092563916,-1.0,-0.7917869345573634,-0.7998832694761447,3.946836520283514,3.851684854994895,-12.613806642144699,-12.636803905825142,0.0,0.0
15.964712381362915,-0.018252141773700714,3.881056547164917,-12.675745964050293,-0.008657826388399858,0.003893613815307617,0.1339552402496338,3.9002637385595365,-12.601422227906689,-0.19436172716710792,0.6018698604162327,-1.0,-0.7942508541901544,-0.7999416347380722,3.963699163205121,3.8362199829661745,-12.59172992522951,-12.627695338982228,0.0,0.0
15.97535490989685,-0.013924443162977695,3.8664321899414062,-12.632556915283203,-0.03407164574294791,0.0028533935546875,0.1339552402496338,3.900764065704087,-12.583853611324152,-0.21436172716710794,0.6294477518614219,0.22481707095417147,-0.795975597933108,-0.7999708173690362,3.9847951478494767,3.816270985495925,-12.56523529250168,-12.620369900809267,0.0,0.0
15.98317265510559,-0.013924443162977695,3.8664321899414062,-12.632556915283203,-0.03407164574294791,0.002479076385498047,0.1339552402496338,3.901097139864317,-12.564966074225179,-0.23436172716710796,0.6281738734860147,0.14426086334116883,-0.7971829185531756,-0.7999854086845182,4.011657111799476,3.790249385892162,-12.532902635185494,-12.61624725623648,0.0,0.0
15.993516445159912,-0.011604897677898407,3.8623600006103516,-12.61921215057373,-0.03923675335118655,0.0028846263885498047,0.1339552402496338,3.9012352274973408,-12.54475461413626,-0.254361727167108,0.632471838604724,0.3367770903162828,-0.7938829983008266,-0.7999927043422591,4.046632333690126,3.755752223851602,-12.492583057175107,-12.617469486482639,0.0,0.0
16.001208066940308,-0.011604897677898407,3.8623600006103516,-12.61921215057373,-0.03923675335118655,0.0026726722717285156,0.1339552402496338,3.901150945797677,-12.523211040272695,-0.274361727167108,0.6312007433476183,0.2510605471468583,-0.7826618279284051,-0.7999963521711296,4.093324505702365,3.7091206454435306,-12.440995805488539,-12.627304149850987,0.0,0.0
16.011008501052856,-0.010240847244858742,3.8593854904174805,-12.609467506408691,-0.04273411221967542,0.0026705265045166016,0.1339552402496338,3.9008174442334935,-12.500323984233392,-0.294361727167108,0.6336336366949973,0.353012805828147,-0.7305183997410928,-0.7999981760855648,4.157234262836531,3.644799736980293,-12.373120861208964,-12.650751702147382,0.0,0.0
16.018240451812744,-0.010240847244858742,3.8593854904174805,-12.609467506408691,-0.04273411221967542,0.002660512924194336,0.1339552402496338,3.9002085856115274,-12.476078920681442,-0.31436172716710803,0.6323650382023227,0.26186850677223994,-0.6994926408870918,-0.7999990880427824,4.246591479381614,3.554506591281774,-12.281334692579257,-12.695409774978472,0.0,0.0
16.02777075767517,-0.008313335478305817,3.854396343231201,-12.593707084655762,-0.047991176406735434,0.0025424957275390625,0.1339552402496338,3.899299126145246,-12.450458197925983,-0.33436172716710805,0.6358219304043948,0.44747610613057853,-0.6139724927000829,-0.7999995440213912,4.373168325700469,3.4264176121533625,-12.152147036782242,-12.774736445258783,0.0,0.0
16.037866830825806,-0.008313335478305817,3.854396343231201,-12.593707084655762,-0.047991176406735434,0.0020987987518310547,0.1339552402496338,3.8980648940115814,-12.423441078291265,-0.35436172716710806,0.6345600362710037,0.35074404011832283,-0.5693013940334309,-0.7999997720106956,4.55250565858506,3.2449424827827875,-11.964732069001785,-12.909519137132632,0.0,0.0
16.048603534698486,-0.006430008914321661,3.850450038909912,-12.582171440124512,-0.051657558661516834,0.0027649402618408203,0.1339552402496338,3.8975977322463016,-12.652523433762935,-0.12436172716710786,0.6363497884581618,0.41336949391057964,-0.5012353869966503,-0.7999998860053478,3.9173957918983056,3.876897619337088,-12.655177515760329,-12.6618148693915,0.0,0.0
16.058265447616577,-0.0026589699555188417,3.8435401916503906,-12.563373565673828,-0.057595306651855235,0.002359151840209961,0.1339552402496338,3.898464228246971,-12.639577573130197,-0.14436172716710788,0.6396689386152483,0.5198778101023782,-0.40530963527887537,-0.799999943002674,3.927372770720601,3.8687032883869543,-12.640628884518117,-12.65180473805701,0.0,0.0
16.18502140045166,-0.0026589699555188417,3.8435401916503906,-12.563373565673828,-0.057595306651855235,0.0020520687103271484,0.11825823783874512,3.899260687639179,-12.625305273984917,-0.1643617271671079,0.6510744908835663,-1.0,-0.36792912050488213,-0.7479857366266793,3.939663045968478,3.858082803915468,-12.623498418721686,-12.641715129261792,0.0,0.0
16.194483757019043,0.03700907155871391,3.7849080562591553,-12.4465913772583,-0.10369927276548047,0.0044820308685302734,0.11825823783874512,3.899959573085615,-12.609712632105866,-0.1843617271671079,0.6739427569239587,-0.5291257792136486,-0.09736428647072086,-0.7739928683133397,3.954811350455539,3.844436772020071,-12.603252439459148,-12.63209503550089,0.0,0.0
16.203434705734253,0.03700907155871391,3.7849080562591553,-12.4465913772583,-0.10369927276548047,0.003301858901977539,0.11825823783874512,3.9005330666726596,-12.592802596655469,-0.20436172716710793,0.6726896777116335,-0.6729720594188446,0.07475904854071148,-0.6481101448544189,3.973637285974649,3.826890191144349,-12.579110115630051,-12.623734340183324,0.0,0.0
16.21329927444458,0.04503055661916733,3.7743382453918457,-12.428135871887207,-0.1115103042635201,0.004002094268798828,0.11825823783874512,3.900953248845768,-12.574574945710982,-0.22436172716710795,0.6748858595491745,-0.7710349980219264,0.2800642891928476,-0.345026693064993,3.997382073777794,3.8041460576302875,-12.54991207168659,-12.617795150961706,0.0,0.0
16.221717596054077,0.04503055661916733,3.7743382453918457,-12.428135871887207,-0.1115103042635201,0.002767324447631836,0.11825823783874512,3.901192278770802,-12.555026271828867,-0.24436172716710797,0.6738568065337315,-0.9255923077429371,0.43604500243499333,0.25375449938606554,4.0279412324245145,3.7742530473040072,-12.513913747995408,-12.61601840045494,0.0,0.0
16.230765342712402,0.05824267119169235,3.757672071456909,-12.399103164672852,-0.12382332878999142,0.0034101009368896484,0.11825823783874512,3.901222575572874,-12.534149977669754,-0.264361727167108,0.6773117043041791,-0.993257217784794,0.5452315017044953,0.5268772496930328,4.068223458353613,3.7342469966409326,-12.468462137744519,-12.62104709052799,0.0,0.0
16.23949670791626,0.05824267119169235,3.757672071456909,-12.399103164672852,-0.12382332878999142,0.004012346267700195,0.11825823783874512,3.901016999908325,-12.51193628167816,-0.284361727167108,0.6762914316385154,-1.0,0.6216620511931468,0.6634386248465164,4.122687422555789,3.6796144690394055,-12.409497462627899,-12.636924617917478,0.0,0.0
16.250015020370483,0.06788880378007889,3.746014356613159,-12.378960609436035,-0.13259839302119514,0.0034720897674560547,0.11825823783874512,3.9005490353315926,-12.48837223377885,-0.304361727167108,0.6778923593549208,-1.0,0.6751634358352028,0.7317193124232583,4.198086420606054,3.6035484678607452,-12.330829972763839,-12.669817995702925,0.0,0.0
16.258376359939575,0.06788880378007889,3.746014356613159,-12.378960609436035,-0.13259839302119514,0.003814220428466797,0.11825823783874512,3.899792968926799,-12.463441741020496,-0.32436172716710804,0.6768988294737943,-1.0,0.7126144050846419,0.7658596562116292,4.30434106788688,3.496076103335957,-12.2225344379499,-12.729623403412962,0.0,0.0
16.267943382263184,0.08474856615066528,3.725034713745117,-12.350244522094727,-0.14667815149697871,0.003314971923828125,0.11825823783874512,3.898724070683789,-12.437125603067189,-0.34436172716710806,0.6788575270921069,-1.0,0.7388300835592494,0.7829298281058147,4.4551065044620115,3.3434917478282293,-12.067348506244386,-12.833567889607552,0.0,0.0
16.278411865234375,0.09090617299079895,3.71738338470459,-12.340835571289062,-0.15152851024358394,0.0038454532623291016,0.11825823783874512,3.898038029553778,-12.646216811287562,-0.13436172716710787,0.678629465562832,-1.0,0.7571810584914745,0.7914649140529074,3.9173957918983056,3.876897619337088,-12.655177515760329,-12.6618148693915,0.0,0.0
16.287383794784546,0.09090617299079895,3.71738338470459,-12.340835571289062,-0.15152851024358394,0.003795146942138672,0.11825823783874512,3.8988729249419736,-12.63260677399174,-0.1543617271671079,0.6776667254742013,-1.0,0.7700267409440321,0.7957324570264538,3.927372770720601,3.8687032883869543,-12.640628884518117,-12.65180473805701,0.0,0.0
16.298746824264526,0.11044194549322128,3.693791389465332,-12.311902046203613,-0.16582576456306897,0.0034575462341308594,0.11825823783874512,3.899624061237806,-12.61767373748002,-0.1743617271671079,0.678860503743262,-1.0,0.7790187186608225,0.7978662285132269,3.939663045968478,3.858082803915468,-12.623498418721686,-12.641715129261792,0.0,0.0
16.439127206802368,0.11044194549322128,3.693791389465332,-12.311902046203613,-0.16582576456306897,0.0029535293579101562,0.13119816780090332,3.9002637385595,-12.601422227906689,-0.19436172716710792,0.6630350060742033,-1.0,0.7853131030625758,0.7989331142566135,3.954811350455539,3.844436772020071,-12.603252439459148,-12.63209503550089,0.0,0.0
16.449971914291382,0.26525139808654785,3.5237436294555664,-12.120536804199219,-0.22853632515461214,0.003401041030883789,0.13119816780090332,3.9007640657040414,-12.58385361132415,-0.21436172716710794,0.676587264526156,1.0,0.789719172143803,0.7994665571283067,3.973637285974649,3.826890191144349,-12.579110115630051,-12.623734340183324,0.0,0.0
16.457327842712402,0.26525139808654785,3.5237436294555664,-12.120536804199219,-0.22853632515461214,0.0034973621368408203,0.13119816780090332,3.901097139864261,-12.564966074225177,-0.23436172716710796,0.6752813803165152,1.0,0.7928034205006621,0.7997332785641533,3.997382073777794,3.8041460576302875,-12.54991207168659,-12.617795150961706,0.0,0.0
16.467110633850098,0.2855440378189087,3.5014522075653076,-12.097289085388184,-0.23292727842298688,0.0032341480255126953,0.13119816780090332,3.9012352274972737,-12.544754614136256,-0.254361727167108,0.6758286092845063,1.0,0.7949623943504635,0.7998666392820767,4.0279412324245145,3.7742530473040072,-12.513913747995408,-12.61601840045494,0.0,0.0
16.47722291946411,0.3060586452484131,3.4785044193267822,-12.0735445022583,-0.2369256432515149,0.0035800933837890625,0.13119816780090332,3.901150945797597,-12.52321104027269,-0.274361727167108,0.6763952512597025,1.0,0.7964736760453244,0.7999333196410383,4.068223458353613,3.7342469966409326,-12.468462137744519,-12.62104709052799,0.0,0.0
16.487785816192627,0.31638845801353455,3.4667763710021973,-12.061481475830078,-0.2387351667688538,0.003719806671142578,0.13119816780090332,3.9008174442334,-12.500323984233384,-0.294361727167108,0.6760936693886186,1.0,0.7975315732317271,0.7999666598205192,4.122687422555789,3.6796144690394055,-12.409497462627899,-12.636924617917478,0.0,0.0
16.498125314712524,0.33717256784439087,3.442777395248413,-12.037013053894043,-0.24178945532642976,0.0036170482635498047,0.13119816780090332,3.9002085856114186,-12.476078920681433,-0.31436172716710803,0.6764226346799044,1.0,0.798272101262209,0.7999833299102597,4.198086420606054,3.6035484678607452,-12.330829972763839,-12.669817995702925,0.0,0.0
16.507633924484253,0.34902167320251465,3.4300661087036133,-12.025218963623047,-0.24301256770680393,0.0035979747772216797,0.13119816780090332,3.89929912614512,-12.45045819792597,-0.33436172716710805,0.6761496959774573,1.0,0.7987904708835463,0.7999916649551299,4.30434106788688,3.496076103335957,-12.2225344379499,-12.729623403412962,0.0,0.0
16.51754927635193,0.3608754575252533,3.4171838760375977,-12.013298988342285,-0.24391834207765672,0.0032515525817871094,0.13119816780090332,3.8980648940114366,-12.42344107829125,-0.35436172716710806,0.6759525995921202,1.0,0.7991533296184824,0.799995832477565,4.4551065044620115,3.3434917478282293,-12.067348506244386,-12.833567889607552,0.0,0.0
16.528489351272583,0.37273189425468445,3.404132127761841,-12.001245498657227,-0.24466699564317462,0.003926753997802734,0.13119816780090332,3.898464228246971,-12.639577573130197,-0.14436172716710788,0.6757944714977544,1.0,0.7994073307329377,0.7999979162387825,3.9173957918983056,3.876897619337088,-12.655177515760329,-12.6618148693915,0.0,0.0
16.672587871551514,0.37273189425468445,3.404132127761841,-12.001245498657227,-0.24466699564317462,0.002783060073852539,0.13308167457580566,3.899260687639179,-12.625305273984917,-0.1643617271671079,0.6888504816909171,-1.0,0.7995851315130564,0.7999989581193913,3.927372770720601,3.8687032883869543,-12.640628884518117,-12.65180473805701,0.0,0.0
16.680742740631104,0.5978186726570129,3.1238980293273926,-11.752870559692383,-0.23416028603007574,0.0034439563751220703,0.13308167457580566,3.899959573085615,-12.609712632105866,-0.1843617271671079,0.7040508636841023,-0.02637789228625209,0.7997095920591395,0.7999994790596956,3.939663045968478,3.858082803915468,-12.623498418721686,-12.641715129261792,0.0,0.0
16.689464807510376,0.5978186726570129,3.1238980293273926,-11.752870559692383,-0.23416028603007574,0.004567623138427734,0.13308167457580566,3.9005330666726596,-12.592802596655469,-0.20436172716710793,0.7030962264868524,-0.23601994425871964,0.7997967144413977,0.7999997395298478,3.954811350455539,3.844436772020071,-12.603252439459148,-12.63209503550089,0.0,0.0
16.70496153831482,0.6329886317253113,3.074997901916504,-11.710887908935547,-0.22808476409644718,0.005512237548828125,0.13308167457580566,3.900953248845768,-12.574574945710982,-0.22436172716710795,0.7052595465031878,-0.3631632031998764,0.7998577001089784,0.7999998697649239,3.973637285974649,3.826890191144349,-12.579110115630051,-12.623734340183324,0.0,0.0
16.71872091293335,0.6329886317253113,3.074997901916504,-11.710887908935547,-0.22808476409644718,0.00500798225402832,0.13308167457580566,3.901192278770802,-12.555026271828867,-0.24436172716710797,0.70456982404462,-0.5809479249770195,0.7999003900762849,0.799999934882462,3.997382073777794,3.8041460576302875,-12.54991207168659,-12.617795150961706,0.0,0.0
16.731053352355957,0.6677475571632385,3.02557373046875,-11.668076515197754,-0.22099793357534533,0.003553628921508789,0.13308167457580566,3.901222575572874,-12.534149977669754,-0.264361727167108,0.7060661657701808,-0.6806490034774393,0.7999302730533995,0.799999967441231,4.0279412324245145,3.7742530473040072,-12.513913747995408,-12.61601840045494,0.0,0.0
16.740200519561768,0.6677475571632385,3.02557373046875,-11.668076515197754,-0.22099793357534533,0.003516674041748047,0.13308167457580566,3.901016999908325,-12.51193628167816,-0.284361727167108,0.7053949543083536,-0.9046059356495824,0.7999511911373797,0.7999999837206155,4.068223458353613,3.7342469966409326,-12.468462137744519,-12.62104709052799,0.0,0.0
16.749284982681274,0.702021062374115,2.975729465484619,-11.624613761901855,-0.21308017607593263,0.003291606903076172,0.13308167457580566,3.9005490353315926,-12.48837223377885,-0.304361727167108,0.7067048899027158,-0.9567798465507038,0.7999658337961658,0.7999999918603078,4.122687422555789,3.6796144690394055,-12.409497462627899,-12.636924617917478,0.0,0.0
16.757894277572632,0.7141956090927124,2.9574763774871826,-11.61000919342041,-0.21026415213373506,0.0040094852447509766,0.13308167457580566,3.899792968926799,-12.463441741020496,-0.32436172716710804,0.7066457451506875,-1.0,0.7999760836573161,0.7999999959301539,4.198086420606054,3.6035484678607452,-12.330829972763839,-12.669817995702925,0.0,0.0
16.767089366912842,0.7141956090927124,2.9574763774871826,-11.61000919342041,-0.21026415213373506,0.0034270286560058594,0.13308167457580566,3.898724070683789,-12.437125603067189,-0.34436172716710806,0.7060088003635593,-1.0,0.7999832585601212,0.799999997965077,4.30434106788688,3.496076103335957,-12.2225344379499,-12.729623403412962,0.0,0.0
16.778321504592896,0.7501567602157593,2.902647018432617,-11.56582260131836,-0.20205810443775063,0.0040285587310791016,0.13308167457580566,3.8973187711099846,-12.409401557409506,-0.3643617271671081,0.70709445740659,-1.0,0.7999882809920849,0.7999999989825386,4.4551065044620115,3.3434917478282293,-12.067348506244386,-12.833567889607552,0.0,0.0
16.927241802215576,0.7501567602157593,2.902647018432617,-11.56582260131836,-0.20205810443775063,0.0034809112548828125,0.13799548149108887,3.8988729249419736,-12.63260677399174,-0.1543617271671079,0.6812456208350207,-0.4954595444277312,0.7999917966944594,0.7999999994912693,3.9173957918983056,3.876897619337088,-12.655177515760329,-12.6618148693915,0.0,0.0
16.93791651725769,0.9470419883728027,2.566586494445801,-11.295318603515625,-0.1470990086041442,0.0032868385314941406,0.13799548149108887,3.899624061237806,-12.61767373748002,-0.1743617271671079,0.6896500770471669,1.0,0.6713724571882285,0.4467026333489084,3.927372770720601,3.8687032883869543,-12.640628884518117,-12.65180473805701,0.0,0.0
16.94766068458557,0.9763587713241577,2.508354902267456,-11.249887466430664,-0.13732445338903476,0.003468036651611328,0.13799548149108887,3.9002637385595,-12.601422227906689,-0.19436172716710792,0.689792855246707,1.0,0.5608132986186154,0.4246512726468004,3.939663045968478,3.858082803915468,-12.623498418721686,-12.641715129261792,0.0,0.0
16.95772433280945,0.9857678413391113,2.488790273666382,-11.234541893005371,-0.13409093242559267,0.0037326812744140625,0.13799548149108887,3.9007640657040414,-12.58385361132415,-0.21436172716710794,0.6893738635106925,1.0,0.4916625401990115,0.3676740868178673,3.954811350455539,3.844436772020071,-12.603252439459148,-12.63209503550089,0.0,0.0
16.967631578445435,0.9949911236763,2.469137191772461,-11.219094276428223,-0.13090202363639217,0.003274679183959961,0.13799548149108887,3.901097139864261,-12.564966074225177,-0.23436172716710796,0.6889501061953289,1.0,0.43515447773959665,0.32132608370294236,3.973637285974649,3.826890191144349,-12.579110115630051,-12.623734340183324,0.0,0.0
16.97784686088562,0.9949911236763,2.469137191772461,-11.219094276428223,-0.13090202363639217,0.0033402442932128906,0.13799548149108887,3.9012352274972737,-12.544754614136256,-0.254361727167108,0.688186924520146,1.0,0.41390319462925634,0.2827404662489701,3.997382073777794,3.8041460576302875,-12.54991207168659,-12.617795150961706,0.0,0.0
16.987531661987305,1.0215094089508057,2.4095916748046875,-11.172195434570312,-0.12130970092863541,0.003256082534790039,0.13799548149108887,3.901150945797597,-12.52321104027269,-0.274361727167108,0.688816919009461,1.0,0.3170581796914799,0.26376012128063964,4.0279412324245145,3.7742530473040072,-12.513913747995408,-12.61601840045494,0.0,0.0
16.997833251953125,1.0215094089508057,2.4095916748046875,-11.172195434570312,-0.12130970092863541,0.003597259521484375,0.13799548149108887,3.9008174442334,-12.500323984233384,-0.294361727167108,0.6880500350649847,1.0,0.2816332204066751,0.22910070925217454,4.068223458353613,3.7342469966409326,-12.468462137744519,-12.62104709052799,0.0,0.0
17.007445812225342,1.0385637283325195,2.369539737701416,-11.140458106994629,-0.11449463929601104,0.0050127506256103516,0.13799548149108887,3.9002085856114186,-12.476078920681433,-0.31436172716710803,0.6886377306773012,1.0,0.21362714784222311,0.2076252355265702,4.122687422555789,3.6796144690394055,-12.409497462627899,-12.636924617917478,0.0,0.0
17.1505765914917,1.0385637283325195,2.369539737701416,-11.140458106994629,-0.11449463929601104,0.003239870071411133,0.13107013702392578,3.89929912614512,-12.45045819792597,-0.33436172716710805,0.7004076707001319,1.0,0.19212659656721084,0.1830769223176042,4.198086420606054,3.6035484678607452,-12.330829972763839,-12.669817995702925,0.0,0.0
17.160932302474976,1.153847098350525,1.9910976886749268,-10.836599349975586,-0.042444902369796034,0.002611398696899414,0.13107013702392578,3.8980648940114366,-12.42344107829125,-0.35436172716710806,0.7152211669005933,1.0,-0.22030675781479767,0.29149180550135023,4.30434106788688,3.496076103335957,-12.2225344379499,-12.729623403412962,0.0,0.0
17.16813015937805,1.153847098350525,1.9910976886749268,-10.836599349975586,-0.042444902369796034,0.002640247344970703,0.13107013702392578,3.896482965893847,-12.39500378813072,-0.3743617271671081,0.7145689287208417,1.0,-0.3639581446559538,0.22814395036461113,4.4551065044620115,3.3434917478282293,-12.067348506244386,-12.833567889607552,0.0,0.0
17.177127361297607,1.1573351621627808,1.9685708284378052,-10.81911849975586,-0.03877271745911536,0.0028533935546875,0.13107013702392578,3.899260687639179,-12.625305273984917,-0.1643617271671079,0.7148339425941561,1.0,-0.4380617098384824,0.17225100048564365,3.9173957918983056,3.876897619337088,-12.655177515760329,-12.6618148693915,0.0,0.0
17.18735384941101,1.1665908098220825,1.9008643627166748,-10.765965461730957,-0.027880053561282217,0.002381563186645508,0.13107013702392578,3.899959573085615,-12.609712632105866,-0.1843617271671079,0.7168585303716327,1.0,-0.5281499884429457,0.14973663940828785,3.927372770720601,3.8687032883869543,-12.640628884518117,-12.65180473805701,0.0,0.0
17.19777512550354,1.1692615747451782,1.8782665729522705,-10.748031616210938,-0.024226135480266447,0.0029506683349609375,0.13107013702392578,3.9005330666726596,-12.592802596655469,-0.20436172716710793,0.7169593040622614,1.0,-0.580128948519705,0.12459778276588385,3.939663045968478,3.858082803915468,-12.623498418721686,-12.641715129261792,0.0,0.0
17.20742630958557,1.1717170476913452,1.8556597232818604,-10.730003356933594,-0.02052744257702519,0.0031118392944335938,0.13107013702392578,3.900953248845768,-12.574574945710982,-0.22436172716710795,0.7170274253375422,1.0,-0.615807869510287,0.1054095197090425,3.954811350455539,3.844436772020071,-12.603252439459148,-12.63209503550089,0.0,0.0
17.217837810516357,1.1739555597305298,1.8330479860305786,-10.711885452270508,-0.016798387076534894,0.0026149749755859375,0.13107013702392578,3.901192278770802,-12.555026271828867,-0.24436172716710797,0.7170892700096965,1.0,-0.6427558536187334,0.0912363458875056,3.973637285974649,3.826890191144349,-12.579110115630051,-12.623734340183324,0.0,0.0
17.228002071380615,1.1759763956069946,1.81043541431427,-10.693681716918945,-0.013061316051077007,0.0026810169219970703,0.13107013702392578,3.901222575572874,-12.534149977669754,-0.264361727167108,0.7171472870742122,1.0,-0.663727710901909,0.07990567109174226,3.997382073777794,3.8041460576302875,-12.54991207168659,-12.617795150961706,0.0,0.0
17.23763680458069,1.1777799129486084,1.7878262996673584,-10.675416946411133,-0.009349498852241036,0.002603292465209961,0.13107013702392578,3.901016999908325,-12.51193628167816,-0.284361727167108,0.7171994853218557,1.0,-0.6800051565208898,0.06992561330886254,4.0279412324245145,3.7742530473040072,-12.513913747995408,-12.61601840045494,0.0,0.0
17.361305713653564,1.1777799129486084,1.7878262996673584,-10.675416946411133,-0.009349498852241036,0.002742290496826172,0.11413407325744629,3.9005490353315926,-12.48837223377885,-0.304361727167108,0.7122253204256566,1.0,-0.6834129047721514,0.0602712765104802,4.068223458353613,3.7342469966409326,-12.468462137744519,-12.62104709052799,0.0,0.0
17.370919466018677,1.1685903072357178,1.4001575708389282,-10.356790542602539,0.03359781042436485,0.0022096633911132812,0.11413407325744629,3.899792968926799,-12.463441741020496,-0.32436172716710804,0.7237757112345888,1.0,-0.6596096461377972,-0.049467342725929675,4.122687422555789,3.6796144690394055,-12.409497462627899,-12.636924617917478,0.0,0.0
17.377899885177612,1.1685903072357178,1.4001575708389282,-10.356790542602539,0.03359781042436485,0.0026128292083740234,0.11413407325744629,3.898724070683789,-12.437125603067189,-0.34436172716710806,0.7231581358854656,1.0,-0.6621427876012222,-0.05630231765465227,4.198086420606054,3.6035484678607452,-12.330829972763839,-12.669817995702925,0.0,0.0
17.387133836746216,1.159941554069519,1.332602620124817,-10.29932689666748,0.0373695336696159,0.002195119857788086,0.11413407325744629,3.8973187711099846,-12.409401557409506,-0.3643617271671081,0.7249017123469911,0.9486972228803756,-0.6436210875351973,-0.08931844206425077,4.30434106788688,3.496076103335957,-12.2225344379499,-12.729623403412962,0.0,0.0
17.398593187332153,1.1559598445892334,1.3096846342086792,-10.28039836883545,0.03814058710714152,0.0027816295623779297,0.11413407325744629,3.895554836582597,-12.380244334139322,-0.3843617271671081,0.7250528397240142,0.8982592701150134,-0.636064080757121,-0.09031778878772201,4.4551065044620115,3.3434917478282293,-12.067348506244386,-12.833567889607552,0.0,0.0
17.407336711883545,1.1518491506576538,1.286907434463501,-10.261399269104004,0.03878725378965205,0.002607583999633789,0.11413407325744629,3.899624061237806,-12.61767373748002,-0.1743617271671079,0.7251869016053755,0.8478938561318627,-0.6280519841155845,-0.09265113403734443,3.9173957918983056,3.876897619337088,-12.655177515760329,-12.6618148693915,0.0,0.0
17.417874336242676,1.1476120948791504,1.2642756700515747,-10.242334365844727,0.03930633684064801,0.0021445751190185547,0.11413407325744629,3.9002637385595,-12.601422227906689,-0.19436172716710792,0.7253218254178776,0.7975551917056964,-0.6197381339239575,-0.0952075483643593,3.927372770720601,3.8687032883869543,-12.640628884518117,-12.65180473805701,0.0,0.0
17.428130388259888,1.138771653175354,1.219467043876648,-10.204045295715332,0.039988300001923646,0.0025734901428222656,0.11413407325744629,3.9007640657040414,-12.58385361132415,-0.21436172716710794,0.7261982112761549,0.723154483017151,-0.6045498327612812,-0.10710531714121313,3.939663045968478,3.858082803915468,-12.623498418721686,-12.641715129261792,0.0,0.0
17.437435150146484,1.134175419807434,1.197299599647522,-10.184823989868164,0.04016206691272052,0.002002716064453125,0.11413407325744629,3.901097139864261,-12.564966074225177,-0.23436172716710796,0.7263533320111736,0.6716168485265792,-0.5947428190697017,-0.10652248728194263,3.954811350455539,3.844436772020071,-12.603252439459148,-12.63209503550089,0.0,0.0
17.447646141052246,1.1294670104980469,1.1752960681915283,-10.165544509887695,0.04022645078923803,0.0029485225677490234,0.11413407325744629,3.9012352274972737,-12.544754614136256,-0.254361727167108,0.7265261559157293,0.6212200884684954,-0.5850061474296748,-0.1074534975113399,3.973637285974649,3.826890191144349,-12.579110115630051,-12.623734340183324,0.0,0.0
17.45800280570984,1.1246603727340698,1.153457522392273,-10.14620590209961,0.040187238858860955,0.004205226898193359,0.11413407325744629,3.901150945797597,-12.52321104027269,-0.274361727167108,0.7267158685478493,0.5722224662841556,-0.5752375262713401,-0.10886327631767034,3.997382073777794,3.8041460576302875,-12.54991207168659,-12.617795150961706,0.0,0.0
17.584312438964844,1.1246603727340698,1.153457522392273,-10.14620590209961,0.040187238858860955,0.002297639846801758,0.11540746688842773,3.9008174442334,-12.500323984233384,-0.294361727167108,0.7205923461699048,0.2729647203968586,-0.5713464501609594,-0.10167038051127206,4.0279412324245145,3.7742530473040072,-12.513913747995408,-12.61601840045494,0.0,0.0
17.592484951019287,1.0259580612182617,0.8094789385795593,-9.818197250366211,0.026623996477221135,0.0029125213623046875,0.11540746688842773,3.9002085856114186,-12.476078920681433,-0.31436172716710803,0.7349917687294475,-0.32930331047509964,-0.43655065704603657,-0.23884156009705146,4.068223458353613,3.7342469966409326,-12.468462137744519,-12.62104709052799,0.0,0.0
17.59938621520996,1.0259580612182617,0.8094789385795593,-9.818197250366211,0.026623996477221135,0.002457141876220703,0.11540746688842773,3.89929912614512,-12.45045819792597,-0.33436172716710805,0.7344426552128618,-0.3660774218919747,-0.40969433733407784,-0.15699699846072457,4.122687422555789,3.6796144690394055,-12.409497462627899,-12.636924617917478,0.0,0.0
17.60687017440796,1.01944899559021,0.7910522818565369,-9.798693656921387,0.02523249663961688,0.0030732154846191406,0.11540746688842773,3.8980648940114366,-12.42344107829125,-0.35436172716710806,0.7348882692032432,-0.44380298371695914,-0.3854489667696048,-0.11569100918888796,4.198086420606054,3.6035484678607452,-12.330829972763839,-12.669817995702925,0.0,0.0
17.617525100708008,1.0063302516937256,0.7548736929893494,-9.759469985961914,0.0223112708764788,0.002283811569213867,0.11540746688842773,3.896482965893847,-12.39500378813072,-0.3743617271671081,0.7363673715279004,-0.5665938328567066,-0.35541278444149066,-0.09476926676906484,4.30434106788688,3.496076103335957,-12.2225344379499,-12.729623403412962,0.0,0.0
17.628268480300903,0.9930981993675232,0.7196174263954163,-9.720020294189453,0.019225164027084074,0.002483367919921875,0.11540746688842773,3.8945318410235075,-12.365119577317083,-0.3943617271671081,0.7377092415999792,-0.686607355676853,-0.3240405298936356,-0.07664151501194862,4.4551065044620115,3.3434917478282293,-12.067348506244386,-12.833567889607552,0.0,0.0
17.637338876724243,0.9858925938606262,0.7025288343429565,-9.701388359069824,0.017673414668772508,0.0021948814392089844,0.11540746688842773,3.899959573085615,-12.609712632105866,-0.1843617271671079,0.7380381142269624,-0.7605065463680853,-0.30222627159197424,-0.05617093571271615,3.9173957918983056,3.876897619337088,-12.655177515760329,-12.6618148693915,0.0,0.0
17.647709131240845,0.9786766767501831,0.6856788396835327,-9.682672500610352,0.016027234219271935,0.0024514198303222656,0.11540746688842773,3.9005330666726596,-12.592802596655469,-0.20436172716710793,0.7383749729086039,-0.828779244000751,-0.2844595702306453,-0.04002254304592355,3.927372770720601,3.8687032883869543,-12.640628884518117,-12.65180473805701,0.0,0.0
17.657409191131592,0.9714536666870117,0.6690676212310791,-9.6638765335083,0.014432662542027047,0.0030012130737304688,0.11540746688842773,3.900953248845768,-12.574574945710982,-0.22436172716710795,0.7387173795039704,-0.8909748465848844,-0.269094976898247,-0.02678965155896764,3.939663045968478,3.858082803915468,-12.623498418721686,-12.641715129261792,0.0,0.0
17.66793704032898,0.9570125341415405,0.6365706920623779,-9.626047134399414,0.011402726339060282,0.0023152828216552734,0.11540746688842773,3.901192278770802,-12.555026271828867,-0.24436172716710797,0.739964167547809,-0.9623385541036351,-0.24877237532352323,-0.014823141462830897,3.954811350455539,3.844436772020071,-12.603252439459148,-12.63209503550089,0.0,0.0
17.678061485290527,0.9497917294502258,0.62067711353302,-9.60704231262207,0.00996183053363267,0.0026717185974121094,0.11540746688842773,3.901222575572874,-12.534149977669754,-0.264361727167108,0.7403025651175302,-1.0,-0.23456825158587238,-0.0036402220350101673,3.973637285974649,3.826890191144349,-12.579110115630051,-12.623734340183324,0.0,0.0
17.68743872642517,0.942574143409729,0.6050174832344055,-9.587964057922363,0.008574842242361908,0.002080678939819336,0.11540746688842773,3.901016999908325,-12.51193628167816,-0.284361727167108,0.7406364508590166,-1.0,-0.223154447121835,0.004729471299844793,3.997382073777794,3.8041460576302875,-12.54991207168659,-12.617795150961706,0.0,0.0
17.812166690826416,0.942574143409729,0.6050174832344055,-9.587964057922363,0.008574842242361908,0.0043108463287353516,0.11347389221191406,3.9005490353315926,-12.48837223377885,-0.304361727167108,0.7293909796540055,-1.0,-0.2187772406233157,0.007843640805361221,4.0279412324245145,3.7742530473040072,-12.513913747995408,-12.61601840045494,0.0,0.0
17.82251214981079,0.8289096355438232,0.3950992822647095,-9.280661582946777,-0.0078551394689787,0.0022389888763427734,0.11347389221191406,3.899792968926799,-12.463441741020496,-0.32436172716710804,0.7419868278512662,-0.6181249441208028,-0.14244864675418564,0.06905809211883712,4.068223458353613,3.7342469966409326,-12.468462137744519,-12.62104709052799,0.0,0.0
17.830017805099487,0.8289096355438232,0.3950992822647095,-9.280661582946777,-0.0078551394689787,0.0025560855865478516,0.11347389221191406,3.898724070683789,-12.437125603067189,-0.34436172716710806,0.741390481719659,-0.6803452100973367,-0.13007293854502758,0.052232240167285636,4.122687422555789,3.6796144690394055,-12.409497462627899,-12.636924617917478,0.0,0.0
17.838568687438965,0.8151130080223083,0.3737245500087738,-9.242239952087402,-0.009477601506139327,0.0019495487213134766,0.11347389221191406,3.8973187711099846,-12.409401557409506,-0.3643617271671081,0.7422295091739713,-0.6447222241792974,-0.11921100746073565,0.048905816624050795,4.198086420606054,3.6035484678607452,-12.330829972763839,-12.669817995702925,0.0,0.0
17.847747325897217,0.8014386892318726,0.3528139889240265,-9.203649520874023,-0.01095850559868819,0.002912759780883789,0.11347389221191406,3.895554836582597,-12.380244334139322,-0.3843617271671081,0.7430669070316901,-0.6013128410909073,-0.1086501117687675,0.048716653778378124,4.30434106788688,3.496076103335957,-12.2225344379499,-12.729623403412962,0.0,0.0
17.857197046279907,0.7946508526802063,0.34251871705055237,-9.184285163879395,-0.011632564307399909,0.0023598670959472656,0.11347389221191406,3.893411541960418,-12.349625720106483,-0.4043617271671081,0.7431298528783853,-0.6123795762856933,-0.10213307335687816,0.04735452504752339,4.4551065044620115,3.3434917478282293,-12.067348506244386,-12.833567889607552,0.0,0.0
17.868028163909912,0.7878972887992859,0.33232349157333374,-9.16488265991211,-0.01225549276741622,0.002641916275024414,0.11347389221191406,3.9002637385595,-12.601422227906689,-0.19436172716710792,0.743155837925221,-0.6078836786578841,-0.0966843456663349,0.04740843261062387,3.9173957918983056,3.876897619337088,-12.655177515760329,-12.6618148693915,0.0,0.0
17.877534866333008,0.7811786532402039,0.32222363352775574,-9.145444869995117,-0.012818321365949015,0.0024635791778564453,0.11347389221191406,3.9007640657040414,-12.58385361132415,-0.21436172716710794,0.7431584421009572,-0.582248714401063,-0.09189600520244512,0.047776564196970774,3.927372770720601,3.8687032883869543,-12.640628884518117,-12.65180473805701,0.0,0.0
17.887401819229126,0.7678524255752563,0.30228960514068604,-9.106528282165527,-0.013783793049543164,0.002105712890625,0.11347389221191406,3.901097139864261,-12.564966074225177,-0.23436172716710796,0.7437505609816562,-0.5013258645774086,-0.08543690041352106,0.049374623177049604,3.939663045968478,3.858082803915468,-12.623498418721686,-12.641715129261792,0.0,0.0
17.89794683456421,0.7611904144287109,0.29357588291168213,-9.087443351745605,-0.014191222996725553,0.0027451515197753906,0.11347389221191406,3.9012352274972737,-12.544754614136256,-0.254361727167108,0.7437238113978094,-0.48378500565109617,-0.08201447829151319,0.048322192479644484,3.954811350455539,3.844436772020071,-12.603252439459148,-12.63209503550089,0.0,0.0
17.907233238220215,0.7479878664016724,0.2763209342956543,-9.049162864685059,-0.015196875303765213,0.0026404857635498047,0.11347389221191406,3.901150945797597,-12.52321104027269,-0.274361727167108,0.7442770424419671,-0.4171932772689363,-0.07760344108803964,0.049127319465678276,3.973637285974649,3.826890191144349,-12.579110115630051,-12.623734340183324,0.0,0.0
17.917850017547607,0.7414486408233643,0.2677725851535797,-9.029970169067383,-0.01564821179377506,0.002313375473022461,0.11347389221191406,3.9008174442334,-12.500323984233384,-0.294361727167108,0.7442185072381338,-0.39933802752289976,-0.07509337369322729,0.0484977171279848,3.997382073777794,3.8041460576302875,-12.54991207168659,-12.617795150961706,0.0,0.0
18.033751726150513,0.7414486408233643,0.2677725851535797,-9.029970169067383,-0.01564821179377506,0.0022759437561035156,0.10815787315368652,3.9002085856114186,-12.476078920681433,-0.31436172716710803,0.7351427365431478,-0.5462883102724092,-0.07423142479357506,0.04738041489227574,4.0279412324245145,3.7742530473040072,-12.513913747995408,-12.61601840045494,0.0,0.0
18.04124093055725,0.6553006172180176,0.1535293161869049,-8.761078834533691,-0.0192873971953782,0.0029578208923339844,0.10815787315368652,3.89929912614512,-12.45045819792597,-0.33436172716710805,0.7420735711670072,0.0919331993052932,-0.060415585039285014,0.06082926547822246,4.068223458353613,3.7342469966409326,-12.468462137744519,-12.62104709052799,0.0,0.0
18.048502445220947,0.6553006172180176,0.1535293161869049,-8.761078834533691,-0.0192873971953782,0.002662181854248047,0.10815787315368652,3.8980648940114366,-12.42344107829125,-0.35436172716710806,0.7414054036749532,0.061763605670060784,-0.05911835320767859,0.05410725082718358,4.122687422555789,3.6796144690394055,-12.409497462627899,-12.636924617917478,0.0,0.0
18.05692481994629,0.6384813189506531,0.13097189366817474,-8.70451545715332,-0.019836850623437884,0.0021011829376220703,0.10815787315368652,3.896482965893847,-12.39500378813072,-0.3743617271671081,0.7422313446773253,0.17612160882662453,-0.05557209480466934,0.052357679974888244,4.198086420606054,3.6035484678607452,-12.330829972763839,-12.669817995702925,0.0,0.0
18.067978620529175,0.6384813189506531,0.13097189366817474,-8.70451545715332,-0.019836850623437884,0.002412557601928711,0.10815787315368652,3.8945318410235075,-12.365119577317083,-0.3943617271671081,0.7415634799946887,0.1462016364222335,-0.05448807445083046,0.04942518105529564,4.30434106788688,3.496076103335957,-12.2225344379499,-12.729623403412962,0.0,0.0
18.07830238342285,0.6220410466194153,0.10837406665086746,-8.647729873657227,-0.020223247758907388,0.004118680953979492,0.10815787315368652,3.892191612245478,-12.333758788013913,-0.4143617271671081,0.7423518694401426,0.2653762605719445,-0.05109771085592883,0.04936102387534318,4.4551065044620115,3.3434917478282293,-12.067348506244386,-12.833567889607552,0.0,0.0
18.087451696395874,0.6220410466194153,0.10837406665086746,-8.647729873657227,-0.020223247758907388,0.0021355152130126953,0.10815787315368652,3.9005330666726596,-12.592802596655469,-0.20436172716710793,0.7416846777029091,0.2357126447425636,-0.05019723679684278,0.04736738214237979,3.9173957918983056,3.876897619337088,-12.655177515760329,-12.6618148693915,0.0,0.0
18.097594261169434,0.6112769842147827,0.09327556937932968,-8.609797477722168,-0.02036241687740946,0.0028684139251708984,0.10815787315368652,3.900953248845768,-12.574574945710982,-0.22436172716710795,0.7419553708630406,0.2955030733084745,-0.04815456857137309,0.0470977659151743,3.927372770720601,3.8687032883869543,-12.640628884518117,-12.65180473805701,0.0,0.0
18.107292413711548,0.6112769842147827,0.09327556937932968,-8.609797477722168,-0.02036241687740946,0.0027747154235839844,0.10815787315368652,3.901192278770802,-12.555026271828867,-0.24436172716710797,0.7412887063963204,0.26610083404992463,-0.04760083931946759,0.04603098679600111,3.939663045968478,3.858082803915468,-12.623498418721686,-12.641715129261792,0.0,0.0
18.11756134033203,0.5954511165618896,0.07052329927682877,-8.552738189697266,-0.020403314949940972,0.0023398399353027344,0.10815787315368652,3.901222575572874,-12.534149977669754,-0.264361727167108,0.7420895499942978,0.3485039188961826,-0.04520097646709052,0.04603198586923436,3.954811350455539,3.844436772020071,-12.603252439459148,-12.63209503550089,0.0,0.0
18.127814769744873,0.5954511165618896,0.07052329927682877,-8.552738189697266,-0.020403314949940972,0.002567291259765625,0.10815787315368652,3.901016999908325,-12.51193628167816,-0.284361727167108,0.7414241232179294,0.31936679191089656,-0.04458316546474084,0.0448207802978239,3.973637285974649,3.826890191144349,-12.579110115630051,-12.623734340183324,0.0,0.0
18.137329578399658,0.5851143598556519,0.05528020113706589,-8.514656066894531,-0.02033199184777753,0.0020694732666015625,0.10815787315368652,3.9005490353315926,-12.48837223377885,-0.304361727167108,0.7417557457675096,0.3508146219999802,-0.043046793642492046,0.044392323567925995,3.997382073777794,3.8041460576302875,-12.54991207168659,-12.617795150961706,0.0,0.0
18.147815465927124,0.5851143598556519,0.05528020113706589,-8.514656066894531,-0.02033199184777753,0.0025887489318847656,0.10815787315368652,3.899792968926799,-12.463441741020496,-0.32436172716710804,0.7410913219459803,0.3219454039445108,-0.04263120202637249,0.043711917163253955,4.0279412324245145,3.7742530473040072,-12.513913747995408,-12.61601840045494,0.0,0.0
18.265416622161865,0.5851143598556519,0.05528020113706589,-8.514656066894531,-0.02033199184777753,0.0030012130737304688,0.10948944091796875,3.898724070683789,-12.437125603067189,-0.34436172716710806,0.7379723885434084,0.17519250501434686,-0.0423908461650303,0.04368127072322646,4.068223458353613,3.7342469966409326,-12.468462137744519,-12.62104709052799,0.0,0.0
18.27415442466736,0.5192810893058777,-0.049370866268873215,-8.234804153442383,-0.019029903284754953,0.002125263214111328,0.10948944091796875,3.8973187711099846,-12.409401557409506,-0.3643617271671081,0.74520309265191,0.3151752721176728,-0.02844610802483478,0.04082140452551287,4.122687422555789,3.6796144690394055,-12.409497462627899,-12.636924617917478,0.0,0.0
18.281447649002075,0.5192810893058777,-0.049370866268873215,-8.234804153442383,-0.019029903284754953,0.0030777454376220703,0.10948944091796875,3.895554836582597,-12.380244334139322,-0.3843617271671081,0.7445605795282455,0.28781871629812317,-0.02545866905754017,0.03680405310104195,4.198086420606054,3.6035484678607452,-12.330829972763839,-12.669817995702925,0.0,0.0
18.289228200912476,0.5078247785568237,-0.07033820450305939,-8.181158065795898,-0.018591261760731084,0.0019183158874511719,0.10948944091796875,3.893411541960418,-12.349625720106483,-0.4043617271671081,0.7454712379332196,0.2635393866715539,-0.021048584996548596,0.03350140548974814,4.30434106788688,3.496076103335957,-12.2225344379499,-12.729623403412962,0.0,0.0
18.2974853515625,0.5005938410758972,-0.08422333747148514,-8.146135330200195,-0.018329219386115606,0.0025022029876708984,0.10948944091796875,3.8908698399903643,-12.3175146322508,-0.4243617271671081,0.7458460368145725,0.2340075831315219,-0.017218471916318118,0.031058990867388087,4.4551065044620115,3.3434917478282293,-12.067348506244386,-12.833567889607552,0.0,0.0
18.307365655899048,0.5005938410758972,-0.08422333747148514,-8.146135330200195,-0.018329219386115606,0.0023245811462402344,0.10948944091796875,3.9007640657040414,-12.58385361132415,-0.21436172716710794,0.7452070673988486,0.20702705951239825,-0.016322570466093957,0.03008053334532912,3.9173957918983056,3.876897619337088,-12.655177515760329,-12.6618148693915,0.0,0.0
18.318003177642822,0.49348345398902893,-0.09808799624443054,-8.110912322998047,-0.018046367073837204,0.0023288726806640625,0.10948944091796875,3.901097139864261,-12.564966074225177,-0.23436172716710796,0.745561789735861,0.1760856369568677,-0.013494019783445126,0.028829425558126235,3.927372770720601,3.8687032883869543,-12.640628884518117,-12.65180473805701,0.0,0.0
18.32871150970459,0.4899732768535614,-0.10500756651163101,-8.093232154846191,-0.017898049709105853,0.005494117736816406,0.10948944091796875,3.9012352274972737,-12.544754614136256,-0.254361727167108,0.7454142427110606,0.14688515741884478,-0.011736437593932286,0.02794153335404283,3.939663045968478,3.858082803915468,-12.623498418721686,-12.641715129261792,0.0,0.0
18.34106159210205,0.4899732768535614,-0.10500756651163101,-8.093232154846191,-0.017898049709105853,0.0038788318634033203,0.10948944091796875,3.901150945797597,-12.52321104027269,-0.274361727167108,0.7447776968499937,0.1202894554611112,-0.011337706268504168,0.027559864296370605,3.954811350455539,3.844436772020071,-12.603252439459148,-12.63209503550089,0.0,0.0
18.354451894760132,0.4830440282821655,-0.11881084740161896,-8.057802200317383,-0.017587844825569673,0.002907991409301758,0.10948944091796875,3.9008174442334,-12.500323984233384,-0.294361727167108,0.7451201442435276,0.0888412263721012,-0.00926123575893033,0.02679317502812767,3.973637285974649,3.826890191144349,-12.579110115630051,-12.623734340183324,0.0,0.0
18.36193871498108,0.4830440282821655,-0.11881084740161896,-8.057802200317383,-0.017587844825569673,0.002655029296875,0.10948944091796875,3.9002085856114186,-12.476078920681433,-0.31436172716710803,0.7444850934250588,0.06250677708320068,-0.008820719413496493,0.02638894765708078,3.997382073777794,3.8041460576302875,-12.54991207168659,-12.617795150961706,0.0,0.0
18.369985818862915,0.47623729705810547,-0.1325538456439972,-8.022217750549316,-0.01726496402776807,0.002292633056640625,0.10948944091796875,3.89929912614512,-12.45045819792597,-0.33436172716710805,0.7448459130435254,0.031873048085447525,-0.007109815686244282,0.025698251677579945,4.0279412324245145,3.7742530473040072,-12.513913747995408,-12.61601840045494,0.0,0.0
18.486103534698486,0.47623729705810547,-0.1325538456439972,-8.022217750549316,-0.01726496402776807,0.002146482467651367,0.10855388641357422,3.8980648940114366,-12.42344107829125,-0.35436172716710806,0.7409373727113931,-0.06237553900932685,-0.006665927530202141,0.025254189337231735,4.068223458353613,3.7342469966409326,-12.468462137744519,-12.62104709052799,0.0,0.0
18.493960857391357,0.4317384958267212,-0.2387923151254654,-7.744040012359619,-0.014649047297413786,0.0022568702697753906,0.10855388641357422,3.896482965893847,-12.39500378813072,-0.3743617271671081,0.7482503381779786,-0.04953586336613419,0.0069495440773851115,0.021932315906061612,4.122687422555789,3.6796144690394055,-12.409497462627899,-12.636924617917478,0.0,0.0
18.50028419494629,0.4317384958267212,-0.2387923151254654,-7.744040012359619,-0.014649047297413786,0.002595663070678711,0.10855388641357422,3.8945318410235075,-12.365119577317083,-0.3943617271671081,0.747623832309845,-0.07402734067688058,0.009123874469622567,0.018848686364707774,4.198086420606054,3.6035484678607452,-12.330829972763839,-12.669817995702925,0.0,0.0
18.50732183456421,0.4268565773963928,-0.25150609016418457,-7.709089756011963,-0.014300560070865075,0.0019631385803222656,0.10855388641357422,3.892191612245478,-12.333758788013913,-0.4143617271671081,0.7480259509576156,-0.0861641810275898,0.01132034316087579,0.01661585294706887,4.30434106788688,3.496076103335957,-12.2225344379499,-12.729623403412962,0.0,0.0
18.518036365509033,0.422087162733078,-0.2640800476074219,-7.6740007400512695,-0.013946406163715043,0.0022597312927246094,0.10855388641357422,3.8894441336536567,-12.300888932510633,-0.43436172716710814,0.7484494433813906,-0.09787629335226608,0.013484764978392978,0.014832221320850878,4.4551065044620115,3.3434917478282293,-12.067348506244386,-12.833567889607552,0.0,0.0
18.5280601978302,0.4195718765258789,-0.2705906927585602,-7.656871795654297,-0.013767697514686886,0.0023581981658935547,0.10855388641357422,3.900953248845768,-12.574574945710982,-0.22436172716710795,0.7483210709927871,-0.11462636720154107,0.014672913248296846,0.013445596178024091,3.9173957918983056,3.876897619337088,-12.655177515760329,-12.6618148693915,0.0,0.0
18.537304878234863,0.41708818078041077,-0.2770578861236572,-7.6397247314453125,-0.013613828135622813,0.002247333526611328,0.10855388641357422,3.901192278770802,-12.555026271828867,-0.24436172716710797,0.7481806303986974,-0.1306245711532436,0.015638680118333994,0.012354535448058772,3.927372770720601,3.8687032883869543,-12.640628884518117,-12.65180473805701,0.0,0.0
18.547691106796265,0.41463613510131836,-0.2834814190864563,-7.6225385665893555,-0.01346048663294825,0.0027742385864257812,0.10855388641357422,3.901222575572874,-12.534149977669754,-0.264361727167108,0.74803488011685,-0.14565960960289218,0.016457415917873936,0.011438166287921544,3.939663045968478,3.858082803915468,-12.623498418721686,-12.641715129261792,0.0,0.0
18.55723214149475,0.4098271131515503,-0.2961972653865814,-7.588057994842529,-0.013153286661248445,0.0022237300872802734,0.10855388641357422,3.901016999908325,-12.51193628167816,-0.284361727167108,0.7483625690939097,-0.1491565902100708,0.01756367502492899,0.010503225394551584,3.954811350455539,3.844436772020071,-12.603252439459148,-12.63209503550089,0.0,0.0
18.567768812179565,0.40747010707855225,-0.30248960852622986,-7.570766925811768,-0.013000567726123874,0.002203702926635742,0.10855388641357422,3.9005490353315926,-12.48837223377885,-0.304361727167108,0.7482162797938678,-0.16136626026452236,0.018112208496766806,0.009702656242982778,3.973637285974649,3.826890191144349,-12.579110115630051,-12.623734340183324,0.0,0.0
18.578299522399902,0.405144602060318,-0.30873847007751465,-7.553443908691406,-0.012847076361931178,0.0027303695678710938,0.10855388641357422,3.899792968926799,-12.463441741020496,-0.32436172716710804,0.7480709713700652,-0.1725817408392992,0.018494484862291508,0.008997466992369238,3.997382073777794,3.8041460576302875,-12.54991207168659,-12.617795150961706,0.0,0.0
18.587496042251587,0.40284091234207153,-0.31494808197021484,-7.53609037399292,-0.012694294841017903,0.0020673274993896484,0.10855388641357422,3.898724070683789,-12.437125603067189,-0.34436172716710806,0.7479275712025173,-0.18280459518090522,0.018773914660619798,0.008369882538031352,4.0279412324245145,3.7742530473040072,-12.513913747995408,-12.61601840045494,0.0,0.0
18.597450971603394,0.39832764863967896,-0.3272382915019989,-7.501357555389404,-0.0123887997353773,0.0024917125701904297,0.10855388641357422,3.8973187711099846,-12.409401557409506,-0.3643617271671081,0.7482580840225574,-0.17703290216475953,0.019090533608981084,0.0076691201640866425,4.068223458353613,3.7342469966409326,-12.468462137744519,-12.62104709052799,0.0,0.0
18.713263988494873,0.39832764863967896,-0.3272382915019989,-7.501357555389404,-0.0123887997353773,0.002544879913330078,0.10761785507202148,3.895554836582597,-12.380244334139322,-0.3843617271671081,0.7437696176379418,-0.2561807308277969,0.01929557064605656,0.00729262180874175,4.122687422555789,3.6796144690394055,-12.409497462627899,-12.636924617917478,0.0,0.0
18.72196125984192,0.36486345529556274,-0.4050705134868622,-7.265185356140137,-0.010819984425145628,0.0020432472229003906,0.10761785507202148,3.893411541960418,-12.349625720106483,-0.4043617271671081,0.749397736392176,-0.01739540095199532,0.016130542910727293,0.004442052756932989,4.198086420606054,3.6035484678607452,-12.330829972763839,-12.669817995702925,0.0,0.0
18.72834038734436,0.36486345529556274,-0.4050705134868622,-7.265185356140137,-0.010819984425145628,0.002172231674194336,0.10761785507202148,3.8908698399903643,-12.3175146322508,-0.4243617271671081,0.7487813618636416,-0.03890929932545298,0.01607390665863513,0.005669494159936207,4.30434106788688,3.496076103335957,-12.2225344379499,-12.729623403412962,0.0,0.0
18.736628770828247,0.3625636398792267,-0.4102514684200287,-7.248463153839111,-0.010740145143731897,0.002134084701538086,0.10761785507202148,3.887912527061125,-12.28387719987983,-0.44436172716710814,0.7485957468297418,-0.038302286465425106,0.015627937161230315,0.006094587570125716,4.4551065044620115,3.3434917478282293,-12.067348506244386,-12.833567889607552,0.0,0.0
18.74750590324402,0.3559170067310333,-0.4256490170955658,-7.198165416717529,-0.01050622515948375,0.0024530887603759766,0.10761785507202148,3.901097139864261,-12.564966074225177,-0.23436172716710796,0.7492875777999547,0.009579120872339753,0.01451340216050564,0.0061319044180775575,3.9173957918983056,3.876897619337088,-12.655177515760329,-12.6618148693915,0.0,0.0
18.757360219955444,0.35169199109077454,-0.43580102920532227,-7.164507865905762,-0.010355428557206517,0.00212860107421875,0.10761785507202148,3.9012352274972737,-12.544754614136256,-0.254361727167108,0.7495149674636128,0.035835826893411055,0.013789217188298666,0.006471600830418684,3.927372770720601,3.8687032883869543,-12.640628884518117,-12.65180473805701,0.0,0.0
18.76802134513855,0.3496401309967041,-0.4408455491065979,-7.147642612457275,-0.010279521053549134,0.0024459362030029297,0.10761785507202148,3.901150945797597,-12.52321104027269,-0.274361727167108,0.7493223746854797,0.037819696380748974,0.01343502698998239,0.006826082490144599,3.939663045968478,3.858082803915468,-12.623498418721686,-12.641715129261792,0.0,0.0
18.777719974517822,0.34812819957733154,-0.4456070065498352,-7.132523536682129,-0.01020498494514506,0.002805948257446289,0.10761785507202148,3.9008174442334,-12.500323984233384,-0.294361727167108,0.7490434874352531,0.03666427264021638,0.0135066399523199,0.006967112301730419,3.954811350455539,3.844436772020071,-12.603252439459148,-12.63209503550089,0.0,0.0
18.787580490112305,0.34664371609687805,-0.4503532946109772,-7.117337703704834,-0.010137030613618803,0.0022525787353515625,0.10761785507202148,3.9002085856114186,-12.476078920681433,-0.31436172716710803,0.7487688788355262,0.034937841542062226,0.013670798909832554,0.0069311565497128455,3.973637285974649,3.826890191144349,-12.579110115630051,-12.623734340183324,0.0,0.0
18.79755401611328,0.34372639656066895,-0.45981529355049133,-7.086817264556885,-0.010010346274570887,0.0025572776794433594,0.10761785507202148,3.89929912614512,-12.45045819792597,-0.33436172716710805,0.7488370018236484,0.05039371586592231,0.014056272649122592,0.006710943489268076,3.997382073777794,3.8041460576302875,-12.54991207168659,-12.617795150961706,0.0,0.0
18.807371139526367,0.34230902791023254,-0.4645245671272278,-7.07146692276001,-0.00995081581404439,0.0021636486053466797,0.10761785507202148,3.8980648940114366,-12.42344107829125,-0.35436172716710806,0.7485725803868475,0.04664195955360442,0.014350309733067867,0.006541939791942678,4.0279412324245145,3.7742530473040072,-12.513913747995408,-12.61601840045494,0.0,0.0
18.81795883178711,0.34091922640800476,-0.4692195653915405,-7.05605936050415,-0.009888860584948766,0.0026831626892089844,0.10761785507202148,3.896482965893847,-12.39500378813072,-0.3743617271671081,0.7483118184871977,0.042305711277094815,0.014645883416824984,0.006310549768301881,4.068223458353613,3.7342469966409326,-12.468462137744519,-12.62104709052799,0.0,0.0
18.940739631652832,0.34091922640800476,-0.4692195653915405,-7.05605936050415,-0.009888860584948766,0.0019719600677490234,0.11517071723937988,3.8945318410235075,-12.365119577317083,-0.3943617271671081,0.7454740796037719,-0.0553498545824071,0.014846602234093361,0.006106480004943635,4.122687422555789,3.6796144690394055,-12.409497462627899,-12.636924617917478,0.0,0.0
18.95038890838623,0.3227795660495758,-0.5425463318824768,-6.812061309814453,-0.00883789188266454,0.0026640892028808594,0.11517071723937988,3.892191612245478,-12.333758788013913,-0.4143617271671081,0.750502083044149,0.12985706468103014,0.019211270498366975,0.004493844325058573,4.198086420606054,3.6035484678607452,-12.330829972763839,-12.669817995702925,0.0,0.0
18.956737756729126,0.3227795660495758,-0.5425463318824768,-6.812061309814453,-0.00883789188266454,0.002226591110229492,0.11517071723937988,3.8894441336536567,-12.300888932510633,-0.43436172716710814,0.7499099878030866,0.1106850029988839,0.01972834982562754,0.004005933195065227,4.30434106788688,3.496076103335957,-12.2225344379499,-12.729623403412962,0.0,0.0
