time,x,y,z,yaw,ctrl_comp_time,x_ref,y_ref,z_ref,yaw_ref,throttle,roll_rate,pitch_rate,yaw_rate,save_tube_pyH,save_tube_pyL,save_tube_pzH,save_tube_pzL
15.014483451843262,-0.02437826432287693,3.919431686401367,-11.640070915222168,-0.002903045548696248,0.1205592155456543,0.0,3.919512499135678,-11.638476585860923,-0.009560788317038984,0.5835871014675621,-1.0,0.017462498743487376,0.019204829612704193,-11.639970915222168,-11.640170915222168,0.008251297457516193,0.008051297457516194
15.551690816879272,-0.004362897481769323,3.9215400218963623,-11.632601737976074,0.0008656542798668454,0.19231104850769043,0.0,3.919512499135678,-11.638476585860923,-0.009560788317038984,0.583649975677137,-1.0,0.050972937751388475,0.07853421817111342,-11.606675676081931,-11.610587117412141,0.3252249686360167,-0.39625003945276843
15.694168090820312,-0.004362897481769323,3.9215400218963623,-11.632601737976074,0.0008656542798668454,0.0012388229370117188,0.0,3.921634441840265,-11.631053132806084,-0.01005151103152068,0.5835522303791932,-1.0,0.13454989114134192,0.2531006348919861,-11.517195574665024,-11.570982315060077,0.6604837712179393,-1.0139184975246174
15.699768304824829,-0.027041645720601082,3.9333176612854004,-11.632916450500488,0.004375744373056989,0.0011191368103027344,0.0,3.9217478421023952,-11.629152404304824,-0.02005151103152068,0.5984851687373837,-0.7637124728881881,0.3209660293417203,0.5265503174459931,-11.236010125685926,-11.658277782605586,1.3002382058287318,-2.1283428334580443
15.709733724594116,-0.027456630021333694,3.935211181640625,-11.62944507598877,0.0046570223470800975,0.0013158321380615234,0.0,3.921877406856822,-11.626902777569002,-0.030051511031520678,0.600803813323948,-0.7300894296146465,0.4646762205392042,0.6632751587229966,-9.629038356702313,-13.003959447422128,3.001077930971804,-4.491369961007453
15.719830989837646,-0.02765520289540291,3.9360921382904053,-11.627373695373535,0.004805680025593784,0.0020699501037597656,0.0,3.9220202295870763,-11.624307305369763,-0.04005151103152068,0.6013601470672121,-0.7466918396809116,0.565273354377443,0.7316375793614983,-11.639970915222168,-11.640170915222168,0.008251297457516193,0.008051297457516194
15.729601860046387,-0.02784710004925728,3.9369359016418457,-11.625078201293945,0.004979822249107535,0.001161813735961914,0.0,3.922173317907871,-11.621368865233439,-0.05005151103152068,0.6019155138980019,-0.7633689064828808,0.6356913480642101,0.7658187896807492,-11.606675676081931,-11.610587117412141,0.3252249686360167,-0.39625003945276843
15.73955488204956,-0.02803352288901806,3.9377286434173584,-11.622566223144531,0.005213902344735288,0.0012187957763671875,0.0,3.9223335984719445,-11.618090156660084,-0.060051511031520684,0.602395582922163,-0.7800424750583763,0.6849839436449471,0.7829093948403746,-11.517195574665024,-11.570982315060077,0.6604837712179393,-1.0139184975246174
15.749827146530151,-0.028214722871780396,3.938467025756836,-11.619901657104492,0.005508795666775423,0.0011546611785888672,0.0,3.922497921958068,-11.614473698482119,-0.07005151103152069,0.6027833063100537,-0.7971965884726848,0.719488760551463,0.7914546974201874,-11.236010125685926,-11.658277782605586,1.3002382058287318,-2.1283428334580443
15.759795188903809,-0.02856256254017353,3.9397623538970947,-11.613992691040039,0.006267009753000874,0.0013585090637207031,0.0,3.922663068136195,-11.610521826365273,-0.08005151103152068,0.6046364518992344,-0.7511610118591918,0.7436421323860242,0.7957273487100937,-9.629038356702313,-13.003959447422128,3.001077930971804,-4.491369961007453
15.769754886627197,-0.028730114921927452,3.940311908721924,-11.610759735107422,0.006704458011455028,0.0017566680908203125,0.0,3.9228257510056803,-11.606236690453901,-0.09005151103152068,0.6049031577133168,-0.7695493711656942,0.760549492670217,0.7978636743550468,-11.632501737976074,-11.632701737976074,0.009534017352759837,0.009334017352759839
15.779703140258789,-0.028894590213894844,3.9407918453216553,-11.607343673706055,0.007169346133190757,0.001241445541381836,0.0,3.9229826240024446,-11.601620253162551,-0.10005151103152067,0.6051743177091294,-0.7894907447042421,0.7723846448691519,0.7989318371775235,-11.599651062395164,-11.60358944392993,0.326013823340186,-0.39543449730246305
15.78964638710022,-0.029219336807727814,3.9415292739868164,-11.600025177001953,0.008157825115024941,0.0014019012451171875,0.0,3.923130285270917,-11.596674287115608,-0.11005151103152067,0.6070183966465217,-0.7435761178101865,0.7806692514084064,0.7994659185887617,-11.51058706463489,-11.564469211562619,0.6607057716173218,-1.0134880410245732
15.800097465515137,-0.02938251756131649,3.9417762756347656,-11.59611988067627,0.008682931087498513,0.0020694732666015625,0.0,3.9232652829965535,-11.591400373236606,-0.12005151103152066,0.6073316575564439,-0.7665822626852158,0.7864684759858844,0.7997329592943808,-11.23002965194858,-11.651992299832536,1.299600691097903,-2.1279861873325103
15.94095492362976,-0.02938251756131649,3.9417762756347656,-11.59611988067627,0.008682931087498513,0.0022482872009277344,0.0,3.9421259516588942,-11.589782629429108,-0.15875171760331797,0.6167529745660068,-1.0,0.7905279331901192,0.7998664796471905,-9.625918998808418,-12.995595366762785,2.9985064253673093,-4.489984709582719
15.949548959732056,-0.029177619144320488,3.9396731853485107,-11.49483585357666,0.023694949365117957,0.001085042953491211,0.0,3.9424394131129277,-11.583151808249118,-0.16875171760331797,0.6467082436899872,0.3091897228306304,0.46082756194049385,0.7999332398235952,-11.632501737976074,-11.632701737976074,0.009534017352759837,0.009334017352759839
15.95972228050232,-0.029266946017742157,3.9384286403656006,-11.488054275512695,0.02480835543859694,0.0012679100036621094,0.0,3.9427125129471574,-11.57622745858138,-0.17875171760331798,0.6473577426803679,0.28825881018195254,0.22055747335749742,0.7999666199117976,-11.599651062395164,-11.60358944392993,0.326013823340186,-0.39543449730246305
15.969705820083618,-0.029429752379655838,3.9370384216308594,-11.481060981750488,0.02595321783515958,0.0012042522430419922,0.0,3.942941102249922,-11.569009412595115,-0.188751717603318,0.6480263682377316,0.2656193904460804,0.10017859506674938,0.6553543448352276,-11.51058706463489,-11.564469211562619,0.6607057716173218,-1.0134880410245732
15.979713201522827,-0.029668688774108887,3.935500144958496,-11.473856925964355,0.02712870687042157,0.00125885009765625,0.0,3.9431210360438467,-11.561497292768806,-0.198751717603318,0.6486895440292448,0.24189235168707435,-0.038190440517860115,0.46095397738871374,-11.23002965194858,-11.651992299832536,1.299600691097903,-2.1279861873325103
15.989805936813354,-0.03039071150124073,3.9319610595703125,-11.458895683288574,0.029707309806705773,0.002246856689453125,0.0,3.9432481790972718,-11.553690511635008,-0.208751717603318,0.65080965162683,0.3129477834505776,-0.2251596457669208,0.17985218464340247,-9.625918998808418,-12.995595366762785,2.9985064253673093,-4.489984709582719
15.99982237815857,-0.03039071150124073,3.9319610595703125,-11.458895683288574,0.029707309806705773,0.0014057159423828125,0.0,3.943318411746536,-11.54558827168498,-0.21875171760331802,0.6497553524327371,0.1930557679539655,-0.39761175203684457,-0.24043517528101765,-11.632501737976074,-11.632701737976074,0.009534017352759837,0.009334017352759839
16.009788513183594,-0.03146793320775032,3.9277381896972656,-11.443273544311523,0.03321690192894522,0.0013804435729980469,0.0,3.9433276357247875,-11.537189565433117,-0.22875171760331803,0.6514493880935049,0.25182000509187175,-0.5183282264257912,-0.5202175876405088,-11.599651062395164,-11.60358944392993,0.326013823340186,-0.39543449730246305
16.01963472366333,-0.03146793320775032,3.9277381896972656,-11.443273544311523,0.03321690192894522,0.0013477802276611328,0.0,3.943271779993025,-11.528493175641033,-0.23875171760331804,0.6504102503070383,0.12553687833782567,-0.6028297584980539,-0.6601087938202544,-11.51058706463489,-11.564469211562619,0.6607057716173218,-1.0134880410245732
16.0298171043396,-0.03381824120879173,3.9200479984283447,-11.418625831604004,0.040463008266319545,0.00119781494140625,0.0,3.9431468065690916,-11.519497675701043,-0.24875171760331805,0.6532039165509744,0.23703481307137575,-0.6619808309486377,-0.7300543969101273,-11.23002965194858,-11.651992299832536,1.299600691097903,-2.1279861873325103
16.03995180130005,-0.03381824120879173,3.9200479984283447,-11.418625831604004,0.040463008266319545,0.002227306365966797,0.0,3.9429487163503625,-11.510201430178611,-0.25875171760331805,0.6521872623271587,0.10407201289939039,-0.7033865816640464,-0.7650271984550637,-9.625918998808418,-12.995595366762785,2.9985064253673093,-4.489984709582719
16.18230175971985,-0.03381824120879173,3.9200479984283447,-11.418625831604004,0.040463008266319545,0.0012202262878417969,0.0,3.9193461126319264,-11.405938895782272,-0.3241857974639226,0.6586695046334151,-1.0,-0.7323706071648325,-0.7825135992275319,-11.632501737976074,-11.632701737976074,0.009534017352759837,0.009334017352759839
16.18958854675293,-0.06792639940977097,3.816023588180542,-11.227773666381836,0.09640457342976783,0.002506256103515625,0.0,3.9185397010858276,-11.392982894325947,-0.33418579746392263,0.6809742866351983,0.4208321900273757,-0.7526594250153827,-0.7912567996137659,-11.599651062395164,-11.60358944392993,0.326013823340186,-0.39543449730246305
16.199878931045532,-0.06792639940977097,3.816023588180542,-11.227773666381836,0.09640457342976783,0.0018911361694335938,0.0,3.9176245326328725,-11.379753657407603,-0.34418579746392264,0.6795879327698996,0.2621652726316597,-0.766861597510768,-0.795628399806883,-11.51058706463489,-11.564469211562619,0.6607057716173218,-1.0134880410245732
16.209892511367798,-0.07496179640293121,3.801203966140747,-11.206546783447266,0.09958841233970972,0.003072500228881836,0.0,3.9165964917777907,-11.366246808382542,-0.35418579746392265,0.6810161078844301,0.26383167254910145,-0.7768031182575376,-0.7978141999034416,-11.23002965194858,-11.651992299832536,1.299600691097903,-2.1279861873325103
16.21968936920166,-0.07496179640293121,3.801203966140747,-11.206546783447266,0.09958841233970972,0.0029206275939941406,0.0,3.915451584298473,-11.352457766555828,-0.36418579746392266,0.6801643422249838,0.09219186331539886,-0.7837621827802763,-0.7989070999517208,-9.625918998808418,-12.995595366762785,2.9985064253673093,-4.489984709582719
16.22973084449768,-0.07853695750236511,3.7935585975646973,-11.195723533630371,0.10099308522469874,0.002715587615966797,0.0,3.914185942789617,-11.338381750094593,-0.37418579746392266,0.6804339611015809,0.003753185765265954,-0.7886335279461935,-0.7994535499758604,-11.632501737976074,-11.632701737976074,0.009534017352759837,0.009334017352759839
16.23985505104065,-0.08578406274318695,3.777778387069702,-11.173699378967285,0.10357127558844814,0.0028688907623291016,0.0,3.9127958321352176,-11.324013779083412,-0.3841857974639227,0.6814919286776803,0.014231772257035091,-0.7920434695623354,-0.7997267749879302,-11.599651062395164,-11.60358944392993,0.326013823340186,-0.39543449730246305
16.24969792366028,-0.08945111185312271,3.7696375846862793,-11.162518501281738,0.10471345795737363,0.0027098655700683594,0.0,3.911277654906446,-11.309348678720525,-0.3941857974639227,0.6815029596163922,-0.06878563610593214,-0.7944304286936348,-0.7998633874939651,-11.51058706463489,-11.564469211562619,0.6607057716173218,-1.0134880410245732
16.259750366210938,-0.09314338117837906,3.761326789855957,-11.15129280090332,0.10574729212078982,0.0031714439392089844,0.0,3.909627956681524,-11.294381082652542,-0.4041857974639227,0.681526657026251,-0.15555172282155527,-0.7961013000855444,-0.7999316937469826,-11.23002965194858,-11.651992299832536,1.299600691097903,-2.1279861873325103
16.26979947090149,-0.10059038549661636,3.744194984436035,-11.128524780273438,0.10747124884706993,0.0029082298278808594,0.0,3.9078434312843027,-11.279105436445223,-0.4141857974639227,0.6823781989050709,-0.14884228928392784,-0.797270910059881,-0.7999658468734914,-9.625918998808418,-12.995595366762785,2.9985064253673093,-4.489984709582719
16.2798011302948,-0.10059038549661636,3.744194984436035,-11.128524780273438,0.10747124884706993,0.0020694732666015625,0.0,3.9059209259383274,-11.26351600118781,-0.4241857974639227,0.6815984135167085,-0.3422985236874134,-0.7980896370419167,-0.7999829234367457,-11.632501737976074,-11.632701737976074,0.009534017352759837,0.009334017352759839
16.43072772026062,-0.10059038549661636,3.744194984436035,-11.128524780273438,0.10747124884706993,0.0027494430541992188,0.0,3.738718966947062,-11.11055575527199,-0.32300252501341853,0.672714620917689,-1.0,-0.7986627459293417,-0.7999914617183729,-11.599651062395164,-11.60358944392993,0.326013823340186,-0.39543449730246305
16.439735412597656,-0.18847288191318512,3.5106701850891113,-10.861278533935547,0.10161885542601778,0.0031425952911376953,0.0,3.733182031457088,-11.09230124639675,-0.33300252501341854,0.6892013518109357,1.0,-0.2812697687145379,-0.013349185514684413,-11.51058706463489,-11.564469211562619,0.6607057716173218,-1.0134880410245732
16.449705362319946,-0.19298502802848816,3.496303081512451,-10.848356246948242,0.10049240993997888,0.002801179885864258,0.0,3.7275798787955625,-11.073757190450715,-0.34300252501341855,0.6886222737974738,1.0,-0.06541423758787401,-0.24071307272094356,-11.23002965194858,-11.651992299832536,1.299600691097903,-2.1279861873325103
16.459885120391846,-0.1974141150712967,3.481802463531494,-10.835371017456055,0.09925121080942789,0.0027616024017333984,0.0,3.7219083291604877,-11.054919317367888,-0.35300252501341856,0.6886589233439696,1.0,-0.020400803448473892,-0.1993739170971278,-9.625918998808418,-12.995595366762785,2.9985064253673093,-4.489984709582719
16.46947979927063,-0.20175714790821075,3.4671666622161865,-10.822260856628418,0.09795379116682934,0.0016460418701171875,0.0,3.716163327679004,-11.03578315305498,-0.36300252501341856,0.6886890220216905,1.0,0.021252448760560264,-0.1560597011685894,-11.632501737976074,-11.632701737976074,0.009534017352759837,0.009334017352759839
16.479825496673584,-0.21017204225063324,3.4374794960021973,-10.79566764831543,0.09526643484131192,0.002294301986694336,0.0,3.7103409499005524,-11.016344022374813,-0.3730025250134186,0.689286399576753,1.0,0.08237017626758703,-0.11461356534418131,-11.599651062395164,-11.60358944392993,0.326013823340186,-0.39543449730246305
16.489750862121582,-0.2142345905303955,3.422417640686035,-10.782201766967773,0.09378382200944202,0.0033876895904541016,0.0,3.7044374072192072,-10.996597052269326,-0.3830025250134186,0.6891461334831721,1.0,0.12768582892570315,-0.06485985005994765,-11.51058706463489,-11.564469211562619,0.6607057716173218,-1.0134880410245732
16.499815225601196,-0.21819397807121277,3.407203197479248,-10.768634796142578,0.09205661695420808,0.0018627643585205078,0.0,3.6984490522218407,-10.976537175020031,-0.3930025250134186,0.6890418934287921,1.0,0.16683361097254717,-0.0209114770456735,-11.23002965194858,-11.651992299832536,1.299600691097903,-2.1279861873325103
16.509904861450195,-0.22204411029815674,3.391836643218994,-10.755029678344727,0.09003143714227058,0.0026009082794189453,0.0,3.692372383958868,-10.956159131643698,-0.4030025250134186,0.6889821400660117,0.9762436984897069,0.200154690102895,0.01678003205674772,-9.625918998808418,-12.995595366762785,2.9985064253673093,-4.489984709582719
16.660420656204224,-0.22204411029815674,3.391836643218994,-10.755029678344727,0.09003143714227058,0.0020313262939453125,0.0,3.3822376148378943,-10.731870371566817,-0.37025036078611895,0.6900818505897925,-1.0,0.21562203614272166,0.04910160901395001,-11.632501737976074,-11.632701737976074,0.009534017352759837,0.009334017352759839
16.6694917678833,-0.27259212732315063,3.036623954772949,-10.47082233428955,0.035998632383619,0.0010716915130615234,0.0,3.372584888560496,-10.708397172111551,-0.38025036078611896,0.7019168335545944,0.25203342909777415,0.27453549199814586,0.07133806200216508,-11.599651062395164,-11.60358944392993,0.326013823340186,-0.39543449730246305
16.679723978042603,-0.27515140175819397,2.998060464859009,-10.440704345703125,0.03182639520698061,0.001257181167602539,0.0,3.3628747195557875,-10.684604779638214,-0.39025036078611897,0.702625366993758,0.1141114890140904,0.2917177000666848,0.09138313086457767,-11.51058706463489,-11.564469211562619,0.6607057716173218,-1.0134880410245732
16.68967032432556,-0.27628791332244873,2.9786996841430664,-10.425497055053711,0.029846165438549566,0.0013427734375,0.0,3.353103520396243,-10.660487702207478,-0.400250360786119,0.7027140066634553,-0.0734058287760242,0.2996533827715562,0.10003086835751751,-11.23002965194858,-11.651992299832536,1.299600691097903,-2.1279861873325103
16.6999728679657,-0.27604973316192627,2.9578025341033936,-10.410841941833496,0.02793331601809257,0.0013053417205810547,0.0,3.3432678661810455,-10.636040260120394,-0.410250360786119,0.7026381406347774,-0.2562078937071186,0.3042345659458492,0.09764426340171106,-9.625918998808418,-12.995595366762785,2.9985064253673093,-4.489984709582719
16.70979619026184,-0.2757256329059601,2.9368884563446045,-10.396150588989258,0.026697338256671088,0.0012972354888916016,0.0,3.3333644995681744,-10.611256589884169,-0.420250360786119,0.7024871364676226,-0.4375601993638836,0.30683693306875504,0.0871518747856225,-11.632501737976074,-11.632701737976074,0.009534017352759837,0.009334017352759839
16.71969771385193,-0.2748722434043884,2.895031213760376,-10.366496086120605,0.024418030695267046,0.0012359619140625,0.0,3.323390335712463,-10.586130648302133,-0.430250360786119,0.7027150971605198,-0.5556122649244815,0.3075918200287339,0.07044158889851151,-11.599651062395164,-11.60358944392993,0.326013823340186,-0.39543449730246305
16.729844570159912,-0.2743178606033325,2.8740880489349365,-10.351537704467773,0.023380089372909474,0.0012347698211669922,0.0,3.31334246710683,-10.560656216685194,-0.4397677681660276,0.7025631051180261,-0.6825245258788575,0.30645569176580234,0.053781782076081544,-11.51058706463489,-11.564469211562619,0.6607057716173218,-1.0134880410245732
16.739552974700928,-0.27367985248565674,2.853137969970703,-10.336493492126465,0.02238950170549181,0.0013451576232910156,0.0,3.303205704468289,-10.534831794101493,-0.4474444061634294,0.7024162229885684,-0.6699010565815389,0.3040704865380728,0.037007946214537034,-11.23002965194858,-11.651992299832536,1.299600691097903,-2.1279861873325103
16.74977445602417,-0.2729595899581909,2.8321831226348877,-10.321366310119629,0.02144510227352514,0.0013797283172607422,0.0,3.292929381179608,-10.50866994735817,-0.45337291507045024,0.7022697360352548,-0.6531067099942267,0.30187963652212874,0.02879792101606846,-9.625918998808418,-12.995595366762785,2.9985064253673093,-4.489984709582719
16.882381439208984,-0.2729595899581909,2.8321831226348877,-10.321366310119629,0.02144510227352514,0.0011546611785888672,0.0,2.8129271429199743,-10.297791715078402,-0.14805724615398597,0.6998475217244902,-1.0,0.3007584024866616,0.026822482953148364,-11.632501737976074,-11.632701737976074,0.009534017352759837,0.009334017352759839
16.889461755752563,-0.244234099984169,2.449852705001831,-10.04287338256836,0.011029585336127301,0.0014715194702148438,0.0,2.7937865527186942,-10.27392432164096,-0.15805724615398598,0.7061785453734204,0.8780379055108489,0.22375522246149224,-0.12892690426684436,-11.599651062395164,-11.60358944392993,0.326013823340186,-0.39543449730246305
16.8998863697052,-0.2418707311153412,2.4282450675964355,-10.02696704864502,0.010654245298104215,0.0011456012725830078,0.0,2.7747555223739453,-10.249763737519958,-0.16805724615398598,0.7060657748313867,0.8307697223692831,0.21179803878270353,-0.03818566370071169,-11.51058706463489,-11.564469211562619,0.6607057716173218,-1.0134880410245732
16.909643411636353,-0.23946279287338257,2.4066057205200195,-10.011037826538086,0.010264726703208993,0.0012214183807373047,0.0,2.7558282607969087,-10.22530932924816,-0.17792378284245178,0.7059551033548221,0.7955052998419718,0.20596569741680323,-0.005681409684269098,-11.23002965194858,-11.651992299832536,1.299600691097903,-2.1279861873325103
16.919620513916016,-0.23452191054821014,2.363217830657959,-9.978924751281738,0.009441647930897634,0.0010023117065429688,0.0,2.736995718725982,-10.20056273629008,-0.18641185140036923,0.7062165035646859,1.0,0.19655195923681812,0.001431189870667753,-9.625918998808418,-12.995595366762785,2.9985064253673093,-4.489984709582719
16.929821252822876,-0.23199118673801422,2.341460943222046,-9.962752342224121,0.008992498150812711,0.0014319419860839844,0.0,2.718217750076825,-10.17554870505208,-0.19358508611222786,0.7059746255750106,1.0,0.18797548821963947,0.009445577819670441,-11.632501737976074,-11.632701737976074,0.009534017352759837,0.009334017352759839
16.939780235290527,-0.22942355275154114,2.3196537494659424,-9.946515083312988,0.008531629282297004,0.0020596981048583984,0.0,2.6994560657956943,-10.15029059507586,-0.19950595325680648,0.7056862466928998,1.0,0.18103751564642065,0.009540872087962655,-11.599651062395164,-11.60358944392993,0.326013823340186,-0.39543449730246305
16.949705362319946,-0.22664959728717804,2.2982635498046875,-9.931303977966309,0.008076010396232292,0.001325845718383789,0.0,2.680674286727822,-10.124810609185118,-0.204235680751102,0.7053657139708812,1.0,0.1751991552861797,0.0068389966152998544,-11.51058706463489,-11.564469211562619,0.6607057716173218,-1.0134880410245732
16.959670305252075,-0.22100350260734558,2.255289316177368,-9.900717735290527,0.007481791547748529,0.0013442039489746094,0.0,2.6618379812066775,-10.099129989757456,-0.20783419850174015,0.7053367482994349,1.0,0.1672068049053713,0.002516238681580121,-11.23002965194858,-11.651992299832536,1.299600691097903,-2.1279861873325103
16.969586610794067,-0.21813547611236572,2.2337045669555664,-9.885284423828125,0.007215915836362274,0.001026153564453125,0.0,2.6429146901308056,-10.073269183800749,-0.21036008877462042,0.7050993054921312,1.0,0.16215123782175067,-0.0016094818923650133,-9.625918998808418,-12.995595366762785,2.9985064253673093,-4.489984709582719
16.979896306991577,-0.2152397781610489,2.212055206298828,-9.869757652282715,0.00697050569406521,0.0013151168823242188,0.0,2.6238739417062513,-10.04724797949763,-0.21187054583587817,0.7048742519016244,1.0,0.15825257990355748,-0.0048345556246602705,-11.632501737976074,-11.632701737976074,0.009534017352759837,0.009334017352759839
17.103301286697388,-0.2152397781610489,2.212055206298828,-9.869757652282715,0.00697050569406521,0.0011129379272460938,0.0,2.191420457787624,-9.843306699360227,-0.1856751013726766,0.7054442617080109,0.7584176678027046,0.1570938216694461,-0.0070775838047184795,-11.599651062395164,-11.60358944392993,0.326013823340186,-0.39543449730246305
17.109525680541992,-0.16255761682987213,1.8550090789794922,-9.613757133483887,0.004271346351893079,0.0011496543884277344,0.0,2.170413101405218,-9.816911683664124,-0.17772369480597777,0.7106668577447107,1.0,0.1289067886058494,-0.0052247180215754885,-11.51058706463489,-11.564469211562619,0.6607057716173218,-1.0134880410245732
17.11967158317566,-0.15472720563411713,1.808928370475769,-9.58120346069336,0.0042377555932602284,0.0011026859283447266,0.0,2.1490301654336865,-9.790586790965932,-0.1694411032810066,0.710966472919247,1.0,0.11633594891240222,0.001506689213821346,-11.23002965194858,-11.651992299832536,1.299600691097903,-2.1279861873325103
17.129883289337158,-0.15082617104053497,1.7859160900115967,-9.564797401428223,0.0042183292595963096,0.0011761188507080078,0.0,2.127270160139759,-9.764345729945605,-0.16086200610619267,0.7108825475244644,1.0,0.11131393058612785,0.0011801222965007753,-9.625918998808418,-12.995595366762785,2.9985064253673093,-4.489984709582719
17.13987946510315,-0.14692503213882446,1.762925386428833,-9.54830551147461,0.004196567049070676,0.0017392635345458984,0.0,2.105133016745098,-9.738201684693447,-0.1520197390722534,0.7108001869096445,1.0,0.1083368684293303,0.0005215194926522725,-11.59601988067627,-11.59621988067627,-0.059238990598917005,-0.05943899059891701
17.14978528022766,-0.1430346667766571,1.7399629354476929,-9.531733512878418,0.004193334323377762,0.0013108253479003906,0.0,2.082620023626673,-9.712167268970003,-0.14294631676626854,0.7107140179632234,1.0,0.10589892450354206,0.000483022003665201,-11.512820193393159,-11.526175158008922,0.10760991321427829,-0.6037450473867579
17.159566640853882,-0.13528940081596375,1.6941391229629517,-9.498475074768066,0.00419225298314263,0.0012652873992919922,0.0,2.0597337600485,-9.68625448288764,-0.13367245499528377,0.7110399590721606,1.0,0.10213874494315553,0.002349462039568024,-11.362285101754852,-11.462974147589499,0.30272004707274525,-1.3664771421923687
17.169694900512695,-0.1314357966184616,1.6712857484817505,-9.481732368469238,0.004193502454241216,0.001207590103149414,0.0,2.0364780277566523,-9.660474672587823,-0.12422759324625701,0.7109722938582801,1.0,0.09986471693366483,0.0026886590616106514,-10.970822677293855,-11.574712678540031,0.845319345801244,-2.661191718837599
17.179771423339844,-0.1275957226753235,1.6484771966934204,-9.464917182922363,0.004196598702995047,0.0013608932495117188,0.0,2.0128577807947776,-9.634838493400867,-0.11463991713270226,0.7109199855878063,1.0,0.09798202037242394,0.0030944236226955724,-8.852274681870238,-13.338248474164777,2.601837117019046,-5.346803197701033
17.189780473709106,-0.12376966327428818,1.6257177591323853,-9.448029518127441,0.0042035715914967575,0.001280069351196289,0.0,1.9888790539169539,-9.609355876890493,-0.10493638079851783,0.710883789593502,1.0,0.09622096561304146,0.003681842797484796,-11.59601988067627,-11.59621988067627,-0.059238990598917005,-0.05943899059891701
17.199856758117676,-0.11515329033136368,1.5782145261764526,-9.415726661682129,0.004274925819256037,0.0013661384582519531,0.0,1.9645488899883339,-9.5840360021043,-0.09514272926638156,0.7111741811916785,1.0,0.0942636071929004,0.004998114638082236,-11.512820193393159,-11.526175158008922,0.10760991321427829,-0.6037450473867579
17.327914714813232,-0.11515329033136368,1.5782145261764526,-9.415726661682129,0.004274925819256037,0.001199483871459961,0.0,1.550888895063133,-9.393358312281253,0.03311413206877868,0.7107082071589016,0.7957586138504404,0.09409031623507919,0.004074426443131758,-11.362285101754852,-11.462974147589499,0.30272004707274525,-1.3664771421923687
17.33271837234497,-0.048955630511045456,1.1902228593826294,-9.131439208984375,0.0053104174073612675,0.0011250972747802734,0.0,1.5234089471984893,-9.371151810013433,0.040969332953606774,0.7191927658670876,0.6341630350607407,0.0722850595881499,0.03026451330353018,-10.970822677293855,-11.574712678540031,0.845319345801244,-2.661191718837599
17.339481353759766,-0.048955630511045456,1.1902228593826294,-9.131439208984375,0.0053104174073612675,0.0010952949523925781,0.0,1.4957856104374883,-9.349105864668106,0.04871101875084813,0.7187881802014657,0.589526944262582,0.0718622883874771,0.01563628217703842,-8.852274681870238,-13.338248474164777,2.601837117019046,-5.346803197701033
17.349836587905884,-0.048955630511045456,1.1902228593826294,-9.131439208984375,0.0053104174073612675,0.0012829303741455078,0.0,1.468029921788167,-9.327218642337462,0.05632886165330843,0.7183871457155948,0.5451849198121085,0.0703347212239142,0.011438782873437636,-11.59601988067627,-11.59621988067627,-0.059238990598917005,-0.05943899059891701
17.35969042778015,-0.04031917080283165,1.1250691413879395,-9.08113956451416,0.005059589331797731,0.0011608600616455078,0.0,1.4401529888457574,-9.305487791859706,0.06381331347752915,0.7199667266397108,0.41629312822958997,0.06204988556252877,0.01623255214954234,-11.512820193393159,-11.526175158008922,0.10760991321427829,-0.6037450473867579
17.36967658996582,-0.04031917080283165,1.1250691413879395,-9.08113956451416,0.005059589331797731,0.001117706298828125,0.0,1.412165953726922,-9.283910472591613,0.07115558306983631,0.7195734053893947,0.3725472469310023,0.060735116054366774,0.010970506784366486,-11.362285101754852,-11.462974147589499,0.30272004707274525,-1.3664771421923687
17.379868745803833,-0.0346531979739666,1.0824496746063232,-9.047157287597656,0.004901646541383364,0.0012867450714111328,0.0,1.3840799595079438,-9.262483383285673,0.0783476135410745,0.720486019503906,0.26613462355847206,0.055046938284354995,0.012412279253734448,-10.970822677293855,-11.574712678540031,0.845319345801244,-2.661191718837599
17.389647245407104,-0.0346531979739666,1.0824496746063232,-9.047157287597656,0.004901646541383364,0.001287221908569336,0.0,1.3559061191520236,-9.24120279185021,0.08538205935232565,0.7200993435883136,0.22299278381560594,0.05381479451940332,0.008660352192882213,-8.852274681870238,-13.338248474164777,2.601837117019046,-5.346803197701033
17.400107622146606,-0.02906791865825653,1.0405250787734985,-9.012816429138184,0.004742393717934945,0.0013315677642822266,0.0,1.3276554868936425,-9.220064565776166,0.09225226327640433,0.7210711090566615,0.1187106038369723,0.048428828821742084,0.009980952869084805,-11.59601988067627,-11.59621988067627,-0.059238990598917005,-0.05943899059891701
17.40964412689209,-0.02906791865825653,1.0405250787734985,-9.012816429138184,0.004742393717934945,0.0012552738189697266,0.0,1.2993390320323668,-9.199064203021502,0.09895223326221289,0.7206903459547944,0.07617743222511741,0.047173044902047066,0.006753517536667482,-11.512820193393159,-11.526175158008922,0.10760991321427829,-0.6037450473867579
17.419845581054688,-0.02085231989622116,0.9790053963661194,-8.960811614990234,0.004459098863767164,0.0011813640594482422,0.0,1.2709676150745657,-9.178196863153005,0.10547661923108924,0.7224582399798366,-0.05034177948640628,0.040108546658254876,0.00904776773894813,-11.362285101754852,-11.462974147589499,0.30272004707274525,-1.3664771421923687
17.429844617843628,-0.02085231989622116,0.9790053963661194,-8.960811614990234,0.004459098863767164,0.0013275146484375,0.0,1.2425519661493298,-9.157457398555575,0.11182068983605749,0.7220829863400922,-0.09226478137987315,0.038441545418316694,0.005574191020224686,-10.970822677293855,-11.574712678540031,0.845319345801244,-2.661191718837599
17.560907125473022,-0.02085231989622116,0.9790053963661194,-8.960811614990234,0.004459098863767164,0.0013780593872070312,0.0,0.9502181325531573,-8.943275063792983,0.24375613098651627,0.7169726567061769,-0.39593566065300245,0.03790173483783286,0.0030399583165609673,-8.852274681870238,-13.338248474164777,2.601837117019046,-5.346803197701033
17.569627285003662,0.017206115648150444,0.6671382188796997,-8.666778564453125,0.0015483501561766033,0.0011723041534423828,0.0,0.9217246378216671,-8.925529588993907,0.2399183292679431,0.7298821595308743,-0.6409728312824654,0.005526089534988639,0.01074091148722062,-11.59601988067627,-11.59621988067627,-0.059238990598917005,-0.05943899059891701
17.57985806465149,0.021053817123174667,0.6355674266815186,-8.631994247436523,0.001204182585482716,0.0013117790222167969,0.0,0.8935203900616462,-8.907582049742334,0.23620024034407633,0.7312045446129056,-0.6888455118218132,-0.004812711545332777,0.005513979696413335,-11.512820193393159,-11.526175158008922,0.10760991321427829,-0.6037450473867579
17.589524030685425,0.022886531427502632,0.6207197904586792,-8.614969253540039,0.0010388757241823754,0.001964569091796875,0.0,0.8656009109239896,-8.88943909448216,0.2325999050965528,0.7316912086015998,-0.7344861652236907,-0.009501670911214167,0.0024096381414838892,-11.362285101754852,-11.462974147589499,0.30272004707274525,-1.3664771421923687
17.600327014923096,0.02469916269183159,0.606036901473999,-8.597833633422852,0.0008779862263925686,0.0022475719451904297,0.0,0.8379617721188531,-8.87110716368875,0.22911525815511846,0.7321780263609317,-0.7796438346790784,-0.012602262493890147,0.0009398491969178423,-10.970822677293855,-11.574712678540031,0.845319345801244,-2.661191718837599
17.609580755233765,0.028263362124562263,0.5771664977073669,-8.5632905960083,0.0005648904964257184,0.0010750293731689453,0.0,0.810598601235368,-8.852592492942865,0.22574413823530065,0.7334383393972799,-0.8313120212685371,-0.01687700126526751,0.0005296172693576321,-8.852274681870238,-13.338248474164777,2.601837117019046,-5.346803197701033
17.61977458000183,0.030014200136065483,0.562981903553009,-8.545896530151367,0.0004020607805150789,0.0014445781707763672,0.0,0.783507087089997,-8.833901116299641,0.2224842980458051,0.7338322803118756,-0.8719488001961648,-0.01938614776666347,0.0007501971690823481,-11.59601988067627,-11.59621988067627,-0.059238990598917005,-0.05943899059891701
17.629769325256348,0.03174395114183426,0.5489655137062073,-8.528411865234375,0.00022857158673783573,0.0014278888702392578,0.0,0.7566829846127187,-8.815038869913774,0.21933341377153473,0.734213543445529,-0.9084943980682105,-0.021212427840019477,0.0013176495203660338,-11.512820193393159,-11.526175158008922,0.10760991321427829,-0.6037450473867579
17.63964343070984,0.03345462679862976,0.535111129283905,-8.51083755493164,4.24383495118974e-05,0.0011601448059082031,0.0,0.7301221192818615,-8.79601139588502,0.21628909413869532,0.7345894139036987,-0.9402301850786464,-0.02259078097459784,0.0020892936157296694,-11.362285101754852,-11.462974147589499,0.30272004707274525,-1.3664771421923687
17.64969301223755,0.0351439043879509,0.5214228630065918,-8.493178367614746,-0.00015292839208180808,0.0012357234954833984,0.0,0.7038203911198108,-8.77682414629098,0.2133488890689681,0.7349576803373954,-0.9672282671048923,-0.023614903476916894,0.002973775104106251,-10.970822677293855,-11.574712678540031,0.845319345801244,-2.661191718837599
17.65971088409424,0.03845858946442604,0.4945380687713623,-8.457612037658691,-0.0005603708202537305,0.001988649368286133,0.0,0.6777737782629888,-8.757482387376806,0.2105102979301926,0.73603877460891,-0.9721344861527779,-0.024841863188843995,0.004105910658875993,-8.852274681870238,-13.338248474164777,2.601837117019046,-5.346803197701033
17.791484594345093,0.03845858946442604,0.4945380687713623,-8.457612037658691,-0.0005603708202537305,0.0016646385192871094,0.0,0.471539437858304,-8.437621759738168,0.2417750156965235,0.7249617448165073,-1.0,-0.024785175804825907,0.004973937551061305,-11.59601988067627,-11.59621988067627,-0.059238990598917005,-0.05943899059891701
17.79991602897644,0.06172921508550644,0.3033914268016815,-8.155521392822266,-0.003346899784498536,0.001434326171875,0.0,0.44897473216202294,-8.417326534505998,0.23177501569652348,0.7353619115596844,-0.33869868118381663,-0.022771248455567692,0.012699235389841166,-11.512820193393159,-11.526175158008922,0.10760991321427829,-0.6037450473867579
17.80948829650879,0.06403659284114838,0.2834104001522064,-8.119399070739746,-0.0035436588242738765,0.001462697982788086,0.0,0.42683857878063264,-8.39673568231071,0.22177501569652347,0.7360302856604486,-0.28253436400173637,-0.022954283963434546,0.01219797278818818,-11.362285101754852,-11.462974147589499,0.30272004707274525,-1.3664771421923687
17.819701433181763,0.06516604870557785,0.2735099792480469,-8.101283073425293,-0.0036305470976603083,0.0011386871337890625,0.0,0.4051254163363472,-8.375858309577268,0.21177501569652346,0.7361292533960488,-0.29174613596127896,-0.02276914229428434,0.012062147936428326,-10.970822677293855,-11.574712678540031,0.845319345801244,-2.661191718837599
17.829885005950928,0.0662795826792717,0.26366332173347473,-8.08311653137207,-0.003710074026250343,0.0012974739074707031,0.0,0.38382950013227785,-8.354703304551158,0.20199222063614916,0.7362315214354088,-0.2791305310777069,-0.022529627371722226,0.012404962907363398,-8.852274681870238,-13.338248474164777,2.601837117019046,-5.346803197701033
17.839570999145508,0.06702034175395966,0.25525999069213867,-8.06557846069336,-0.0037802392911592264,0.0013628005981445312,0.0,0.362940254509365,-8.333283869895043,0.1926919678323141,0.7363075571529689,-0.2462421201629451,-0.022533221704039756,0.012820192014289609,-11.59601988067627,-11.59621988067627,-0.059238990598917005,-0.05943899059891701
17.84985899925232,0.06839966028928757,0.23854248225688934,-8.030330657958984,-0.003895244982292656,0.0014646053314208984,0.0,0.34244121981618364,-8.311618120708737,0.18386216150212958,0.7368024300160216,-0.1492667209564782,-0.022679469812333097,0.013519886038442277,-11.512820193393159,-11.526175158008922,0.10760991321427829,-0.6037450473867579
17.859909057617188,0.06907684355974197,0.23020043969154358,-8.012625694274902,-0.00395358661094658,0.0018947124481201172,0.0,0.3223161528755913,-8.289723070242243,0.17549054383451618,0.7368095315750868,-0.12049412732860754,-0.022821339007437047,0.01370932292568684,-11.362285101754852,-11.462974147589499,0.30272004707274525,-1.3664771421923687
17.86975908279419,0.06974558532238007,0.22186514735221863,-7.994915008544922,-0.004002471262888108,0.0012507438659667969,0.0,0.3025490748203216,-8.26761469102189,0.16756472603724734,0.736814388464876,-0.09420695777940091,-0.02292249947966966,0.01396761518951187,-10.970822677293855,-11.574712678540031,0.845319345801244,-2.661191718837599
17.879743814468384,0.07040581852197647,0.21353349089622498,-7.977151870727539,-0.004044180281750354,0.0011186599731445312,0.0,0.28312431303601454,-8.24530797410048,0.16007221800474444,0.7368164285961201,-0.07020896379014974,-0.02301077724252257,0.014243280829691467,-8.852274681870238,-13.338248474164777,2.601837117019046,-5.346803197701033
17.889675855636597,0.07170069217681885,0.1968715637922287,-7.941472053527832,-0.004111856046347562,0.0011365413665771484,0.0,0.26402653764298994,-8.222816986220781,0.1530004565978731,0.7372922468450931,0.004666731968322457,-0.023107102483785006,0.014748144311077686,-11.59601988067627,-11.59621988067627,-0.059238990598917005,-0.05943899059891701
18.014817476272583,0.07170069217681885,0.1968715637922287,-7.941472053527832,-0.004111856046347562,0.0012657642364501953,0.0,0.18258875251601214,-7.91706515524092,0.037817393147467016,0.7294060280388246,-0.20925000007103717,-0.02299375621855262,0.014587221306266222,-11.512820193393159,-11.526175158008922,0.10760991321427829,-0.6037450473867579
18.019433736801147,0.08080622553825378,0.0659729391336441,-7.653804779052734,-0.0037515606222999764,0.0010628700256347656,0.0,0.16839587996814787,-7.892620040341543,0.036047786690238955,0.7365985758431619,0.38288328835994356,-0.02221418988090067,0.017246768810968895,-11.362285101754852,-11.462974147589499,0.30272004707274525,-1.3664771421923687
18.029818296432495,0.08129887282848358,0.05784222483634949,-7.635689735412598,-0.003690311310056593,0.0012993812561035156,0.0,0.15428311164647357,-7.868142216776763,0.034584688914265596,0.7365668897701322,0.38318397716583485,-0.022212037551865696,0.014787151195040501,-10.970822677293855,-11.574712678540031,0.845319345801244,-2.661191718837599
18.03967308998108,0.08178341388702393,0.049696799367666245,-7.617536544799805,-0.0036256418480475894,0.0012485980987548828,0.0,0.14024129471588317,-7.843636860312827,0.03341208708376623,0.7365352330490658,0.38344880535665227,-0.021875174975479642,0.0134388647285323,-8.852274681870238,-13.338248474164777,2.601837117019046,-5.346803197701033
18.049790859222412,0.08272847533226013,0.033363226801157,-7.581121444702148,-0.003488378677424464,0.0011370182037353516,0.0,0.12626194053669146,-7.8191088369808615,0.03251434802514253,0.7369962315145772,0.41497327075313906,-0.02145143432292135,0.012665878071841628,-11.59601988067627,-11.59621988067627,-0.059238990598917005,-0.05943899059891701
18.059664964675903,0.08317086100578308,0.025177739560604095,-7.562864303588867,-0.0034155818755117195,0.0013518333435058594,0.0,0.11233720633467056,-7.794562723126181,0.03187622441697438,0.736947493247349,0.4141663958238899,-0.02118455351687394,0.0119781331157122,-11.512820193393159,-11.526175158008922,0.10760991321427829,-0.6037450473867579
18.069636344909668,0.08360538631677628,0.016978925094008446,-7.5446319580078125,-0.0033463878228587873,0.0011780261993408203,0.0,0.0984598761614147,-7.770002823296193,0.031482859998121934,0.7368981615265586,0.4113514834725035,-0.02095042542073108,0.011567672297346624,-11.362285101754852,-11.462974147589499,0.30272004707274525,-1.3664771421923687
18.079873085021973,0.08403223752975464,0.00876714289188385,-7.5263671875,-0.0032749170430621533,0.0012295246124267578,0.0,0.0846233412778759,-7.745433186188868,0.03131979375587163,0.7368610183531652,0.40605091997830556,-0.02073931577510894,0.01129811844333523,-10.970822677293855,-11.574712678540031,0.845319345801244,-2.661191718837599
18.089651584625244,0.08534588664770126,-0.0072322688065469265,-7.491571426391602,-0.0030961808103766586,0.00102996826171875,0.0,0.0708215800799904,-7.720857618870413,0.03137296315396731,0.7372459473117176,0.4147293224213824,-0.020158319629074453,0.010893520263612393,-8.852274681870238,-13.338248474164777,2.601837117019046,-5.346803197701033
18.1000394821167,0.08597970753908157,-0.015253986231982708,-7.474094390869141,-0.00299048596366136,0.0012807846069335938,0.0,0.05704913767306289,-7.696279699457178,0.03162870645813735,0.7371870493544614,0.40035969080763,-0.019785979293655824,0.010461958594455171,-11.59601988067627,-11.59621988067627,-0.059238990598917005,-0.05943899059891701
18.10976552963257,0.08659844845533371,-0.023288164287805557,-7.456567764282227,-0.0028842850552388555,0.0011391639709472656,0.0,0.04330110519078882,-7.671702788443268,0.03207376421440962,0.7371331542999131,0.3839688691439302,-0.019433466848456676,0.010159025105399561,-11.512820193393159,-11.526175158008922,0.10760991321427829,-0.6037450473867579
18.119731187820435,0.08780041337013245,-0.03938071429729462,-7.421463966369629,-0.0026690441747847515,0.0011820793151855469,0.0,0.02957309894528891,-7.6471300388418175,0.032695279933138595,0.7375511788978887,0.3755086632348196,-0.018803532938246353,0.009694479898981298,-11.362285101754852,-11.462974147589499,0.30272004707274525,-1.3664771421923687
18.244518518447876,0.08780041337013245,-0.03938071429729462,-7.421463966369629,-0.0026690441747847515,0.0010991096496582031,0.0,-0.05212943386015323,-7.397258243910557,0.02313402420669031,0.7326306971456981,0.16832397921492415,-0.018554045038953238,0.009523323285380947,-10.970822677293855,-11.574712678540031,0.845319345801244,-2.661191718837599
18.249526262283325,0.09544190019369125,-0.16149593889713287,-7.162302017211914,-0.0009897709276622813,0.0011360645294189453,0.0,-0.06489781505069202,-7.373075124405135,0.02492484001898643,0.739332411396167,0.1598360451352225,-0.01521124048559121,0.007434487120703109,-8.852274681870238,-13.338248474164777,2.601837117019046,-5.346803197701033
18.259689331054688,0.09629184752702713,-0.17779888212680817,-7.128680229187012,-0.0007589638913700902,0.0014386177062988281,0.0,-0.07768675356125875,-7.348916491790395,0.026812621669643263,0.7397940609285177,0.12082529644474785,-0.014458959095635002,0.0061063653112229275,-11.418525831604004,-11.418725831604004,-0.45873262157440187,-0.45893262157440184
18.269774198532104,0.09669581055641174,-0.18590305745601654,-7.111817359924316,-0.0006442292981709841,0.0012118816375732422,0.0,-0.09049677324184192,-7.324784083904179,0.028787172797873864,0.7397808343522589,0.08630111086743109,-0.014114643784832287,0.005455053012644491,-11.267608472194944,-11.290602400695507,-0.4624467662079923,-1.1443196844184291
18.27968692779541,0.09708723425865173,-0.19396698474884033,-7.094892501831055,-0.0005347112019067346,0.0012733936309814453,0.0,-0.10332804700717389,-7.300679496045703,0.030838705741906114,0.7397767982019479,0.05119397630728362,-0.013806693332304618,0.005095335768052555,-11.031726332670788,-11.184388393888243,-0.42574826498774343,-2.0498995777064137
18.28961753845215,0.09746619313955307,-0.20198847353458405,-7.077908515930176,-0.0004256951004770748,0.0010933876037597656,0.0,-0.1161804173461714,-7.276604184476349,0.03295783602564331,0.7397837160167081,0.015849735410493754,-0.013506418188604319,0.004883969458647543,-10.48388738792991,-11.313817735160791,0.021877074745226363,-3.5375049184416993
18.300012588500977,0.09818756580352783,-0.21789522469043732,-7.043769836425781,-0.0002142222058227894,0.0014214515686035156,0.0,-0.12905341640524096,-7.252559469908346,0.03513557648497972,0.7402824321539053,-0.025572222824459145,-0.012970429282787518,0.0045683558536212,-7.611656675840598,-13.67911071052506,1.9097271341006428,-6.587720706094174
18.309707641601562,0.09853025525808334,-0.2257762849330902,-7.026620864868164,-0.00011087628351624801,0.001348257064819336,0.0,-0.14194628561979986,-7.228546541020647,0.03736333106313758,0.7402824659797106,-0.058526526243466465,-0.01267605420518668,0.004420609603115513,-11.418525831604004,-11.418725831604004,-0.45873262157440187,-0.45893262157440184
18.31981658935547,0.09886110574007034,-0.23360657691955566,-7.009467124938965,-9.7161475136609e-06,0.0012683868408203125,0.0,-0.15485799487107876,-7.204566458033649,0.03963288830286466,0.7402877542313506,-0.0902222897429617,-0.012420085750155279,0.004326904900238253,-11.267608472194944,-11.290602400695507,-0.4624467662079923,-1.1443196844184291
18.329663276672363,0.0989394336938858,-0.24951165914535522,-6.975811958312988,0.00019333836023749384,0.001192331314086914,0.0,-0.1677872611478915,-7.1806201563674135,0.04193641456191243,0.7407576528386922,-0.12145840873583563,-0.012451887665205937,0.0041814302014623,-11.031726332670788,-11.184388393888243,-0.42574826498774343,-2.0498995777064137
18.339691877365112,0.09869113564491272,-0.25757917761802673,-6.959293365478516,0.00030223296609044326,0.0012395381927490234,0.0,-0.18073256669559343,-7.156708450401724,0.04426644697689917,0.740721093035077,-0.1480294269503291,-0.012743780081345614,0.004159564180566155,-10.48388738792991,-11.313817735160791,0.021877074745226363,-3.5375049184416993
18.46979784965515,0.09869113564491272,-0.25757917761802673,-6.959293365478516,0.00030223296609044326,0.0011439323425292969,0.0,-0.2703464053760288,-6.936385227635087,0.09472900051462271,0.7356878551265165,-0.2709350216236217,-0.012659225686055946,0.0042829110899964195,-7.611656675840598,-13.67911071052506,1.9097271341006428,-6.587720706094174
18.479771614074707,0.09446413069963455,-0.3833563029766083,-6.672421455383301,0.0018514340947226593,0.0012042522430419922,0.0,-0.282955637794706,-6.91344317061658,0.09221695685744793,0.7434783208742144,-0.11411278881944645,-0.017652554326967773,0.004010271252251012,-11.418525831604004,-11.418725831604004,-0.45873262157440187,-0.45893262157440184
18.489567756652832,0.09398898482322693,-0.3962954580783844,-6.638576030731201,0.002058465243536034,0.0011031627655029297,0.0,-0.2954139088899347,-6.890471046280432,0.08989422751210241,0.7439839715442138,-0.10723887141571795,-0.01845297074376138,0.004129416620250947,-11.267608472194944,-11.290602400695507,-0.4624467662079923,-1.1443196844184291
18.500017404556274,0.09374509006738663,-0.4026886522769928,-6.621585369110107,0.0021615045483645012,0.0017216205596923828,0.0,-0.30772790309591264,-6.867472480583966,0.08775293660200065,0.7439923767551174,-0.11559566397088059,-0.018779754389753496,0.004236911686289086,-11.031726332670788,-11.184388393888243,-0.42574826498774343,-2.0498995777064137
18.509713411331177,0.09349701553583145,-0.4090317189693451,-6.604551315307617,0.002262077213060376,0.0012500286102294922,0.0,-0.3199039616256757,-6.8444508871848955,0.08578533194622494,0.7439941822676399,-0.12342121827233705,-0.01905254276837014,0.004387420297065483,-10.48388738792991,-11.313817735160791,0.021877074745226363,-3.5375049184416993
18.519829511642456,0.09324478358030319,-0.41532498598098755,-6.587521553039551,0.0023617888834404077,0.0011949539184570312,0.0,-0.3319480893567777,-6.821409480135482,0.08398379174811268,0.7439861061541007,-0.1309434972111425,-0.01928898449099234,0.004551471611146446,-7.611656675840598,-13.67911071052506,1.9097271341006428,-6.587720706094174
18.529699087142944,0.09272783994674683,-0.427764892578125,-6.553346157073975,0.0025548325359143753,0.0014286041259765625,0.0,-0.3438659621758813,-6.798351285723891,0.08234083067264364,0.7444538091120119,-0.12065230342713139,-0.019587863884516485,0.004712300835079696,-11.418525831604004,-11.418725831604004,-0.45873262157440187,-0.45893262157440184
18.539714336395264,0.09246325492858887,-0.4339127540588379,-6.536204814910889,0.002648287777925251,0.0010957717895507812,0.0,-0.35566293472102445,-6.775279153515515,0.08084910533758102,0.744439392532308,-0.12750718986451717,-0.019707835663174376,0.004761473581225258,-11.267608472194944,-11.290602400695507,-0.4624467662079923,-1.1443196844184291
18.549875259399414,0.09218572080135345,-0.44002532958984375,-6.519028663635254,0.002740749550326882,0.001299142837524414,0.0,-0.3673440484650194,-6.752195766645849,0.07950141924297789,0.7444225170369652,-0.13404106859127318,-0.019801631647412225,0.004847867193535134,-11.031726332670788,-11.184388393888243,-0.42574826498774343,-2.0498995777064137
18.559845209121704,0.09218572080135345,-0.44002532958984375,-6.519028663635254,0.002740749550326882,0.0022041797637939453,0.0,-0.3789140400878119,-6.729103651415107,0.07829072716326282,0.743928410613779,-0.15819568804469256,-0.019806236890360436,0.004951349681706103,-10.48388738792991,-11.313817735160791,0.021877074745226363,-3.5375049184416993
18.687150955200195,0.09218572080135345,-0.44002532958984375,-6.519028663635254,0.002740749550326882,0.0011432170867919922,0.0,-0.4501217496845274,-6.496220558504447,0.07643333306414532,0.7384378540914772,-0.290774176576172,-0.019736132192410216,0.005175066535338343,-7.611656675840598,-13.67911071052506,1.9097271341006428,-6.587720706094174
18.691362380981445,0.08209149539470673,-0.5459244847297668,-6.2118635177612305,0.0038759173493678745,0.0009837150573730469,0.0,-0.46007301838568204,-6.473394172251854,0.07374165638170115,0.7462303986603366,0.06937003252779783,-0.020141799529969348,0.0065753940432003504,-11.418525831604004,-11.418725831604004,-0.45873262157440187,-0.45893262157440184
18.700334072113037,0.08209149539470673,-0.5459244847297668,-6.2118635177612305,0.0038759173493678745,0.001520395278930664,0.0,-0.4698868542464373,-6.450552913760948,0.0712574961499596,0.7457344252972113,0.04688846794867135,-0.020279774522228955,0.004818564642248695,-11.267608472194944,-11.290602400695507,-0.4624467662079923,-1.1443196844184291
18.709622621536255,0.08118756115436554,-0.5565282106399536,-6.177769660949707,0.003977415944319773,0.0013430118560791016,0.0,-0.47957058742084036,-6.427699980165309,0.06897241977944578,0.7461634569089551,0.07226647474010356,-0.019743273381073238,0.004118779589650013,-11.031726332670788,-11.184388393888243,-0.42574826498774343,-2.0498995777064137
18.719905138015747,0.08118756115436554,-0.5565282106399536,-6.177769660949707,0.003977415944319773,0.0013134479522705078,0.0,-0.48913116705965254,-6.404838371310229,0.066878118865677,0.7456678580873646,0.0500422229643796,-0.01966082008849838,0.0035054378487694294,-10.48388738792991,-11.313817735160791,0.021877074745226363,-3.5375049184416993
18.72953701019287,0.08018439263105392,-0.5716328024864197,-6.1270647048950195,0.0041760357040558915,0.00131988525390625,0.0,-0.4985751692425552,-6.3819709031263905,0.06496641665714457,0.746547569237054,0.09988879460831401,-0.018738968329227702,0.0033447460764742336,-7.611656675840598,-13.67911071052506,1.9097271341006428,-6.587720706094174
18.73971676826477,0.08018439263105392,-0.5716328024864197,-6.1270647048950195,0.0041760357040558915,0.0017631053924560547,0.0,-0.5079088053752299,-6.35910021998337,0.06322927487492024,0.7460528821445032,0.07791965864850459,-0.018679779246822546,0.0027881848568572696,-11.418525831604004,-11.418725831604004,-0.45873262157440187,-0.45893262157440184
18.749723434448242,0.0795038491487503,-0.5815627574920654,-6.093138217926025,0.0043075129633889375,0.0013697147369384766,0.0,-0.5171379309856506,-6.3362288060894905,0.06165879990923362,0.7464149050540323,0.10296016659052082,-0.018036639407622474,0.002618256237898036,-11.267608472194944,-11.290602400695507,-0.4624467662079923,-1.1443196844184291
18.759663105010986,0.0795038491487503,-0.5815627574920654,-6.093138217926025,0.0043075129633889375,0.0018486976623535156,0.0,-0.5262680548593637,-6.31335899600304,0.06024724841813455,0.7459209885245084,0.08124406461211284,-0.01799208583688472,0.00228787853929315,-11.031726332670788,-11.184388393888243,-0.42574826498774343,-2.0498995777064137
18.76977229118347,0.07846888154745102,-0.5962642431259155,-6.0421977043151855,0.0044972238078235804,0.0011882781982421875,0.0,-0.5353043484585512,-6.290492984317905,0.05898703235304972,0.7467079553144856,0.12041965534791957,-0.016931063649067355,0.0021293577603323116,-10.48388738792991,-11.313817735160791,0.021877074745226363,-3.5375049184416993
18.779696464538574,0.07846888154745102,-0.5962642431259155,-6.0421977043151855,0.0044972238078235804,0.001226186752319336,0.0,-0.5442516555743119,-6.267632834584517,0.057870723435675904,0.7462152463382971,0.0989546780533268,-0.01687377921297518,0.0016697370896387649,-7.611656675840598,-13.67911071052506,1.9097271341006428,-6.587720706094174
18.789666891098022,0.07777009159326553,-0.6059384942054749,-6.008181095123291,0.0046204257474036226,0.0011534690856933594,0.0,-0.5531145021658548,-6.2447804875245705,0.056891057110231354,0.746580756600313,0.11191432558550321,-0.016106816164661395,0.001425960267443389,-11.418525831604004,-11.418725831604004,-0.45873262157440187,-0.45893262157440184
18.917768478393555,0.07777009159326553,-0.6059384942054749,-6.008181095123291,0.0046204257474036226,0.0012042522430419922,0.0,-0.6134185641480637,-5.985716552459736,0.04110860377483343,0.7410345352711413,-0.054855114028536045,-0.016019991905416957,0.0011434364805369742,-11.267608472194944,-11.290602400695507,-0.4624467662079923,-1.1443196844184291
18.922351360321045,0.07168632000684738,-0.6723313331604004,-5.75701379776001,0.005756144539082353,0.0010457038879394531,0.0,-0.6208445238085182,-5.963270143005124,0.040680953830668304,0.7470691483985572,0.0731901646818045,-0.012187243815305353,0.0009296312686967196,-11.031726332670788,-11.184388393888243,-0.42574826498774343,-2.0498995777064137
18.929632425308228,0.07124743610620499,-0.6764684915542603,-5.740379333496094,0.005834474732437922,0.0012745857238769531,0.0,-0.6282196283578056,-5.940843214326404,0.04036712398180527,0.7470292574378182,0.05920571750099447,-0.01195167363531245,-0.000759883782894147,-10.48388738792991,-11.313817735160791,0.021877074745226363,-3.5375049184416993
18.939586877822876,0.07036838680505753,-0.6846591830253601,-5.707063674926758,0.005989464450020687,0.001064300537109375,0.0,-0.6355468495669413,-5.918437034934154,0.040160227651581455,0.7474404019222467,0.050229074379105024,-0.011338903475252337,-0.0017994142738842682,-7.611656675840598,-13.67911071052506,1.9097271341006428,-6.587720706094174
18.9497971534729,0.06992828845977783,-0.6887113451957703,-5.690384387969971,0.006065510566553023,0.0013065338134765625,0.0,-0.6428288870650132,-5.896052798695687,0.04005357390560903,0.7474105723539641,0.035658398518838494,-0.010983653494460918,-0.002456607322516105,-11.418525831604004,-11.418725831604004,-0.45873262157440187,-0.45893262157440184
18.9595730304718,0.069488026201725,-0.692733883857727,-5.673692226409912,0.006140806934253895,0.0012521743774414062,0.0,-0.650068179516725,-5.873691628872597,0.040040668179836536,0.747380586733,0.020978558504912037,-0.010640076015028766,-0.0028656545687707363,-11.267608472194944,-11.290602400695507,-0.4624467662079923,-1.1443196844184291
18.969726085662842,0.06942769140005112,-0.6966120600700378,-5.6576104164123535,0.006216147567463359,0.0013582706451416016,0.0,-0.6572669156979482,-5.851354581823967,0.04011521263950538,0.7473153089560931,0.0050465184320512835,-0.010075224301205169,-0.0031704472577532682,-11.031726332670788,-11.184388393888243,-0.42574826498774343,-2.0498995777064137
18.97967553138733,0.0693001076579094,-0.7042461633682251,-5.625466823577881,0.006379426507649555,0.0011126995086669922,0.0,-0.664427045449786,-5.829042650413126,0.04027110618929294,0.7476679713398301,-0.007735611045941282,-0.009041819608428635,-0.003562074845791168,-10.48388738792991,-11.313817735160791,0.021877074745226363,-3.5375049184416993
18.989689111709595,0.06922269612550735,-0.7080162167549133,-5.609359264373779,0.006462665552718239,0.001153707504272461,0.0,-0.671550290493503,-5.806756767152568,0.0405024441542763,0.7476086254773494,-0.023316573048575498,-0.008558643310817791,-0.003947529187035092,-7.611656675840598,-13.67911071052506,1.9097271341006428,-6.587720706094174
19.000022888183594,0.06913665682077408,-0.7117542624473572,-5.5932297706604,0.006544659222694538,0.0012450218200683594,0.0,-0.6786381550903746,-5.7844978071186,0.04080351765070072,0.7475532620499146,-0.038570706361677046,-0.008076325782974784,-0.004251624192892104,-11.418525831604004,-11.418725831604004,-0.45873262157440187,-0.45893262157440184
19.00961923599243,0.06904245167970657,-0.7154596447944641,-5.577079772949219,0.006625542710533949,0.0015943050384521484,0.0,-0.685691936532091,-5.76226659066429,0.041168812664895936,0.7474997211051285,-0.053451570279469535,-0.0076232985866386835,-0.0045147003870499875,-11.267608472194944,-11.290602400695507,-0.4624467662079923,-1.1443196844184291
19.143203496932983,0.06904245167970657,-0.7154596447944641,-5.577079772949219,0.006625542710533949,0.0016090869903564453,0.0,-0.7219834761103789,-5.5554465777820505,0.0556156610258613,0.7429751315106161,-0.14981999448922478,-0.007579362468854135,-0.004665637085025287,-11.031726332670788,-11.184388393888243,-0.42574826498774343,-2.0498995777064137
19.14968514442444,0.06751302629709244,-0.7725459337234497,-5.293907165527344,0.007443802149904588,0.0011911392211914062,0.0,-0.7284173826650411,-5.533829579202477,0.05424493783312194,0.749927458528616,-0.04611260318354697,-0.0011872853863458314,-0.00491802963901812,-10.48388738792991,-11.313817735160791,0.021877074745226363,-3.5375049184416993
19.159512519836426,0.06747457385063171,-0.7751746773719788,-5.278624534606934,0.007451777350294009,0.0011658668518066406,0.0,-0.7347656279740786,-5.512230217099404,0.052995990277932704,0.7498579286735315,-0.055297803207128515,-0.001000180621036107,-0.006896250861439732,-7.611656675840598,-13.67911071052506,1.9097271341006428,-6.587720706094174
19.169888734817505,0.0674310103058815,-0.7777806520462036,-5.263312816619873,0.007456252070791258,0.0032236576080322266,0.0,-0.7410322234640728,-5.490649847447919,0.05186322342954888,0.7509812698820926,-0.29579322881368647,-0.00042043019267058983,-0.007952607291946003,-11.418525831604004,-11.418725831604004,-0.45873262157440187,-0.45893262157440184
19.17947554588318,0.06732925027608871,-0.7829236388206482,-5.232699871063232,0.007459090282819769,0.0020439624786376953,0.0,-0.7472209359521585,-5.469089747758884,0.05084115226998291,0.7512966637938195,-0.3049793351140658,0.0006060892686476722,-0.008156257933928475,-11.267608472194944,-11.290602400695507,-0.4624467662079923,-1.1443196844184291
19.189703941345215,0.06727506220340729,-0.7854592800140381,-5.217353820800781,0.007459368808083067,0.0012731552124023438,0.0,-0.753335295208448,-5.447551122110319,0.04992440503334531,0.751121781648474,-0.3082406122691236,0.0010447238827702046,-0.008622124654198295,-11.031726332670788,-11.184388393888243,-0.42574826498774343,-2.0498995777064137
19.200227975845337,0.06721677631139755,-0.7879721522331238,-5.201984882354736,0.007455215453365582,0.0016219615936279297,0.0,-0.7593786015766384,-5.426035105791938,0.049107726171793924,0.7509419813075946,-0.3111781086486807,0.0014681733339890642,-0.00897582832850094,-10.48388738792991,-11.313817735160791,0.021877074745226363,-3.5375049184416993
19.209741830825806,0.06715456396341324,-0.7904622554779053,-5.1865949630737305,0.007450543655885156,0.0020394325256347656,0.0,-0.7653539336301073,-5.404542769592726,0.048385978963970566,0.7507506085420397,-0.31367856528314886,0.0018254921936834592,-0.009278874953090592,-7.611656675840598,-13.67911071052506,1.9097271341006428,-6.587720706094174
