time,x,y,z,yaw,ctrl_comp_time,rollout_comptime,y_ref,z_ref,yaw_ref,throttle,roll_rate,pitch_rate,yaw_rate,save_tube_pyH,save_tube_pyL,save_tube_pzH,save_tube_pzL,wy,wz
15.003215074539185,0.02695813588798046,3.8871240615844727,-12.431300163269043,-0.0004209553056917989,0.17196011543273926,0.14074444770812988,3.878533122463281,-12.396631373708306,-0.19163783243958535,0.5859922300364712,-1.0,-0.025128108706577657,0.016372046041680736,3.9183039886904445,3.839188831692328,-12.390772770690623,-12.41224999596336,0.0,0.0
15.449877977371216,0.02695813588798046,3.8871240615844727,-12.431300163269043,-0.0004209553056917989,0.15937495231628418,0.14074444770812988,3.8779121601084365,-12.385815979128312,-0.21163783243958537,0.5846907932271697,-1.0,-0.07803202173869248,-0.05900483790422859,3.931524762668714,3.824987389022701,-12.37501107707157,-12.407788243900887,0.0,0.0
15.600859880447388,0.02910737134516239,3.930236577987671,-12.305383682250977,-0.001034793554947594,0.0020246505737304688,0.12806248664855957,3.8770113017554126,-12.373590691545994,-0.23163783243958538,0.6600447895923812,1.0,-0.14746715645803277,-0.29907127609738754,3.9480072682341993,3.8069892681527304,-12.355348177967329,-12.404411567433065,0.0,0.0
15.608125686645508,0.029947001487016678,3.929168939590454,-12.297914505004883,-0.0009823513545997309,0.002699136734008789,0.12806248664855957,3.875805828818667,-12.359949541998553,-0.2516378324395854,0.6609473465247656,1.0,-0.25887717865184506,-0.28069224867460196,3.9689134758030082,3.78398287762621,-12.330734445558592,-12.403160740689675,0.0,0.0
15.617246627807617,0.029947001487016678,3.929168939590454,-12.297914505004883,-0.0009823513545997309,0.002263784408569336,0.12806248664855957,3.874271339983301,-12.344883476453521,-0.2716378324395854,0.6597105005772105,1.0,-0.2875019326096001,-0.43147231479659104,3.9960193064643037,3.7541431319523197,-12.29957232468295,-12.405618295287464,0.0,0.0
15.625453233718872,0.03249303624033928,3.9255459308624268,-12.273351669311523,-0.0008541541758275428,0.0022993087768554688,0.12806248664855957,3.872383929246395,-12.328380362971158,-0.2916378324395854,0.6647726682894479,1.0,-0.36251859347512333,-0.5109166582199429,4.032047939146644,3.714698500381899,-12.25947318998709,-12.414151667578004,0.0,0.0
15.63285493850708,0.03249303624033928,3.9255459308624268,-12.273351669311523,-0.0008541541758275428,0.0025169849395751953,0.12806248664855957,3.870120363699367,-12.31042500875722,-0.3116378324395854,0.6635359363072072,1.0,-0.4325279085753187,-0.6161616335636301,4.081162540496869,3.6614386329846296,-12.206750972626901,-12.432419596176803,0.0,0.0
15.643598318099976,0.034222256392240524,3.9224588871002197,-12.255925178527832,-0.0009040110585205596,0.004491090774536133,0.12806248664855957,3.867458260526276,-12.290999187034645,-0.33163783243958544,0.665317528165223,1.0,-0.4996804380651054,-0.7080808167818151,4.149649173066537,3.5880318073733557,-12.13559924702368,-12.46619507915321,0.0,0.0
15.652323961257935,0.034222256392240524,3.9224588871002197,-12.255925178527832,-0.0009040110585205596,0.00209808349609375,0.12806248664855957,3.864376262703018,-12.270081673632832,-0.35163783243958546,0.6640850584677798,1.0,-0.5746974459351337,-0.7540404083909076,4.246725590597412,3.4852164862434836,-12.036726328710241,-12.52473033967422,0.0,0.0
15.663293838500977,0.036882270127534866,3.9164044857025146,-12.22909927368164,-0.0008168063357648914,0.002700328826904297,0.12806248664855957,3.8608542128940164,-12.247648293164643,-0.3716378324395855,0.6664633271734718,1.0,-0.6038693530039466,-0.7770202041954538,4.385113372680153,3.340229532434435,-11.895266474890237,-12.622845708247382,0.0,0.0
15.672032356262207,0.036882270127534866,3.9164044857025146,-12.22909927368164,-0.0008168063357648914,0.0032663345336914062,0.12806248664855957,3.856873325056281,-12.223671974634016,-0.3916378324395855,0.6652442153183485,1.0,-0.6273163877671083,-0.788510102097727,4.581598846046332,3.136245633259143,-11.688311146572053,-12.783398462414086,0.0,0.0
15.682567834854126,0.03870213031768799,3.911381959915161,-12.210831642150879,-0.00031785576729104204,0.0022895336151123047,0.12806248664855957,3.8524163532753826,-12.198122816291253,-0.4116378324395855,0.6661449218957177,1.0,-0.6255073178115099,-0.7942550510488635,4.86267013295713,2.8467405926723104,-11.383990063457071,-13.038201892373053,0.0,0.0
15.69191837310791,0.03870213031768799,3.911381959915161,-12.210831642150879,-0.00031785576729104204,0.002569913864135742,0.12806248664855957,3.878256075845708,-12.391399660486226,-0.20163783243958536,0.6649420907307731,1.0,-0.6282708201236403,-0.7971275255244318,3.9183039886904445,3.839188831692328,-12.390772770690623,-12.41224999596336,0.0,0.0
15.70198369026184,0.0415215827524662,3.902362585067749,-12.182889938354492,0.0009721798164232798,0.0022072792053222656,0.12806248664855957,3.8774982681934653,-12.379879872700196,-0.22163783243958537,0.6667619371597355,1.0,-0.6017375782726735,-0.798563762762216,3.931524762668714,3.824987389022701,-12.37501107707157,-12.407788243900887,0.0,0.0
15.842913150787354,0.0415215827524662,3.902362585067749,-12.182889938354492,0.0009721798164232798,0.0027399063110351562,0.1306912899017334,3.8764481767146095,-12.36694759312413,-0.2416378324395854,0.6692079753476624,-1.0,-0.5948487332861995,-0.799281881381108,3.9480072682341993,3.8069892681527304,-12.355348177967329,-12.404411567433065,0.0,0.0
15.851916074752808,0.060287971049547195,3.810513496398926,-12.010663032531738,-0.006364625244428809,0.002298116683959961,0.1306912899017334,3.8750812192083117,-12.352595309985205,-0.2616378324395854,0.6863356740938438,-0.7563141472354359,-0.46614155677751307,-0.799640940690554,3.9689134758030082,3.78398287762621,-12.330734445558592,-12.403160740689675,0.0,0.0
15.86362338066101,0.06533414125442505,3.7883479595184326,-11.976837158203125,-0.011568278465221946,0.004525423049926758,0.1306912899017334,3.8733732197642716,-12.336812428782544,-0.2816378324395854,0.6888943283916632,-0.9147553554823304,-0.33278927873652836,-0.799820470345277,3.9960193064643037,3.7541431319523197,-12.29957232468295,-12.405618295287464,0.0,0.0
15.872440099716187,0.06533414125442505,3.7883479595184326,-11.976837158203125,-0.011568278465221946,0.004906177520751953,0.1306912899017334,3.8713005867407495,-12.319585284401848,-0.3016378324395854,0.6881528389477618,-1.0,-0.2571158804480977,-0.7999102351726386,4.032047939146644,3.714698500381899,-12.25947318998709,-12.414151667578004,0.0,0.0
15.887319326400757,0.06941195577383041,3.771104574203491,-11.952421188354492,-0.015825387517281783,0.003048419952392578,0.1306912899017334,3.868840490219947,-12.30089716308844,-0.32163783243958544,0.6893715552556907,-1.0,-0.18332356890657417,-0.7999551175863193,4.081162540496869,3.6614386329846296,-12.206750972626901,-12.432419596176803,0.0,0.0
15.89522933959961,0.06941195577383041,3.771104574203491,-11.952421188354492,-0.015825387517281783,0.0030298233032226562,0.1306912899017334,3.865971038420448,-12.280728334192226,-0.34163783243958545,0.6886349284898928,-1.0,-0.1358608331281526,-0.7999775587931597,4.149649173066537,3.5880318073733557,-12.13559924702368,-12.46619507915321,0.0,0.0
15.90399980545044,0.07378081977367401,3.753622531890869,-11.927961349487305,-0.020657686743273854,0.0024712085723876953,0.1306912899017334,3.862671452557294,-12.259056091568803,-0.36163783243958547,0.6895464787017138,-1.0,-0.07245012428627684,-0.7999887793965799,4.246725590597412,3.4852164862434836,-12.036726328710241,-12.52473033967422,0.0,0.0
15.91290283203125,0.07378081977367401,3.753622531890869,-11.927961349487305,-0.020657686743273854,0.0027451515197753906,0.1306912899017334,3.8589222396527374,-12.235854804493062,-0.3816378324395855,0.6888144776758449,-1.0,-0.03174136188537862,-0.7910721519510494,4.385113372680153,3.340229532434435,-11.895266474890237,-12.622845708247382,0.0,0.0
15.922081708908081,0.08094629645347595,3.7269513607025146,-11.891213417053223,-0.02917052680839538,0.0029234886169433594,0.1306912899017334,3.8547053628147205,-12.211095977915056,-0.4016378324395855,0.6904721450262169,-1.0,0.04865355800986716,-0.6977269518905564,4.581598846046332,3.136245633259143,-11.688311146572053,-12.783398462414086,0.0,0.0
15.932297945022583,0.08094629645347595,3.7269513607025146,-11.891213417053223,-0.02917052680839538,0.002830028533935547,0.1306912899017334,3.850004408515461,-12.184748321862843,-0.4216378324395855,0.6897500228888277,-1.0,0.13633679179243116,-0.5315325812485399,4.86267013295713,2.8467405926723104,-11.383990063457071,-13.038201892373053,0.0,0.0
15.942971229553223,0.08616278320550919,3.7088863849639893,-11.866660118103027,-0.03570159551132067,0.004914999008178711,0.1306912899017334,3.8889936126237594,-12.405418785185343,-0.1736096857270561,0.6905850526860168,-1.0,0.28913778281334257,-0.22779412894080717,3.917734136720524,3.860557172008276,-12.402617869656954,-12.416553824224938,0.0,0.0
16.098625659942627,0.08616278320550919,3.7088863849639893,-11.866660118103027,-0.03570159551132067,0.0021903514862060547,0.14222168922424316,3.8885097889009184,-12.396027101738161,-0.1936096857270561,0.6643061512565694,-1.0,0.4423964479693398,0.2752117160996701,3.928346141742018,3.8492192332669153,-12.390011690141128,-12.411786666418713,0.0,0.0
16.108285903930664,0.15975189208984375,3.5218918323516846,-11.620928764343262,-0.11309172928313736,0.006497859954833984,0.14222168922424316,3.8877656825831424,-12.385224884929881,-0.21360968572705613,0.6799573174160352,1.0,0.5496775135785379,0.5376058580498351,3.9414538702010593,3.834889769718198,-12.374205785974109,-12.407399093665115,0.0,0.0
16.11850333213806,0.15975189208984375,3.5218918323516846,-11.620928764343262,-0.11309172928313736,0.0024347305297851562,0.14222168922424316,3.8867365370769136,-12.373008904074709,-0.23360968572705615,0.6787074016009422,1.0,0.6247742595049766,0.6276438625725181,3.9578244580927175,3.816752107815974,-12.354481979167655,-12.404105895183536,0.0,0.0
16.127288103103638,0.17438852787017822,3.488633394241333,-11.580504417419434,-0.1255148161484676,0.0038118362426757812,0.14222168922424316,3.885397753016532,-12.359372848310606,-0.25360968572705617,0.6802069939778091,1.0,0.6773419816534836,0.6994570221690467,3.9786237147642423,3.7935910378910664,-12.329791370747134,-12.402946430097067,0.0,0.0
16.13525366783142,0.17438852787017822,3.488633394241333,-11.580504417419434,-0.1255148161484676,0.002618551254272461,0.14222168922424316,3.8837250659945624,-12.344307324783804,-0.2736096857270562,0.6792547274057373,1.0,0.7141393871574385,0.7378206101457442,4.005632683601986,3.7635766082983237,-12.29853234048466,-12.405506614129607,0.0,0.0
16.14369559288025,0.19154074788093567,3.453641891479492,-11.538918495178223,-0.13738495461878805,0.0035524368286132812,0.14222168922424316,3.8816947245156395,-12.327799866759355,-0.2936096857270562,0.6806041744081677,1.0,0.7398975710102069,0.7677053366442603,4.041581552776016,3.723930570490287,-12.258314061159043,-12.414155411647897,0.0,0.0
16.152769088745117,0.19735653698444366,3.4416568279266357,-11.52498722076416,-0.14105571835697905,0.0025632381439208984,0.14222168922424316,3.8792836676411193,-12.30983495161429,-0.3136096857270562,0.6802374404015915,1.0,0.7579282997071448,0.7824691410891328,4.09064246224109,3.670433927746842,-12.205448203683922,-12.432553156651862,0.0,0.0
16.162318229675293,0.20321927964687347,3.429497003555298,-11.511038780212402,-0.14451784850155674,0.0034151077270507812,0.14222168922424316,3.876469701800417,-12.290394028639065,-0.33360968572705624,0.6798868694521752,1.0,0.7705498097950014,0.7912345705445665,4.1591118433637035,3.596744950134013,-12.134125813023338,-12.466474722675999,0.0,0.0
16.172024250030518,0.20912761986255646,3.417156934738159,-11.49707317352295,-0.14779971291778027,0.004094839096069336,0.14222168922424316,3.8732316762550187,-12.269455556543269,-0.35360968572705626,0.6795392722993272,1.0,0.779384866856501,0.7949972913539838,4.256216877022322,3.4935930688061805,-12.035051415435557,-12.525175480882327,0.0,0.0
16.182634592056274,0.22107616066932678,3.3919293880462646,-11.469083786010742,-0.15404913653361268,0.003189563751220703,0.14222168922424316,3.8695496567129943,-12.246995050533126,-0.3736096857270563,0.6797628730966536,1.0,0.7855694067995507,0.7888538157816173,4.394681222446399,3.348213496369525,-11.89335104868873,-12.623483354464506,0.0,0.0
16.33505606651306,0.22107616066932678,3.3919293880462646,-11.469083786010742,-0.15404913653361268,0.002637147903442383,0.14390778541564941,3.8654050966052176,-12.22298513880121,-0.3936096857270563,0.6922937697294615,-1.0,0.7898985847596854,0.7916458945937046,4.591301779502696,3.143770809606858,-11.686094832364702,-12.784276351954432,0.0,0.0
16.349047422409058,0.35156959295272827,3.093137264251709,-11.175092697143555,-0.19025765349677073,0.00507807731628418,0.14390778541564941,3.8887826875044667,-12.400899178279923,-0.1836096857270561,0.7063278826539386,0.03189920185119188,0.7929290093317798,0.734706483431754,3.917734136720524,3.860557172008276,-12.402617869656954,-12.416553824224938,0.0,0.0
16.358389616012573,0.35156959295272827,3.093137264251709,-11.175092697143555,-0.19025765349677073,0.003603219985961914,0.14390778541564941,3.8881718199596285,-12.390802439819614,-0.20360968572705612,0.70545192397394,-0.1799148556496004,0.7950503065322458,0.767353241715877,3.928346141742018,3.8492192332669153,-12.390011690141128,-12.411786666418713,0.0,0.0
16.368350505828857,0.3649969696998596,3.0602846145629883,-11.144715309143066,-0.19015344922426572,0.0029745101928710938,0.14390778541564941,3.887288282954346,-12.379293937175598,-0.22360968572705614,0.7066804361140421,-0.3488792530287239,0.7818089739393322,0.7836766208579385,3.9414538702010593,3.834889769718198,-12.374205785974109,-12.407399093665115,0.0,0.0
16.37789034843445,0.3649969696998596,3.0602846145629883,-11.144715309143066,-0.19015344922426572,0.003719806671142578,0.14390778541564941,3.8861073763276544,-12.366368900422104,-0.24360968572705616,0.7060762380571489,-0.5689905070250778,0.7774682042835556,0.7918383104289693,3.9578244580927175,3.816752107815974,-12.354481979167655,-12.404105895183536,0.0,0.0
16.39031958580017,0.3852001428604126,3.007194995880127,-11.098793029785156,-0.18905938152036075,0.0037200450897216797,0.14390778541564941,3.884604645950155,-12.352019477307138,-0.2636096857270562,0.7073862122426736,-0.6670352804004172,0.7372645462514581,0.7685493346063479,3.9786237147642423,3.7935910378910664,-12.329791370747134,-12.402946430097067,0.0,0.0
16.400038242340088,0.39191433787345886,2.9888832569122314,-11.08345890045166,-0.1885511791503645,0.003042936325073242,0.14390778541564941,3.882756061633152,-12.336234736403474,-0.2836096857270562,0.7072946946181212,-0.8306749347742779,0.6989426590411097,0.7263439885105338,4.005632683601986,3.7635766082983237,-12.29853234048466,-12.405506614129607,0.0,0.0
16.408599853515625,0.3985976278781891,2.970555305480957,-11.068142890930176,-0.18792178845842483,0.0032024383544921875,0.14390778541564941,3.880538194993967,-12.319000680167896,-0.3036096857270562,0.7072103641524868,-0.991539533856242,0.6566138414967856,0.6578976119077952,4.041581552776016,3.723930570490287,-12.258314061159043,-12.414155411647897,0.0,0.0
16.417866468429565,0.3985976278781891,2.970555305480957,-11.068142890930176,-0.18792178845842483,0.0027723312377929688,0.14390778541564941,3.877928396748859,-12.300300267849673,-0.32360968572705623,0.7066355966615957,-1.0,0.628526646785461,0.5925914487801978,4.09064246224109,3.670433927746842,-12.205448203683922,-12.432553156651862,0.0,0.0
16.571669101715088,0.5182254910469055,2.6011850833892822,-10.75965404510498,-0.15883343156154686,0.0049283504486083984,0.1410961151123047,3.8749049729142517,-12.280113448158946,-0.34360968572705625,0.691528951521726,1.0,0.09674183003285292,-0.2936790580324709,4.1591118433637035,3.596744950134013,-12.134125813023338,-12.466474722675999,0.0,0.0
16.58393931388855,0.5281713604927063,2.5635361671447754,-10.728192329406738,-0.15509913580250417,0.0031425952911376953,0.1410961151123047,3.871447359407963,-12.258417201576622,-0.36360968572705626,0.6917072555300819,1.0,-0.08079400433566604,-0.00667249936236739,4.256216877022322,3.4935930688061805,-12.035051415435557,-12.525175480882327,0.0,0.0
16.592676877975464,0.53298419713974,2.5446062088012695,-10.712434768676758,-0.15322333066766863,0.003128528594970703,0.1410961151123047,3.8675362945547773,-12.235185592159572,-0.3836096857270563,0.6912785768763886,1.0,-0.1560458569095786,0.08868495733565153,4.394681222446399,3.348213496369525,-11.89335104868873,-12.623483354464506,0.0,0.0
16.602548360824585,0.5422718524932861,2.5065126419067383,-10.680856704711914,-0.14950843485994164,0.0026328563690185547,0.1410961151123047,3.8631539890148034,-12.2103898286685,-0.4036096857270563,0.6911313596905402,1.0,-0.2252393069675184,0.12138171804042056,4.591301779502696,3.143770809606858,-11.686094832364702,-12.784276351954432,0.0,0.0
16.614333629608154,0.5422718524932861,2.5065126419067383,-10.680856704711914,-0.14950843485994164,0.003340482711791992,0.1410961151123047,3.8885097889009184,-12.396027101738161,-0.1936096857270561,0.6904257729171859,1.0,-0.25022964560564787,0.12079393147656273,3.917734136720524,3.860557172008276,-12.402617869656954,-12.416553824224938,0.0,0.0
16.624077796936035,0.5554412007331848,2.4489850997924805,-10.633851051330566,-0.1438308737688463,0.0034055709838867188,0.1410961151123047,3.8877656825831424,-12.385224884929881,-0.21360968572705613,0.6903845701607934,1.0,-0.32538431365210063,0.13453430139391243,3.928346141742018,3.8492192332669153,-12.390011690141128,-12.411786666418713,0.0,0.0
16.632365465164185,0.5554412007331848,2.4489850997924805,-10.633851051330566,-0.1438308737688463,0.0030503273010253906,0.1410961151123047,3.8867365370769136,-12.373008904074709,-0.23360968572705615,0.6897015084569013,1.0,-0.3537060440105554,0.12955874758242117,3.9414538702010593,3.834889769718198,-12.374205785974109,-12.407399093665115,0.0,0.0
16.64199471473694,0.5637723803520203,2.410513401031494,-10.60300064086914,-0.13896999013404257,0.0031485557556152344,0.1410961151123047,3.885397753016532,-12.359372848310606,-0.25360968572705617,0.6898666754783921,1.0,-0.396904796546243,0.13465567310983154,3.9578244580927175,3.816752107815974,-12.354481979167655,-12.404105895183536,0.0,0.0
16.65278148651123,0.5677343010902405,2.3911187648773193,-10.587505340576172,-0.13614822638385427,0.002822399139404297,0.1410961151123047,3.8837250659945624,-12.344307324783804,-0.2736096857270562,0.6897373331293758,1.0,-0.42537271495324697,0.13670824452065938,3.9786237147642423,3.7935910378910664,-12.329791370747134,-12.402946430097067,0.0,0.0
16.811960697174072,0.5677343010902405,2.3911187648773193,-10.587505340576172,-0.13614822638385427,0.00444483757019043,0.1492936611175537,3.8816947245156395,-12.327799866759355,-0.2936096857270562,0.6998351906989146,1.0,-0.43404772577724104,0.13409536390484103,4.005632683601986,3.7635766082983237,-12.29853234048466,-12.405506614129607,0.0,0.0
16.82222867012024,0.616146445274353,1.930881381034851,-10.229992866516113,-0.06321932579955593,0.003610372543334961,0.1492936611175537,3.8792836676411193,-12.30983495161429,-0.3136096857270562,0.713786900400799,1.0,-0.41761746528486293,0.10686927068894699,4.041581552776016,3.723930570490287,-12.258314061159043,-12.414155411647897,0.0,0.0
16.834715843200684,0.616146445274353,1.930881381034851,-10.229992866516113,-0.06321932579955593,0.0024046897888183594,0.1492936611175537,3.876469701800417,-12.290394028639065,-0.33360968572705624,0.7131994648830022,1.0,-0.4115932678530086,0.09952492430307912,4.09064246224109,3.670433927746842,-12.205448203683922,-12.432553156651862,0.0,0.0
16.842731714248657,0.61728835105896,1.8867332935333252,-10.195988655090332,-0.057856863225592255,0.0026738643646240234,0.1492936611175537,3.8732316762550187,-12.269455556543269,-0.35360968572705626,0.7139832792201312,1.0,-0.39792930406849947,0.08700003998991648,4.1591118433637035,3.596744950134013,-12.134125813023338,-12.466474722675999,0.0,0.0
16.85211944580078,0.6177375912666321,1.8646639585494995,-10.178924560546875,-0.05527808745332004,0.002342700958251953,0.1492936611175537,3.8695496567129943,-12.246995050533126,-0.3736096857270563,0.7140294162116175,1.0,-0.3870147940799124,0.07919340260978369,4.256216877022322,3.4935930688061805,-12.035051415435557,-12.525175480882327,0.0,0.0
16.86218523979187,0.6177375912666321,1.8646639585494995,-10.178924560546875,-0.05527808745332004,0.0030248165130615234,0.1492936611175537,3.8654050966052176,-12.22298513880121,-0.3936096857270563,0.7134450262877248,1.0,-0.38306201372495,0.07840180970355332,4.394681222446399,3.348213496369525,-11.89335104868873,-12.623483354464506,0.0,0.0
16.87208318710327,0.6175956130027771,1.7975573539733887,-10.127230644226074,-0.04798060535124413,0.004271745681762695,0.1492936611175537,3.860781005549321,-12.197395628243056,-0.4136096857270563,0.714414134233428,1.0,-0.3642614395893492,0.06212780122462619,4.591301779502696,3.143770809606858,-11.686094832364702,-12.784276351954432,0.0,0.0
16.884692430496216,0.6175956130027771,1.7975573539733887,-10.127230644226074,-0.04798060535124413,0.002258777618408203,0.1492936611175537,3.8881718199596285,-12.390802439819614,-0.20360968572705612,0.7138330074258612,1.0,-0.35791176340092073,0.06075386804177721,3.917734136720524,3.860557172008276,-12.402617869656954,-12.416553824224938,0.0,0.0
17.020456552505493,0.5957828164100647,1.4148002862930298,-9.828295707702637,-0.02247506236227567,0.0020101070404052734,0.12708234786987305,3.887288282954346,-12.379293937175598,-0.22360968572705614,0.7182810483177657,1.0,-0.25114237918067706,-0.07142985336977557,3.928346141742018,3.8492192332669153,-12.390011690141128,-12.411786666418713,0.0,0.0
17.029320001602173,0.5957828164100647,1.4148002862930298,-9.828295707702637,-0.02247506236227567,0.0030059814453125,0.12708234786987305,3.8861073763276544,-12.366368900422104,-0.24360968572705616,0.7177179331981712,1.0,-0.23700463733746877,-0.03423730038326374,3.9414538702010593,3.834889769718198,-12.374205785974109,-12.407399093665115,0.0,0.0
17.03608274459839,0.5957828164100647,1.4148002862930298,-9.828295707702637,-0.02247506236227567,0.002125978469848633,0.12708234786987305,3.884604645950155,-12.352019477307138,-0.2636096857270562,0.7171570533739985,1.0,-0.23078844567444645,-0.015715238215913543,3.9578244580927175,3.816752107815974,-12.354481979167655,-12.404105895183536,0.0,0.0
17.045000791549683,0.5904509425163269,1.3484392166137695,-9.774380683898926,-0.020222859613370107,0.004483938217163086,0.12708234786987305,3.882756061633152,-12.336234736403474,-0.2836096857270562,0.7185789750526618,0.9329955311266956,-0.20807153770365783,-0.028664398783923697,3.9786237147642423,3.7935910378910664,-12.329791370747134,-12.402946430097067,0.0,0.0
17.054113626480103,0.5904509425163269,1.3484392166137695,-9.774380683898926,-0.020222859613370107,0.0020754337310791016,0.12708234786987305,3.880538194993967,-12.319000680167896,-0.3036096857270562,0.7180240974405517,0.8979994943608568,-0.2042754233302421,-0.014248178093475684,4.005632683601986,3.7635766082983237,-12.29853234048466,-12.405506614129607,0.0,0.0
17.065598011016846,0.586716890335083,1.304867148399353,-9.738407135009766,-0.018996989356904283,0.0023162364959716797,0.12708234786987305,3.877928396748859,-12.300300267849673,-0.32360968572705623,0.718823209503475,0.8250971221644874,-0.18856034067831193,-0.02166805022406061,4.041581552776016,3.723930570490287,-12.258314061159043,-12.414155411647897,0.0,0.0
17.072441816329956,0.5809204578399658,1.2405915260314941,-9.684442520141602,-0.017469927253425513,0.0026395320892333984,0.12708234786987305,3.8749049729142517,-12.280113448158946,-0.34360968572705625,0.7203348517954655,0.7164528646262815,-0.1677479643087538,-0.030306411602128117,4.09064246224109,3.670433927746842,-12.205448203683922,-12.432553156651862,0.0,0.0
17.082356691360474,0.5809204578399658,1.2405915260314941,-9.684442520141602,-0.017469927253425513,0.00238037109375,0.12708234786987305,3.871447359407963,-12.258417201576622,-0.36360968572705626,0.7197891495525371,0.6887612373135352,-0.16356220736831206,-0.016640539439565352,4.1591118433637035,3.596744950134013,-12.134125813023338,-12.466474722675999,0.0,0.0
17.092039346694946,0.5789451003074646,1.2194713354110718,-9.666446685791016,-0.017020820930147645,0.002409696578979492,0.12708234786987305,3.8675362945547773,-12.235185592159572,-0.3836096857270563,0.7199662867251978,0.6327844217669985,-0.15634729511836598,-0.014922909129602965,4.256216877022322,3.4935930688061805,-12.035051415435557,-12.525175480882327,0.0,0.0
17.102161645889282,0.5769516229629517,1.1985105276107788,-9.648443222045898,-0.016600469325334807,0.0021398067474365234,0.12708234786987305,3.8631539890148034,-12.2103898286685,-0.4036096857270563,0.7201564421199341,0.5775458111431807,-0.14975707685417006,-0.013756135428628219,4.394681222446399,3.348213496369525,-11.89335104868873,-12.623483354464506,0.0,0.0
17.112141609191895,0.5728984475135803,1.1570976972579956,-9.612415313720703,-0.015845408429022725,0.002532482147216797,0.12708234786987305,3.8582842926685355,-12.183998334820911,-0.4236096857270563,0.7211007547053879,0.48943621239172264,-0.1398464085987431,-0.016972124816648698,4.591301779502696,3.143770809606858,-11.686094832364702,-12.784276351954432,0.0,0.0
17.244023084640503,0.5728984475135803,1.1570976972579956,-9.612415313720703,-0.015845408429022725,0.002409219741821289,0.12378525733947754,3.8877656825831424,-12.385224884929881,-0.21360968572705613,0.7158073723283498,0.200573912734767,-0.13681826694069643,-0.010761623527522718,3.917734136720524,3.860557172008276,-12.402617869656954,-12.416553824224938,0.0,0.0
17.253056049346924,0.5319083333015442,0.8300000429153442,-9.305328369140625,-0.0142568973055964,0.0019328594207763672,0.12378525733947754,3.8867365370769136,-12.373008904074709,-0.23360968572705615,0.7302096667867737,-0.40234009638376533,-0.09149003263203784,-0.04727839131294882,3.928346141742018,3.8492192332669153,-12.390011690141128,-12.411786666418713,0.0,0.0
17.262258052825928,0.529200553894043,0.8133741617202759,-9.286956787109375,-0.014332366251032791,0.003724813461303711,0.12378525733947754,3.885397753016532,-12.359372848310606,-0.25360968572705617,0.7307280888263599,-0.4798307174502586,-0.0802940411114818,-0.022136083229855462,3.9414538702010593,3.834889769718198,-12.374205785974109,-12.407399093665115,0.0,0.0
17.2719247341156,0.5238479971885681,0.780731737613678,-9.250140190124512,-0.014614296262333681,0.0022308826446533203,0.12378525733947754,3.8837250659945624,-12.344307324783804,-0.2736096857270562,0.7323205009386465,-0.6023476207277759,-0.06949193791357838,-0.008507424297667767,3.9578244580927175,3.816752107815974,-12.354481979167655,-12.404105895183536,0.0,0.0
17.282121658325195,0.5212051272392273,0.7647196054458618,-9.231695175170898,-0.014775958555609509,0.002489328384399414,0.12378525733947754,3.8816947245156395,-12.327799866759355,-0.2936096857270562,0.7328295299364911,-0.6812949004641482,-0.061982881827634694,0.0015150744512796145,3.9786237147642423,3.7935910378910664,-12.329791370747134,-12.402946430097067,0.0,0.0
17.292210340499878,0.5185853838920593,0.7489192485809326,-9.213229179382324,-0.01495002097877382,0.0024025440216064453,0.12378525733947754,3.8792836676411193,-12.30983495161429,-0.3136096857270562,0.7332886868308434,-0.757691482756419,-0.056004733697274656,0.008102708694385776,4.005632683601986,3.7635766082983237,-12.29853234048466,-12.405506614129607,0.0,0.0
17.302297592163086,0.5159896612167358,0.7333340048789978,-9.194746971130371,-0.015128733005803585,0.002482175827026367,0.12378525733947754,3.876469701800417,-12.290394028639065,-0.33360968572705624,0.7337305144810944,-0.8294756044497748,-0.05094198480282891,0.012679225101172198,4.041581552776016,3.723930570490287,-12.258314061159043,-12.414155411647897,0.0,0.0
17.312002182006836,0.5108739137649536,0.7028152942657471,-9.157737731933594,-0.015464118223955575,0.0025093555450439453,0.12378525733947754,3.8732316762550187,-12.269455556543269,-0.35360968572705626,0.735129957673203,-0.9209257059135996,-0.044476167543782766,0.015979019203010356,4.09064246224109,3.670433927746842,-12.205448203683922,-12.432553156651862,0.0,0.0
17.321939706802368,0.5083577036857605,0.6878821849822998,-9.13922119140625,-0.01561926807139638,0.0027647018432617188,0.12378525733947754,3.8695496567129943,-12.246995050533126,-0.3736096857270563,0.7355668275076589,-0.9743625459928686,-0.040270086383537164,0.01884949324655573,4.1591118433637035,3.596744950134013,-12.134125813023338,-12.466474722675999,0.0,0.0
17.33215641975403,0.5058689117431641,0.6731658577919006,-9.120689392089844,-0.015754130754537077,0.0026154518127441406,0.12378525733947754,3.8654050966052176,-12.22298513880121,-0.3936096857270563,0.7359962379326489,-1.0,-0.03701715730668829,0.020790510163535295,4.256216877022322,3.4935930688061805,-12.035051415435557,-12.525175480882327,0.0,0.0
17.463382482528687,0.5058689117431641,0.6731658577919006,-9.120689392089844,-0.015754130754537077,0.002657651901245117,0.12320661544799805,3.860781005549321,-12.197395628243056,-0.4136096857270563,0.7244439651089991,-1.0,-0.03551762294004869,0.021699359031977245,4.394681222446399,3.348213496369525,-11.89335104868873,-12.623483354464506,0.0,0.0
17.471916913986206,0.4674350917339325,0.45199620723724365,-8.779012680053711,-0.016788389923749633,0.003130197525024414,0.12320661544799805,3.855662114543504,-12.170193579191187,-0.4336096857270563,0.7397693740735809,-0.5963229663620807,-0.01438974435429737,0.03317815163479206,4.591301779502696,3.143770809606858,-11.686094832364702,-12.784276351954432,0.0,0.0
17.48219347000122,0.4656163454055786,0.4414752125740051,-8.759934425354004,-0.01674772832024697,0.002349376678466797,0.12320661544799805,3.887288282954346,-12.379293937175598,-0.22360968572705614,0.7399621833703948,-0.60652330350191,-0.0107032885571039,0.028343067821641636,3.917734136720524,3.860557172008276,-12.402617869656954,-12.416553824224938,0.0,0.0
17.492092847824097,0.4638251066207886,0.43107378482818604,-8.740869522094727,-0.0166944334229729,0.002493143081665039,0.12320661544799805,3.8861073763276544,-12.366368900422104,-0.24360968572705616,0.7401380031760005,-0.6164702429799773,-0.009105103256125928,0.025495065619155256,3.928346141742018,3.8492192332669153,-12.390011690141128,-12.411786666418713,0.0,0.0
17.502228260040283,0.46206140518188477,0.42078638076782227,-8.721820831298828,-0.016630559339570472,0.002429485321044922,0.12320661544799805,3.884604645950155,-12.352019477307138,-0.2636096857270562,0.740311564192287,-0.6263516901260879,-0.007964751535810048,0.02389267479194016,3.9414538702010593,3.834889769718198,-12.374205785974109,-12.407399093665115,0.0,0.0
17.512335538864136,0.46032530069351196,0.41060757637023926,-8.702788352966309,-0.0165536395482426,0.003129720687866211,0.12320661544799805,3.882756061633152,-12.336234736403474,-0.2836096857270562,0.7404243921860632,-0.6372770270362985,-0.0068889066669141725,0.02293665223383994,3.9578244580927175,3.816752107815974,-12.354481979167655,-12.404105895183536,0.0,0.0
17.522082090377808,0.46032530069351196,0.41060757637023926,-8.702788352966309,-0.0165536395482426,0.0022165775299072266,0.12320661544799805,3.880538194993967,-12.319000680167896,-0.3036096857270562,0.7398412470058232,-0.6769647347619719,-0.0066062089992406075,0.02219757474059318,3.9786237147642423,3.7935910378910664,-12.329791370747134,-12.402946430097067,0.0,0.0
17.532148361206055,0.45537835359573364,0.38611289858818054,-8.644593238830566,-0.016332967451102,0.002597808837890625,0.12320661544799805,3.877928396748859,-12.300300267849673,-0.32360968572705623,0.7413668035107303,-0.5577457621480644,-0.004603949050779475,0.021880754294384443,4.005632683601986,3.7635766082983237,-12.29853234048466,-12.405506614129607,0.0,0.0
17.542070150375366,0.4537838399410248,0.37806084752082825,-8.62527084350586,-0.0162498274061703,0.004342079162597656,0.12320661544799805,3.8749049729142517,-12.280113448158946,-0.34360968572705625,0.7414475698083146,-0.5390649381203299,-0.0037141696765592017,0.021288775718453366,4.041581552776016,3.723930570490287,-12.258314061159043,-12.414155411647897,0.0,0.0
17.552773237228394,0.45221516489982605,0.3700612783432007,-8.605986595153809,-0.016155234859142845,0.0024538040161132812,0.12320661544799805,3.871447359407963,-12.258417201576622,-0.36360968572705626,0.7415070686999706,-0.5205299022682067,-0.003108698793643226,0.02075669034997995,4.09064246224109,3.670433927746842,-12.205448203683922,-12.432553156651862,0.0,0.0
17.562122344970703,0.4506723880767822,0.3621108829975128,-8.586739540100098,-0.016050860859690666,0.002517223358154297,0.12320661544799805,3.8675362945547773,-12.235185592159572,-0.3836096857270563,0.7415498168040391,-0.5016783421199382,-0.002598144202422918,0.020321721126559365,4.1591118433637035,3.596744950134013,-12.134125813023338,-12.466474722675999,0.0,0.0
17.695650577545166,0.4506723880767822,0.3621108829975128,-8.586739540100098,-0.016050860859690666,0.0025777816772460938,0.1253666877746582,3.8631539890148034,-12.2103898286685,-0.4036096857270563,0.7310257023314701,-0.6590279301269915,-0.002071681640779831,0.020071204352917007,4.256216877022322,3.4935930688061805,-12.035051415435557,-12.525175480882327,0.0,0.0
17.704846620559692,0.42985859513282776,0.23039254546165466,-8.249185562133789,-0.013540070467217044,0.0019865036010742188,0.1253666877746582,3.8582842926685355,-12.183998334820911,-0.4236096857270563,0.7404673551856563,0.2255938704304864,0.0009799943810001946,0.017107997868741228,4.394681222446399,3.348213496369525,-11.89335104868873,-12.623483354464506,0.0,0.0
17.712469339370728,0.4290434718132019,0.2234949767589569,-8.230874061584473,-0.013398396671116732,0.0024759769439697266,0.1253666877746582,3.852912858009248,-12.155976828448114,-0.44360968572705634,0.7403376184063465,0.25247756014241474,0.0023093100189731834,0.01687556103015373,4.591301779502696,3.143770809606858,-11.686094832364702,-12.784276351954432,0.0,0.0
17.721965789794922,0.4282470941543579,0.21658290922641754,-8.2125883102417,-0.013254413369056174,0.0027871131896972656,0.1253666877746582,3.8867365370769136,-12.373008904074709,-0.23360968572705615,0.7402025996014545,0.28048712152375654,0.002864672613022558,0.016528155416211925,3.917734136720524,3.860557172008276,-12.402617869656954,-12.416553824224938,0.0,0.0
17.73232078552246,0.4267112910747528,0.20270660519599915,-8.176118850708008,-0.012963802373762122,0.002348184585571289,0.1253666877746582,3.885397753016532,-12.359372848310606,-0.25360968572705617,0.7405411398993932,0.368755002509722,0.003365490646148957,0.01607533013718767,3.928346141742018,3.8492192332669153,-12.390011690141128,-12.411786666418713,0.0,0.0
17.742035627365112,0.4259716272354126,0.19573694467544556,-8.157925605773926,-0.012810278588923786,0.0025212764739990234,0.1253666877746582,3.8837250659945624,-12.344307324783804,-0.2736096857270562,0.7403407274348967,0.3977880604641384,0.0036518027775149526,0.0157755236672611,3.9414538702010593,3.834889769718198,-12.374205785974109,-12.407399093665115,0.0,0.0
17.7521231174469,0.4245680272579193,0.18172495067119598,-8.121631622314453,-0.01247464696347538,0.0023946762084960938,0.1253666877746582,3.8816947245156395,-12.327799866759355,-0.2936096857270562,0.7405404189352084,0.47402217944284086,0.004044972122093206,0.015351141993704302,3.9578244580927175,3.816752107815974,-12.354481979167655,-12.404105895183536,0.0,0.0
17.762054920196533,0.42508023977279663,0.17517688870429993,-8.103172302246094,-0.012292134911252639,0.0026352405548095703,0.1253666877746582,3.8792836676411193,-12.30983495161429,-0.3136096857270562,0.7403796089354425,0.48893323571836544,0.005174748945121179,0.014861719862485353,3.9786237147642423,3.7935910378910664,-12.329791370747134,-12.402946430097067,0.0,0.0
17.771915435791016,0.4255845546722412,0.1685919314622879,-8.08476448059082,-0.012111688187400061,0.002080678939819336,0.1253666877746582,3.876469701800417,-12.290394028639065,-0.33360968572705624,0.740225397573214,0.4993861790073351,0.006456448296151231,0.014276857269915247,4.005632683601986,3.7635766082983237,-12.29853234048466,-12.405506614129607,0.0,0.0
17.78222918510437,0.42608168721199036,0.16196994483470917,-8.06639289855957,-0.011920755396656118,0.002444028854370117,0.1253666877746582,3.8732316762550187,-12.269455556543269,-0.35360968572705626,0.7400732906027455,0.5056592573760152,0.007742763978723612,0.013641079523411904,4.041581552776016,3.723930570490287,-12.258314061159043,-12.414155411647897,0.0,0.0
17.792051553726196,0.42705681920051575,0.14861677587032318,-8.029754638671875,-0.011516461376497488,0.002773284912109375,0.1253666877746582,3.8695496567129943,-12.246995050533126,-0.3736096857270563,0.7403914167241735,0.5343184349170242,0.009881296992424257,0.01264722727005552,4.09064246224109,3.670433927746842,-12.205448203683922,-12.432553156651862,0.0,0.0
17.92613911628723,0.42705681920051575,0.14861677587032318,-8.029754638671875,-0.011516461376497488,0.0023386478424072266,0.1248929500579834,3.8654050966052176,-12.22298513880121,-0.3936096857270563,0.734294161223871,0.27764666895559365,0.010777753142261867,0.012121633629896631,4.1591118433637035,3.596744950134013,-12.134125813023338,-12.466474722675999,0.0,0.0
17.93494415283203,0.43572643399238586,0.030470455065369606,-7.723324775695801,-0.00778785637526829,0.002101421356201172,0.1248929500579834,3.860781005549321,-12.197395628243056,-0.4136096857270563,0.7420528196277738,0.31283085051791104,0.02232921711150611,0.007351080178413218,4.256216877022322,3.4935930688061805,-12.035051415435557,-12.525175480882327,0.0,0.0
17.942107439041138,0.43629372119903564,0.02340414933860302,-7.705540657043457,-0.007579610461478634,0.0024559497833251953,0.1248929500579834,3.855662114543504,-12.170193579191187,-0.4336096857270563,0.7419961073860984,0.2753370257626596,0.024873745949782457,0.005092368946614224,4.394681222446399,3.348213496369525,-11.89335104868873,-12.623483354464506,0.0,0.0
17.952107191085815,0.4374365210533142,0.009320481680333614,-7.670048236846924,-0.007168550791185089,0.0024640560150146484,0.1248929500579834,3.8500350374496044,-12.141343388934336,-0.45360968572705634,0.7424838022507346,0.22294569629107996,0.026297046285343673,0.0036949913024976744,4.591301779502696,3.143770809606858,-11.686094832364702,-12.784276351954432,0.0,0.0
17.962209701538086,0.4380124807357788,0.0023093102499842644,-7.652339458465576,-0.006970363945229357,0.002524137496948242,0.1248929500579834,3.8861073763276544,-12.366368900422104,-0.24360968572705616,0.7424390418953294,0.18293833340316817,0.027050450502329095,0.002606275817848863,3.917734136720524,3.860557172008276,-12.402617869656954,-12.416553824224938,0.0,0.0
17.97196388244629,0.43859052658081055,-0.004679939243942499,-7.634670734405518,-0.006777470843232663,0.002156496047973633,0.1248929500579834,3.884604645950155,-12.352019477307138,-0.2636096857270562,0.7423828270211603,0.1432885787783229,0.027657188207970775,0.0017228803719924538,3.928346141742018,3.8492192332669153,-12.390011690141128,-12.411786666418713,0.0,0.0
17.98238205909729,0.4391706883907318,-0.011644454672932625,-7.617028713226318,-0.006591327464421117,0.002563953399658203,0.1248929500579834,3.882756061633152,-12.336234736403474,-0.2836096857270562,0.7423229488011571,0.10447296033900413,0.028153451620504578,0.0009428135740431644,3.9414538702010593,3.834889769718198,-12.374205785974109,-12.407399093665115,0.0,0.0
17.99209451675415,0.44033804535865784,-0.02548861876130104,-7.58182430267334,-0.006237055094323117,0.0026655197143554688,0.1248929500579834,3.880538194993967,-12.319000680167896,-0.3036096857270562,0.7427903944590856,0.05571722433427345,0.028634847795526053,0.00027251796541389456,3.9578244580927175,3.816752107815974,-12.354481979167655,-12.404105895183536,0.0,0.0
18.002211809158325,0.4409255087375641,-0.03236351162195206,-7.564260959625244,-0.006070733460302881,0.0023603439331054688,0.1248929500579834,3.877928396748859,-12.300300267849673,-0.32360968572705623,0.7427415851989865,0.020259644152397227,0.0288519755835129,-0.00048311054506195236,3.9786237147642423,3.7935910378910664,-12.329791370747134,-12.402946430097067,0.0,0.0
18.012186527252197,0.4409255087375641,-0.03236351162195206,-7.564260959625244,-0.006070733460302881,0.002553224563598633,0.1248929500579834,3.8749049729142517,-12.280113448158946,-0.34360968572705625,0.7421650789216555,-0.005194129734055031,0.028956222368482776,-0.0012172392644030743,4.005632683601986,3.7635766082983237,-12.29853234048466,-12.405506614129607,0.0,0.0
18.148210525512695,0.4409255087375641,-0.03236351162195206,-7.564260959625244,-0.006070733460302881,0.002571582794189453,0.12690114974975586,3.871447359407963,-12.258417201576622,-0.36360968572705626,0.7371038442844066,-0.14060011555598784,0.02944171634454158,-0.0018852082475351167,4.041581552776016,3.723930570490287,-12.258314061159043,-12.414155411647897,0.0,0.0
18.156315088272095,0.45645684003829956,-0.15030615031719208,-7.266035079956055,-0.004118548985782084,0.0026483535766601562,0.12690114974975586,3.8675362945547773,-12.235185592159572,-0.3836096857270563,0.7456802117399433,-0.12944219696955883,0.029622247947579814,-0.003881965046161933,4.09064246224109,3.670433927746842,-12.205448203683922,-12.432553156651862,0.0,0.0
18.166945219039917,0.45645684003829956,-0.15030615031719208,-7.266035079956055,-0.004118548985782084,0.0029201507568359375,0.12690114974975586,3.8631539890148034,-12.2103898286685,-0.4036096857270563,0.7451054609370328,-0.15281039761314275,0.0297780762222707,-0.004687510349752993,4.1591118433637035,3.596744950134013,-12.134125813023338,-12.466474722675999,0.0,0.0
18.17432928085327,0.4591784179210663,-0.16848629713058472,-7.214236259460449,-0.003854548428307958,0.002935171127319336,0.12690114974975586,3.8582842926685355,-12.183998334820911,-0.4236096857270563,0.7461680097745663,-0.16028528623745592,0.029120277766684143,-0.005475126689033981,4.256216877022322,3.4935930688061805,-12.035051415435557,-12.525175480882327,0.0,0.0
18.18292260169983,0.4609697461128235,-0.18037231266498566,-7.17985725402832,-0.0036829430387632332,0.0023255348205566406,0.12690114974975586,3.852912858009248,-12.155976828448114,-0.44360968572705634,0.746689912609085,-0.172012155079956,0.02846180735559791,-0.005906904179410933,4.394681222446399,3.348213496369525,-11.89335104868873,-12.623483354464506,0.0,0.0
18.19210171699524,0.4609697461128235,-0.18037231266498566,-7.17985725402832,-0.0036829430387632332,0.0025055408477783203,0.12690114974975586,3.847027299611141,-12.126288409313307,-0.46360968572705635,0.7461180913164365,-0.1950768240390909,0.028434190747330956,-0.0061043666543730505,4.591301779502696,3.143770809606858,-11.686094832364702,-12.784276351954432,0.0,0.0
18.202199935913086,0.46275174617767334,-0.19206488132476807,-7.145577430725098,-0.003524906294492189,0.0027375221252441406,0.12690114974975586,3.885397753016532,-12.359372848310606,-0.25360968572705617,0.7465958814925144,-0.2037753549284204,0.027744110196973946,-0.0065368995509026894,3.917734136720524,3.860557172008276,-12.402617869656954,-12.416553824224938,0.0,0.0
18.21242332458496,0.4636392593383789,-0.19783802330493927,-7.128478527069092,-0.0034545428366217767,0.002599477767944336,0.12690114974975586,3.8837250659945624,-12.344307324783804,-0.2736096857270562,0.746532771347678,-0.2179165071137113,0.027326468515338917,-0.006747739061556102,3.928346141742018,3.8492192332669153,-12.390011690141128,-12.411786666418713,0.0,0.0
18.22196388244629,0.4645245373249054,-0.2035621851682663,-7.111408233642578,-0.0033881355261079077,0.002079010009765625,0.12690114974975586,3.8816947245156395,-12.327799866759355,-0.2936096857270562,0.7464614914076766,-0.2307770323989375,0.02692649515051679,-0.006962883050972275,3.9414538702010593,3.834889769718198,-12.374205785974109,-12.407399093665115,0.0,0.0
18.232256412506104,0.46540772914886475,-0.20923757553100586,-7.094367027282715,-0.0033261811532825265,0.002304553985595703,0.12690114974975586,3.8792836676411193,-12.30983495161429,-0.3136096857270562,0.7463886541593039,-0.24237501979778775,0.02652390908077988,-0.0071730405404852515,3.9578244580927175,3.816752107815974,-12.354481979167655,-12.404105895183536,0.0,0.0
18.242096662521362,0.4662887454032898,-0.21486446261405945,-7.077371120452881,-0.003270193656798648,0.002727031707763672,0.12690114974975586,3.876469701800417,-12.290394028639065,-0.33360968572705624,0.7463098535004443,-0.25271227814841746,0.026119787617294197,-0.00736792103273553,3.9786237147642423,3.7935910378910664,-12.329791370747134,-12.402946430097067,0.0,0.0
18.372750997543335,0.4662887454032898,-0.21486446261405945,-7.077371120452881,-0.003270193656798648,0.0026330947875976562,0.12212347984313965,3.8732316762550187,-12.269455556543269,-0.35360968572705626,0.7402596108463106,-0.36270146642497114,0.026535438973314836,-0.007418590430153425,4.005632683601986,3.7635766082983237,-12.29853234048466,-12.405506614129607,0.0,0.0
18.389105558395386,0.48062828183174133,-0.2994547188282013,-6.770659923553467,-0.002891449673696587,0.002270936965942383,0.12212347984313965,3.8695496567129943,-12.246995050533126,-0.3736096857270563,0.7486017425525249,-0.04220840530039521,0.01701778329680392,-0.012044853852293421,4.041581552776016,3.723930570490287,-12.258314061159043,-12.414155411647897,0.0,0.0
18.39545512199402,0.48062828183174133,-0.2994547188282013,-6.770659923553467,-0.002891449673696587,0.0026216506958007812,0.12212347984313965,3.8654050966052176,-12.22298513880121,-0.3936096857270563,0.7480355861286522,-0.0628043114880111,0.016965591667507048,-0.007963289321720506,4.09064246224109,3.670433927746842,-12.205448203683922,-12.432553156651862,0.0,0.0
18.403767585754395,0.4818466305732727,-0.30769410729408264,-6.737401485443115,-0.0029114075472659855,0.002475738525390625,0.12212347984313965,3.860781005549321,-12.197395628243056,-0.4136096857270563,0.7483912058042796,-0.033645615474513446,0.015354875096219885,-0.006163997061154639,4.1591118433637035,3.596744950134013,-12.134125813023338,-12.466474722675999,0.0,0.0
18.412163019180298,0.4818466305732727,-0.30769410729408264,-6.737401485443115,-0.0029114075472659855,0.0025527477264404297,0.12212347984313965,3.855662114543504,-12.170193579191187,-0.4336096857270563,0.7478275252656756,-0.054077582251586126,0.015089395493857124,-0.0047406251895085955,4.256216877022322,3.4935930688061805,-12.035051415435557,-12.525175480882327,0.0,0.0
18.421982049942017,0.4831751585006714,-0.3193599581718445,-6.688025951385498,-0.0029478948642437724,0.002299070358276367,0.12212347984313965,3.8500350374496044,-12.141343388934336,-0.45360968572705634,0.7486591137326422,0.0018670776659431565,0.01249898607137456,-0.004290808327489392,4.394681222446399,3.348213496369525,-11.89335104868873,-12.623483354464506,0.0,0.0
18.432252407073975,0.4836340844631195,-0.3232295513153076,-6.6716227531433105,-0.0029630359131365388,0.00287628173828125,0.12212347984313965,3.8438884283431003,-12.110806883768552,-0.47360968572705636,0.7485225735666727,0.008144530122050991,0.01148072557417564,-0.0032053968743915766,4.591301779502696,3.143770809606858,-11.686094832364702,-12.784276351954432,0.0,0.0
18.44221520423889,0.4845741391181946,-0.330946683883667,-6.63894510269165,-0.0029859226788723253,0.0029077529907226562,0.12212347984313965,3.884604645950155,-12.352019477307138,-0.2636096857270562,0.7487698035791501,0.03900519098885838,0.009950649985198597,-0.00247909283143682,3.917734136720524,3.860557172008276,-12.402617869656954,-12.416553824224938,0.0,0.0
18.452133178710938,0.48504638671875,-0.33479124307632446,-6.622654914855957,-0.0029942032971208257,0.002249479293823242,0.12212347984313965,3.882756061633152,-12.336234736403474,-0.2836096857270562,0.7486131469816594,0.042812961585041664,0.00917946222585447,-0.0016765990260952752,3.928346141742018,3.8492192332669153,-12.390011690141128,-12.411786666418713,0.0,0.0
18.462116479873657,0.48552554845809937,-0.33863064646720886,-6.606396675109863,-0.0029990669949802873,0.0026292800903320312,0.12212347984313965,3.880538194993967,-12.319000680167896,-0.3036096857270562,0.7484540032084942,0.0456501170134021,0.00850455012339952,-0.0011112806667026949,3.9414538702010593,3.834889769718198,-12.374205785974109,-12.407399093665115,0.0,0.0
18.471996545791626,0.48601147532463074,-0.3424654006958008,-6.590170383453369,-0.003002336858752737,0.002117633819580078,0.12212347984313965,3.877928396748859,-12.300300267849673,-0.32360968572705623,0.7482928493901648,0.04756635419050925,0.007904456573275804,-0.0006852073454888174,3.9578244580927175,3.816752107815974,-12.354481979167655,-12.404105895183536,0.0,0.0
18.60425639152527,0.48601147532463074,-0.3424654006958008,-6.590170383453369,-0.003002336858752737,0.002069711685180664,0.1227426528930664,3.8749049729142517,-12.280113448158946,-0.34360968572705625,0.7426779825464502,-0.08309585913811798,0.008280570432413521,-0.0003563714616205008,3.9786237147642423,3.7935910378910664,-12.329791370747134,-12.402946430097067,0.0,0.0
18.61318588256836,0.49529707431793213,-0.40211737155914307,-6.314990997314453,-0.0027779128117497768,0.0023696422576904297,0.1227426528930664,3.871447359407963,-12.258417201576622,-0.36360968572705626,0.7489916379913671,0.1438813232221824,0.0028268173009947397,-0.0011956274261099992,4.005632683601986,3.7635766082983237,-12.29853234048466,-12.405506614129607,0.0,0.0
18.62199854850769,0.4964883625507355,-0.40881529450416565,-6.283071041107178,-0.002739887042379903,0.002146482467651367,0.1227426528930664,3.8675362945547773,-12.235185592159572,-0.3836096857270563,0.7492616242360923,0.1472472765816193,0.0022801058513823706,0.0005495484315273073,4.041581552776016,3.723930570490287,-12.258314061159043,-12.414155411647897,0.0,0.0
18.632122039794922,0.497090220451355,-0.4121624231338501,-6.2671685218811035,-0.002722673998595709,0.0026268959045410156,0.1227426528930664,3.8631539890148034,-12.2103898286685,-0.4036096857270563,0.7491322628930065,0.13963029286157683,0.001925032033350023,0.0015391055922799324,4.09064246224109,3.670433927746842,-12.205448203683922,-12.432553156651862,0.0,0.0
18.642112016677856,0.4976962208747864,-0.4155074656009674,-6.2513227462768555,-0.0027072561826019187,0.002685070037841797,0.1227426528930664,3.8582842926685355,-12.183998334820911,-0.4236096857270563,0.7490139156453929,0.13220015653251824,0.0016319215838468918,0.0020994725549880154,4.1591118433637035,3.596744950134013,-12.134125813023338,-12.466474722675999,0.0,0.0
18.652048587799072,0.49796944856643677,-0.41893887519836426,-6.234974384307861,-0.002692882093697439,0.0021750926971435547,0.1227426528930664,3.852912858009248,-12.155976828448114,-0.44360968572705634,0.7489150303291319,0.12591468211222326,0.0010881317769832215,0.002453795829962205,4.256216877022322,3.4935930688061805,-12.035051415435557,-12.525175480882327,0.0,0.0
18.66208505630493,0.49853694438934326,-0.42579975724220276,-6.202432632446289,-0.0026296670525549643,0.0025908946990966797,0.1227426528930664,3.847027299611141,-12.126288409313307,-0.46360968572705635,0.7491972016826846,0.130696730014276,6.376278311304872e-05,0.0027456484530415,4.394681222446399,3.348213496369525,-11.89335104868873,-12.623483354464506,0.0,0.0
18.67199420928955,0.4988305866718292,-0.429228276014328,-6.186239719390869,-0.0025928565215454138,0.002053976058959961,0.1227426528930664,3.840617349260417,-12.094893655327477,-0.48360968572705637,0.7490703932122884,0.12305535890444651,-0.00041443667807525134,0.0030535168127066963,4.591301779502696,3.143770809606858,-11.686094832364702,-12.784276351954432,0.0,0.0
18.68217420578003,0.4994479715824127,-0.43606576323509216,-6.154027938842773,-0.0025121405176969196,0.0025093555450439453,0.1227426528930664,3.8837250659945624,-12.344307324783804,-0.2736096857270562,0.749340528455697,0.12312161804404756,-0.0011516576360123306,0.0032809755757698227,3.917734136720524,3.860557172008276,-12.402617869656954,-12.416553824224938,0.0,0.0
18.692020893096924,0.4997713565826416,-0.4394735097885132,-6.138006687164307,-0.002472136587895903,0.0027768611907958984,0.1227426528930664,3.8816947245156395,-12.327799866759355,-0.2936096857270562,0.7492141665062095,0.11307719587280024,-0.0014730685618664792,0.0034959846946806573,3.928346141742018,3.8492192332669153,-12.390011690141128,-12.411786666418713,0.0,0.0
18.828084468841553,0.5046545267105103,-0.490888774394989,-5.88878059387207,-0.0016073286052578281,0.002357959747314453,0.12504911422729492,3.8792836676411193,-12.30983495161429,-0.3136096857270562,0.7505196437325671,0.04800091645713909,-0.004109095286154711,0.0033198666130714004,3.9414538702010593,3.834889769718198,-12.374205785974109,-12.407399093665115,0.0,0.0
18.836096048355103,0.5046545267105103,-0.490888774394989,-5.88878059387207,-0.0016073286052578281,0.002241373062133789,0.12504911422729492,3.876469701800417,-12.290394028639065,-0.33360968572705624,0.7500145494929192,0.031711632473011134,-0.004126921484785233,0.0035489944916630677,3.9578244580927175,3.816752107815974,-12.354481979167655,-12.404105895183536,0.0,0.0
18.84364891052246,0.5054634809494019,-0.49976736307144165,-5.843447208404541,-0.0013925791975507099,0.0036025047302246094,0.12504911422729492,3.8732316762550187,-12.269455556543269,-0.35360968572705626,0.7506609417317879,0.018477910517908185,-0.004643437737118165,0.003557235197214289,3.9786237147642423,3.7935910378910664,-12.329791370747134,-12.402946430097067,0.0,0.0
18.852267265319824,0.5057526230812073,-0.5026907920837402,-5.828418731689453,-0.0013230476802688507,0.0023758411407470703,0.12504911422729492,3.8695496567129943,-12.246995050533126,-0.3736096857270563,0.7505339106798347,0.0028165569380817802,-0.0047462726616168726,0.003611176606891621,4.005632683601986,3.7635766082983237,-12.29853234048466,-12.405506614129607,0.0,0.0
18.862273693084717,0.506051242351532,-0.5055946707725525,-5.81342887878418,-0.001253568102935582,0.002695798873901367,0.12504911422729492,3.8654050966052176,-12.22298513880121,-0.3936096857270563,0.7504028125500316,-0.012735936081916584,-0.004829274557861245,0.003629909050820352,4.041581552776016,3.723930570490287,-12.258314061159043,-12.414155411647897,0.0,0.0
18.87195658683777,0.5063592195510864,-0.5084782242774963,-5.798478126525879,-0.001186648635611718,0.002109050750732422,0.12504911422729492,3.860781005549321,-12.197395628243056,-0.4136096857270563,0.7502691309504097,-0.028037838615305476,-0.004870381792571092,0.003628692896069815,4.09064246224109,3.670433927746842,-12.205448203683922,-12.432553156651862,0.0,0.0
18.882280349731445,0.5070483088493347,-0.5141906142234802,-5.768711090087891,-0.0010596344304302212,0.002432584762573242,0.12504911422729492,3.855662114543504,-12.170193579191187,-0.4336096857270563,0.7504968469824869,-0.0413231196111019,-0.004864415836243634,0.0035640132622406714,4.1591118433637035,3.596744950134013,-12.134125813023338,-12.466474722675999,0.0,0.0
18.892018795013428,0.5070569515228271,-0.5167343020439148,-5.753956317901611,-0.0010013472970348374,0.002866983413696289,0.12504911422729492,3.8500350374496044,-12.141343388934336,-0.45360968572705634,0.7503603276326426,-0.05662927794819141,-0.005019942266695714,0.00350954542514193,4.256216877022322,3.4935930688061805,-12.035051415435557,-12.525175480882327,0.0,0.0
18.902225017547607,0.5070829391479492,-0.5192599296569824,-5.739238739013672,-0.0009446066560836793,0.002319812774658203,0.12504911422729492,3.8438884283431003,-12.110806883768552,-0.47360968572705636,0.7502257191799515,-0.07137669850653734,-0.005153060613725562,0.0034988291360884775,4.394681222446399,3.348213496369525,-11.89335104868873,-12.623483354464506,0.0,0.0
18.911899089813232,0.5071261525154114,-0.5217668414115906,-5.724558353424072,-0.0008924993327915284,0.0024328231811523438,0.12504911422729492,3.8372131343269373,-12.078543419307364,-0.4936096857270564,0.7500900473849673,-0.0854835501084994,-0.005282797128851095,0.003509530232540222,4.591301779502696,3.143770809606858,-11.686094832364702,-12.784276351954432,0.0,0.0
18.92215657234192,0.5072622299194336,-0.5267221927642822,-5.695307731628418,-0.0007935864949198974,0.002232074737548828,0.12504911422729492,3.882756061633152,-12.336234736403474,-0.2836096857270562,0.7503135615219151,-0.09599621082677534,-0.005518414695428246,0.003497911595987677,3.917734136720524,3.860557172008276,-12.402617869656954,-12.416553824224938,0.0,0.0
19.058627128601074,0.5072622299194336,-0.5267221927642822,-5.695307731628418,-0.0007935864949198974,0.0035448074340820312,0.1272904872894287,3.880538194993967,-12.319000680167896,-0.3036096857270562,0.7456863924591898,-0.1817482508701126,-0.005050089647764859,0.0035732031648218867,3.928346141742018,3.8492192332669153,-12.390011690141128,-12.411786666418713,0.0,0.0
19.0687415599823,0.5080806612968445,-0.561421811580658,-5.454756736755371,-0.0002566463756301148,0.0021092891693115234,0.1272904872894287,3.877928396748859,-12.300300267849673,-0.32360968572705623,0.7510736820276669,-0.08166342292363676,-0.006278190018697775,0.003264407421230996,3.9414538702010593,3.834889769718198,-12.374205785974109,-12.407399093665115,0.0,0.0
19.075056791305542,0.5080806612968445,-0.561421811580658,-5.454756736755371,-0.0002566463756301148,0.0031549930572509766,0.1272904872894287,3.8749049729142517,-12.280113448158946,-0.34360968572705625,0.7505861189144871,-0.09569595960444652,-0.006195199401029942,0.0033503479166776904,3.9578244580927175,3.816752107815974,-12.354481979167655,-12.404105895183536,0.0,0.0
19.08367156982422,0.5078465342521667,-0.5657857656478882,-5.413875579833984,-0.00016974156492806456,0.0022110939025878906,0.1272904872894287,3.871447359407963,-12.258417201576622,-0.36360968572705626,0.751083772508961,-0.08455719679412138,-0.006444256517681583,0.003365353768837837,3.9786237147642423,3.7935910378910664,-12.329791370747134,-12.402946430097067,0.0,0.0
19.09205174446106,0.5078021883964539,-0.5672339797019958,-5.400309085845947,-0.0001422811487837277,0.0033807754516601562,0.1272904872894287,3.8675362945547773,-12.235185592159572,-0.3836096857270563,0.7509275709888429,-0.08929457054777569,-0.006504659092601643,0.003411166186004771,4.005632683601986,3.7635766082983237,-12.29853234048466,-12.405506614129607,0.0,0.0
19.10212993621826,0.5077781081199646,-0.5686760544776917,-5.386767864227295,-0.00011603547213357053,0.0022890567779541016,0.1272904872894287,3.8631539890148034,-12.2103898286685,-0.4036096857270563,0.7507637388526072,-0.09355470676924366,-0.006533167184186065,0.0034553202542310993,4.041581552776016,3.723930570490287,-12.258314061159043,-12.414155411647897,0.0,0.0
19.111976385116577,0.5077738761901855,-0.5701121687889099,-5.373251914978027,-8.897363726183619e-05,0.002496480941772461,0.1272904872894287,3.8582842926685355,-12.183998334820911,-0.4236096857270563,0.7505945930592545,-0.09748848013599754,-0.006545046366404365,0.003488839864407803,4.09064246224109,3.670433927746842,-12.205448203683922,-12.432553156651862,0.0,0.0
19.12198781967163,0.5078237056732178,-0.5729665160179138,-5.3463006019592285,-4.060253170712347e-05,0.0021636486053466797,0.1272904872894287,3.852912858009248,-12.155976828448114,-0.44360968572705634,0.7507298608317654,-0.09099652969689043,-0.006533563313695294,0.0035099584069197085,4.1591118433637035,3.596744950134013,-12.134125813023338,-12.466474722675999,0.0,0.0
19.1321017742157,0.5078770518302917,-0.5743849277496338,-5.332880973815918,-1.6002233807307052e-05,0.002729177474975586,0.1272904872894287,3.847027299611141,-12.126288409313307,-0.46360968572705635,0.7505551825867298,-0.09430925934318769,-0.006480469370183044,0.0034996004424790155,4.256216877022322,3.4935930688061805,-12.035051415435557,-12.525175480882327,0.0,0.0
