time,x,y,z,yaw,ctrl_comp_time,rollout_comptime,y_ref,z_ref,yaw_ref,throttle,roll_rate,pitch_rate,yaw_rate,save_tube_pyH,save_tube_pyL,save_tube_pzH,save_tube_pzL,wy,wz
15.00359582901001,0.027051540091633797,3.975914716720581,-12.231977462768555,0.00029718765097237754,0.16461515426635742,0.14151382446289062,3.9586325051945885,-12.226199188791194,-0.29673682440573323,0.5905984829750546,-0.996416475585832,0.015387466434196537,0.020250115363437713,4.0002355771891605,3.9218343497478387,-12.210487151506237,-12.248274510058666,0.0,0.0
15.437016010284424,0.027051540091633797,3.975914716720581,-12.231977462768555,0.00029718765097237754,0.158829927444458,0.14151382446289062,3.953397305501254,-12.21862958664355,-0.31673682440573325,0.5894320507982381,-1.0,0.039221511152533715,0.08300663103860716,4.008914737317202,3.903259982474884,-12.195360872324805,-12.249871735340697,0.0,0.0
15.564262866973877,0.046436987817287445,3.951263666152954,-12.161153793334961,-0.0008793254654607396,0.002143383026123047,0.10400128364562988,3.9475738944360748,-12.209433403242958,-0.33673682440573327,0.5905959071884095,-0.9120116873851094,0.13588195212846685,0.29573583639931383,4.020624342159403,3.880496020904485,-12.175629995410333,-12.252842541903648,0.0,0.0
15.574641466140747,0.046436987817287445,3.951263666152954,-12.161153793334961,-0.0008793254654607396,0.0026831626892089844,0.10400128364562988,3.941145823080687,-12.198586361765239,-0.3567368244057333,0.5894282892859453,-1.0,0.3351173664899268,0.5478679181996569,4.03661942144746,3.8522534243367543,-12.15022275427157,-12.258212979918737,0.0,0.0
15.582400560379028,0.04676169529557228,3.9506683349609375,-12.158251762390137,-0.0008600584194981414,0.0019037723541259766,0.10400128364562988,3.934097882261283,-12.186061384276634,-0.3767368244057333,0.5880402860678902,-1.0,0.4745821565429488,0.6739339590998286,4.058797066396392,3.8166034014436936,-12.117675688996211,-12.267395141688457,0.0,0.0
15.592630863189697,0.04694614186882973,3.9502832889556885,-12.1568603515625,-0.0008329516167931011,0.0027594566345214844,0.10400128364562988,3.926416269380497,-12.171828647760606,-0.3967368244057333,0.5867615974851157,-1.0,0.5722075095800642,0.7369669795499143,4.090004945130578,3.770669230949428,-12.075755838633343,-12.282565072057666,0.0,0.0
15.602671384811401,0.04694614186882973,3.9502832889556885,-12.1568603515625,-0.0008329516167931011,0.004343271255493164,0.10400128364562988,3.9180887524533095,-12.155855649263254,-0.41673682440573334,0.5855822291819299,-1.0,0.6405452567060449,0.7684834897749571,4.1345149605672935,3.7101529347309747,-12.020835910512943,-12.307287720315534,0.0,0.0
15.613670110702515,0.047177061438560486,3.949735641479492,-12.155389785766602,-0.0007295091191221598,0.0019156932830810547,0.10400128364562988,3.9091048308892025,-12.138107279948441,-0.43673682440573336,0.5846532123929928,-1.0,0.6883816796942314,0.7842417448874788,4.198644222893127,3.6287146302722224,-11.947478889698377,-12.346932469998766,0.0,0.0
15.624591827392578,0.047177061438560486,3.949735641479492,-12.155389785766602,-0.0007295091191221598,0.0027365684509277344,0.10400128364562988,3.8994558925800717,-12.118545907830626,-0.4567368244057334,0.5834668339396826,-1.0,0.7218671757859619,0.7921208724437394,4.291423752484145,3.5173041457217082,-11.847009258154642,-12.410102076572093,0.0,0.0
15.632460594177246,0.047301262617111206,3.94939923286438,-12.154776573181152,-0.0005888744693046399,0.002330780029296875,0.10400128364562988,3.8891353668717623,-12.097131468931847,-0.4767368244057334,0.582642151691386,-1.0,0.7453070230501734,0.7960604362218697,4.424921349422074,3.363838460539044,-11.7054240467667,-12.510721789365697,0.0,0.0
15.64264988899231,0.047301262617111206,3.94939923286438,-12.154776573181152,-0.0005888744693046399,0.002443075180053711,0.10400128364562988,3.8781388730164092,-12.073821566589455,-0.4967368244057334,0.5814489300047503,-1.0,0.7617149161351213,0.7980302181109347,4.615641340992955,3.151802259518363,-11.500551724362408,-12.670880653087726,0.0,0.0
15.65306043624878,0.04744034260511398,3.9489359855651855,-12.154272079467773,-0.0002973069741717682,0.003113269805908203,0.10400128364562988,3.8664643637228835,-12.048571578622795,-0.5167368244057334,0.5808312076399786,-1.0,0.773200441294585,0.7990151090554674,4.889981818179063,2.8547909883922884,-11.199522831886624,-12.923361080199701,0.0,0.0
15.662580013275146,0.04744034260511398,3.9489359855651855,-12.154272079467773,-0.0002973069741717682,0.0021009445190429688,0.10400128364562988,3.9560873598960415,-12.222616303832753,-0.30673682440573324,0.5796315149691147,-1.0,0.7812403089062094,0.7995075545277335,4.0002355771891605,3.9218343497478387,-12.210487151506237,-12.248274510058666,0.0,0.0
15.672967433929443,0.04744034260511398,3.9489359855651855,-12.154272079467773,-0.0002973069741717682,0.0032508373260498047,0.10400128364562988,3.9505601815319427,-12.214236268656993,-0.32673682440573326,0.5784280490325523,-1.0,0.7868682162343466,0.7997537772638668,4.008914737317202,3.903259982474884,-12.195360872324805,-12.249871735340697,0.0,0.0
15.682477712631226,0.0474926233291626,3.9486405849456787,-12.15420150756836,-1.1486453912329386e-05,0.002033710479736328,0.10400128364562988,3.944436422892106,-12.204217867095156,-0.3467368244057333,0.5775540659267226,-1.0,0.7908077513640426,0.7998768886319334,4.020624342159403,3.880496020904485,-12.175629995410333,-12.252842541903648,0.0,0.0
15.692669153213501,0.04774335399270058,3.94762921333313,-12.150954246520996,0.0007708238969964115,0.0026328563690185547,0.10400128364562988,3.937700233920041,-12.192535415342336,-0.3667368244057333,0.5780469185958703,-1.0,0.7935654259548299,0.799938444315967,4.03661942144746,3.8522534243367543,-12.15022275427157,-12.258212979918737,0.0,0.0
15.846350193023682,0.044762205332517624,3.94230580329895,-12.113275527954102,0.009573130738683253,0.0019767284393310547,0.14427709579467773,3.9303370880400013,-12.179160455345507,-0.3867368244057333,0.6201215902747929,-0.20188002078579026,0.795495798168381,0.7999692221579833,4.058797066396392,3.8166034014436936,-12.117675688996211,-12.267395141688457,0.0,0.0
15.854756593704224,0.043554022908210754,3.941523313522339,-12.104410171508789,0.011164389396746716,0.0030975341796875,0.14427709579467773,3.9223339476491326,-12.16406181541424,-0.40673682440573333,0.6228772669157291,-0.17068142190079472,0.7559078425929506,0.7999846110789917,4.090004945130578,3.770669230949428,-12.075755838633343,-12.282565072057666,0.0,0.0
15.863056421279907,0.043554022908210754,3.941523313522339,-12.104410171508789,0.011164389396746716,0.003828763961791992,0.14427709579467773,3.9136794265826733,-12.147205679848572,-0.42673682440573335,0.6217638301160887,-0.27044808732723014,0.7278288547218412,0.799992305539496,4.1345149605672935,3.7101529347309747,-12.020835910512943,-12.307287720315534,0.0,0.0
15.873368263244629,0.04209424555301666,3.9405221939086914,-12.095221519470215,0.01285143391890553,0.0028519630432128906,0.14427709579467773,3.904363949102925,-12.128555667363367,-0.44673682440573337,0.6245614794532257,-0.23822585587902123,0.6747720495474806,0.7999961527697481,4.198644222893127,3.6287146302722224,-11.947478889698377,-12.346932469998766,0.0,0.0
15.882476091384888,0.04126278683543205,3.9399304389953613,-12.090499877929688,0.013725880344380492,0.001964569091796875,0.14427709579467773,3.8943799049805574,-12.108072918066197,-0.4667368244057334,0.6253911513297717,-0.27381082701600334,0.6129029217973739,0.7999980763848741,4.291423752484145,3.5173041457217082,-11.847009258154642,-12.410102076572093,0.0,0.0
15.892784833908081,0.03937310725450516,3.9385342597961426,-12.08083724975586,0.015601477147956344,0.002855539321899414,0.14427709579467773,3.8837218002556573,-12.085716188725065,-0.4867368244057334,0.6277120955714803,-0.24113599146951603,0.5302754149795178,0.7999990381924371,4.424921349422074,3.363838460539044,-11.7054240467667,-12.510721789365697,0.0,0.0
15.9030179977417,0.03830423951148987,3.937716245651245,-12.075906753540039,0.016637009907217865,0.004929542541503906,0.14427709579467773,3.8723864032856747,-12.06144195604316,-0.5067368244057334,0.6282118112383217,-0.28480576708544936,0.45450325385653756,0.7999995190962186,4.615641340992955,3.151802259518363,-11.500551724362408,-12.670880653087726,0.0,0.0
15.913513422012329,0.03714705631136894,3.9368112087249756,-12.070918083190918,0.01775412507240709,0.0018639564514160156,0.14427709579467773,3.860372885707889,-12.035204527640358,-0.5267368244057334,0.6286862835166735,-0.3340888297355381,0.3911774606077781,0.7999997595481093,4.889981818179063,2.8547909883922884,-11.199522831886624,-12.923361080199701,0.0,0.0
15.922630310058594,0.035886429250240326,3.935816526412964,-12.06587028503418,0.018962056016634005,0.002986431121826172,0.14427709579467773,3.9629462165349483,-12.236512383145888,-0.2573340440393381,0.6291402835738775,-0.38875474978999436,0.3355508329286421,0.7999998797740547,3.9843992529344403,3.9449923841854004,-12.229927711490788,-12.246577292780517,0.0,0.0
15.93259310722351,0.03310808539390564,3.9343435764312744,-12.054952621459961,0.02169617417055425,0.002717733383178711,0.14427709579467773,3.959046808898191,-12.231858945404033,-0.2773340440393381,0.6311728901575424,-0.3930840711779813,0.26259189880175454,0.7999999398870274,3.9894389984821945,3.9326890587892898,-12.221612812663897,-12.24715083395161,0.0,0.0
16.067348957061768,-0.0015692419838160276,3.9141509532928467,-11.960925102233887,0.05967041954192248,0.0034542083740234375,0.12301802635192871,3.9545976986793994,-12.22562781114932,-0.2973340440393381,0.660028373066912,-0.16619799066237073,-0.05750978860639301,0.7999999699435137,3.996157194862156,3.917627109139609,-12.210045597603118,-12.247837780416932,0.0,0.0
16.078015565872192,-0.014648761600255966,3.90653920173645,-11.934938430786133,0.06991245569233068,0.0018787384033203125,0.12301802635192871,3.9495802283800283,-12.21780031135785,-0.3173340440393381,0.6640492406079904,-0.12172790229457786,-0.25886118586132906,0.45112936888603516,4.005096103448642,3.8992261788060394,-12.194661390298341,-12.249168383903665,0.0,0.0
16.082947969436646,-0.014648761600255966,3.90653920173645,-11.934938430786133,0.06991245569233068,0.0019121170043945312,0.12301802635192871,3.9439766497987856,-12.208354885623677,-0.33733404403933814,0.6632423845496327,-0.2726698432407013,-0.42120283010293036,-0.10635602873171225,4.017085661646686,3.876619881707161,-12.174681433804942,-12.25188116366369,0.0,0.0
16.092713117599487,-0.023896589875221252,3.9007821083068848,-11.917390823364258,0.0770595817649512,0.0024652481079101562,0.12301802635192871,3.937770295162172,-12.197267119984348,-0.35733404403933816,0.6656680388330494,-0.29519268132611287,-0.5348419810720513,-0.45317801436585614,4.033387114998123,3.848512513753299,-12.149030918626359,-12.257004944179432,0.0,0.0
16.10276174545288,-0.028683815151453018,3.897693634033203,-11.90854263305664,0.0807458729815487,0.0026895999908447266,0.12301802635192871,3.9309457463926827,-12.184509794206342,-0.3773340440393382,0.6664081147966029,-0.38505003671220217,-0.6143893867504359,-0.6265890071829281,4.055906433297145,3.8129659772534636,-12.116241022712867,-12.265956900312652,0.0,0.0
16.11254858970642,-0.03358590602874756,3.894458293914795,-11.89965534210205,0.08456739526441504,0.0019114017486572266,0.12301802635192871,3.9234890020266278,-12.170052938370716,-0.3973340440393382,0.6670184353900453,-0.47638989790223607,-0.6700725707253051,-0.713294503591464,4.0875040824378415,3.7670903453740494,-12.074066127572864,-12.280925445107478,0.0,0.0
16.122724533081055,-0.03860875591635704,3.891068935394287,-11.890741348266602,0.0885605535744036,0.0046346187591552734,0.12301802635192871,3.9153876413083277,-12.153863898573212,-0.4173340440393382,0.6683118819227146,-0.6010181321189124,-0.7090507995077135,-0.7566472517957321,4.13247126995663,3.7065679477247793,-12.018858076229293,-12.305496094169298,0.0,0.0
16.132418394088745,-0.049040213227272034,3.88380765914917,-11.872886657714844,0.0972111279379384,0.0024819374084472656,0.12301802635192871,3.9066309850035754,-12.135907411528576,-0.43733404403933823,0.669653726613884,-0.6152431051110971,-0.7363355596553995,-0.7783236258978661,4.197153191598427,3.625030448812358,-11.945143611441942,-12.345074167802405,0.0,0.0
16.144001007080078,-0.049040213227272034,3.88380765914917,-11.872886657714844,0.0972111279379384,0.004302263259887695,0.12301802635192871,3.897210252492596,-12.116145687845835,-0.45733404403933825,0.6686941854424834,-0.7852378790802985,-0.7554348917587796,-0.7891618129489331,4.290618571471767,3.513389625899453,-11.844185107771764,-12.408324216886362,0.0,0.0
16.15497326850891,-0.06000550463795662,3.875852346420288,-11.855059623718262,0.10667602014694996,0.0036323070526123047,0.12301802635192871,3.887118714721153,-12.094538503719761,-0.47733404403933827,0.6696735680361958,-0.7904491450585152,-0.7688044242311458,-0.7945809064744664,4.42497778214795,3.3595195590525795,-11.701877730882579,-12.509273038607262,0.0,0.0
16.163203239440918,-0.06568919867277145,3.8716039657592773,-11.846162796020508,0.11160297910956071,0.002358675003051758,0.12301802635192871,3.961064028635742,-12.234381823307759,-0.2673340440393381,0.6696587008311309,-0.878043017250182,-0.7781630969618021,-0.7972904532372334,3.9843992529344403,3.9449923841854004,-12.229927711490788,-12.246577292780517,0.0,0.0
16.173227787017822,-0.07744462788105011,3.8625569343566895,-11.828394889831543,0.12156319686509187,0.004576206207275391,0.12301802635192871,3.9568921520008824,-12.22894168901003,-0.2873340440393381,0.670589951931809,-0.8712975063404963,-0.7847141678732614,-0.7986452266186168,3.9894389984821945,3.9326890587892898,-12.221612812663897,-12.24715083395161,0.0,0.0
16.182438373565674,-0.0843459740281105,3.8578855991363525,-11.818114280700684,0.12651629383292579,0.0025169849395751953,0.12301802635192871,3.9521611411273403,-12.221914887101008,-0.3073340440393381,0.6706907598592434,-0.9571659470896616,-0.789299917511283,-0.7993226133093083,3.996157194862156,3.917627109139609,-12.210045597603118,-12.247837780416932,0.0,0.0
16.320429801940918,-0.21608220040798187,3.7471463680267334,-11.644458770751953,0.19927124295662804,0.005408525466918945,0.12775540351867676,3.9468527716769226,-12.213281298734321,-0.32733404403933813,0.6800984859914838,1.0,-0.7925099422578982,-0.7996613066546541,4.005096103448642,3.8992261788060394,-12.194661390298341,-12.249168383903665,0.0,0.0
16.33420753479004,-0.21608220040798187,3.7471463680267334,-11.644458770751953,0.19927124295662804,0.003102540969848633,0.12775540351867676,3.9409498143757107,-12.203017931402902,-0.34733404403933815,0.6789637602047724,1.0,-0.7947569595805287,-0.7998306533273271,4.017085661646686,3.876619881707161,-12.174681433804942,-12.25188116366369,0.0,0.0
16.342976570129395,-0.2437894195318222,3.7202441692352295,-11.612117767333984,0.20929683149355333,0.0029251575469970703,0.12775540351867676,3.9344362052753037,-12.191098961512768,-0.36733404403933817,0.6810149905360242,1.0,-0.7963298717063702,-0.7999153266636636,4.033387114998123,3.848512513753299,-12.149030918626359,-12.257004944179432,0.0,0.0
16.35262966156006,-0.25297975540161133,3.710808753967285,-11.601290702819824,0.2124903947227117,0.0029973983764648438,0.12775540351867676,3.9272972139059448,-12.17749578634018,-0.3873340440393382,0.6811223125711403,1.0,-0.7974309101944591,-0.7999576633318318,4.055906433297145,3.8129659772534636,-12.116241022712867,-12.265956900312652,0.0,0.0
16.36252999305725,-0.26214107871055603,3.7011313438415527,-11.590436935424805,0.2155955776613285,0.0024263858795166016,0.12775540351867676,3.9195196088407043,-12.162177085199303,-0.4073340440393382,0.6812497767110471,1.0,-0.7982016371361214,-0.799978831665916,4.0875040824378415,3.7670903453740494,-12.074066127572864,-12.280925445107478,0.0,0.0
16.372671127319336,-0.28035685420036316,3.6810100078582764,-11.568678855895996,0.22133334797577603,0.003912210464477539,0.12775540351867676,3.911091820205392,-12.145108889622183,-0.4273340440393382,0.6819217319999233,1.0,-0.798741145995285,-0.799989415832958,4.13247126995663,3.7065679477247793,-12.018858076229293,-12.305496094169298,0.0,0.0
16.382433652877808,-0.2894018888473511,3.670555830001831,-11.55777359008789,0.22393727401672417,0.0024271011352539062,0.12775540351867676,3.9020040986856097,-12.126254662329073,-0.44733404403933824,0.6819400053212398,1.0,-0.7991188021966995,-0.7999947079164791,4.197153191598427,3.625030448812358,-11.945143611441942,-12.345074167802405,0.0,0.0
16.393059492111206,-0.2983996272087097,3.659839153289795,-11.546845436096191,0.22638955753063175,0.0029702186584472656,0.12775540351867676,3.8922486706002646,-12.10557538474493,-0.46733404403933826,0.6820414342466792,1.0,-0.7993831615376896,-0.7999973539582396,4.290618571471767,3.513389625899453,-11.844185107771764,-12.408324216886362,0.0,0.0
16.402580738067627,-0.3073467016220093,3.6488611698150635,-11.535890579223633,0.22872176857120624,0.0032732486724853516,0.12775540351867676,3.88181988862976,-12.083029652797192,-0.4873340440393383,0.6821650374919401,1.0,-0.7995682130763827,-0.7999986769791199,4.42497778214795,3.3595195590525795,-11.701877730882579,-12.509273038607262,0.0,0.0
16.412959575653076,-0.32506412267684937,3.6261351108551025,-11.513887405395508,0.2331106723534651,0.004307270050048828,0.12775540351867676,3.959046808898191,-12.231858945404033,-0.2773340440393381,0.6829774176205827,1.0,-0.7996977491534679,-0.79999933848956,3.9843992529344403,3.9449923841854004,-12.229927711490788,-12.246577292780517,0.0,0.0
16.423879861831665,-0.32506412267684937,3.6261351108551025,-11.513887405395508,0.2331106723534651,0.003615140914916992,0.12775540351867676,3.9545976986793994,-12.22562781114932,-0.2973340440393381,0.6824263035535164,1.0,-0.7997884244074276,-0.7999996692447799,3.9894389984821945,3.9326890587892898,-12.221612812663897,-12.24715083395161,0.0,0.0
16.57938241958618,-0.5035069584846497,3.3131587505340576,-11.243135452270508,0.2553034105459663,0.0024640560150146484,0.14661860466003418,3.9495802283800283,-12.21780031135785,-0.3173340440393381,0.7124561694448982,0.7271008744391008,-0.7498173054254902,-0.79999983462239,3.996157194862156,3.917627109139609,-12.210045597603118,-12.247837780416932,0.0,0.0
16.58726739883423,-0.5035069584846497,3.3131587505340576,-11.243135452270508,0.2553034105459663,0.0034508705139160156,0.14661860466003418,3.9439766497987856,-12.208354885623677,-0.33733404403933814,0.7106777008645729,0.47887171840617593,-0.7292731905882295,-0.7974064105902472,4.005096103448642,3.8992261788060394,-12.194661390298341,-12.249168383903665,0.0,0.0
16.597044229507446,-0.5175148248672485,3.276761293411255,-11.214803695678711,0.2547262076671865,0.002453327178955078,0.14661860466003418,3.937770295162172,-12.197267119984348,-0.35733404403933816,0.7119999371226873,0.3342097747273418,-0.6884552587760633,-0.7919597668404033,4.017085661646686,3.876619881707161,-12.174681433804942,-12.25188116366369,0.0,0.0
16.60436511039734,-0.5175148248672485,3.276761293411255,-11.214803695678711,0.2547262076671865,0.0031468868255615234,0.14661860466003418,3.9309457463926827,-12.184509794206342,-0.3773340440393382,0.7119040415219667,0.07122725287880605,-0.6678435559414413,-0.7800456574466433,4.033387114998123,3.848512513753299,-12.149030918626359,-12.257004944179432,0.0,0.0
16.61320185661316,-0.5310442447662354,3.2399895191192627,-11.186576843261719,0.2535733192464683,0.002393484115600586,0.14661860466003418,3.9234890020266278,-12.170052938370716,-0.3973340440393382,0.7130303160432154,-0.08766100784353137,-0.6260355970168967,-0.7449295275022153,4.055906433297145,3.8129659772534636,-12.116241022712867,-12.265956900312652,0.0,0.0
16.623129844665527,-0.5376237034797668,3.221482038497925,-11.172513008117676,0.2527748722132514,0.006997346878051758,0.14661860466003418,3.9153876413083277,-12.153863898573212,-0.4173340440393382,0.7133956515691469,-0.303040852321665,-0.5871627533354018,-0.6989203316919951,4.0875040824378415,3.7670903453740494,-12.074066127572864,-12.280925445107478,0.0,0.0
16.633821964263916,-0.5376237034797668,3.221482038497925,-11.172513008117676,0.2527748722132514,0.0037360191345214844,0.14661860466003418,3.9066309850035754,-12.135907411528576,-0.43733404403933823,0.7133712150149211,-0.5767128240770221,-0.5644930121295415,-0.6506825553204518,4.13247126995663,3.7065679477247793,-12.018858076229293,-12.305496094169298,0.0,0.0
16.6441490650177,-0.5503832697868347,3.1842169761657715,-11.144523620605469,0.2506998470878135,0.0027685165405273438,0.14661860466003418,3.897210252492596,-12.116145687845835,-0.45733404403933825,0.7140864146021627,-0.7391283562925881,-0.5130468714907742,-0.5494479546903553,4.197153191598427,3.625030448812358,-11.945143611441942,-12.345074167802405,0.0,0.0
16.65288758277893,-0.5503832697868347,3.1842169761657715,-11.144523620605469,0.2506998470878135,0.0031692981719970703,0.14661860466003418,3.887118714721153,-12.094538503719761,-0.47733404403933827,0.7140591950630264,-1.0,-0.4853626835730066,-0.4914397864168067,4.290618571471767,3.513389625899453,-11.844185107771764,-12.408324216886362,0.0,0.0
16.66247272491455,-0.5684722065925598,3.1277542114257812,-11.102937698364258,0.24630684768260266,0.002440929412841797,0.14661860466003418,3.876351842607812,-12.071043300763959,-0.4973340440393383,0.7149127951556337,-1.0,-0.40256721084546593,-0.32987805649551194,4.42497778214795,3.3595195590525795,-11.701877730882579,-12.509273038607262,0.0,0.0
16.672797918319702,-0.5742089748382568,3.108797788619995,-11.089180946350098,0.2445202557159079,0.0038373470306396484,0.14661860466003418,3.9568921520008824,-12.22894168901003,-0.2873340440393381,0.7151142815764748,-1.0,-0.36012055614077715,-0.3190223518674428,3.9843992529344403,3.9449923841854004,-12.229927711490788,-12.246577292780517,0.0,0.0
16.682413339614868,-0.5797942280769348,3.089778184890747,-11.075475692749023,0.2425977158875811,0.0023488998413085938,0.14661860466003418,3.9521611411273403,-12.221914887101008,-0.3073340440393381,0.7153073580362509,-1.0,-0.32215625884019455,-0.3066884101362151,3.9894389984821945,3.9326890587892898,-12.221612812663897,-12.24715083395161,0.0,0.0
16.823554515838623,-0.6547347903251648,2.715325117111206,-10.804984092712402,0.20149879201333837,0.00394439697265625,0.1311326026916504,3.9468527716769226,-12.213281298734321,-0.32733404403933813,0.6857474431746825,1.0,0.10403874074371064,0.5795034230489556,3.996157194862156,3.917627109139609,-12.210045597603118,-12.247837780416932,0.0,0.0
16.833059549331665,-0.6547347903251648,2.715325117111206,-10.804984092712402,0.20149879201333837,0.0024733543395996094,0.1311326026916504,3.9409498143757107,-12.203017931402902,-0.34733404403933815,0.6864562095465587,1.0,0.1522437120783249,0.17277967843732792,4.005096103448642,3.8992261788060394,-12.194661390298341,-12.249168383903665,0.0,0.0
16.84275460243225,-0.6580793261528015,2.672922372817993,-10.774255752563477,0.19720097667080558,0.003007650375366211,0.1311326026916504,3.9344362052753037,-12.191098961512768,-0.36733404403933817,0.6860767075153815,1.0,0.22876706600672528,-0.028107875375264338,4.017085661646686,3.876619881707161,-12.174681433804942,-12.25188116366369,0.0,0.0
16.852631092071533,-0.6580793261528015,2.672922372817993,-10.774255752563477,0.19720097667080558,0.003017425537109375,0.1311326026916504,3.9272972139059448,-12.17749578634018,-0.3873340440393382,0.6856962407325932,1.0,0.2803772491427881,-0.1353966570015946,4.033387114998123,3.848512513753299,-12.149030918626359,-12.257004944179432,0.0,0.0
16.862569093704224,-0.6616852283477783,2.6084742546081543,-10.728521347045898,0.19144517010642123,0.0025413036346435547,0.1311326026916504,3.9195196088407043,-12.162177085199303,-0.4073340440393382,0.6851667120219773,1.0,0.3742466958059938,-0.19972273797058454,4.055906433297145,3.8129659772534636,-12.116241022712867,-12.265956900312652,0.0,0.0
16.872902154922485,-0.6616852283477783,2.6084742546081543,-10.728521347045898,0.19144517010642123,0.004329681396484375,0.1311326026916504,3.911091820205392,-12.145108889622183,-0.4273340440393382,0.6848262610661636,1.0,0.42648672399567605,-0.24617377045824632,4.0875040824378415,3.7670903453740494,-12.074066127572864,-12.280925445107478,0.0,0.0
16.88246989250183,-0.6625000834465027,2.586742401123047,-10.713360786437988,0.1895726692433731,0.002454996109008789,0.1311326026916504,3.9020040986856097,-12.126254662329073,-0.44733404403933824,0.684527174529349,1.0,0.47765481799562,-0.2816889235118094,4.13247126995663,3.7065679477247793,-12.018858076229293,-12.305496094169298,0.0,0.0
16.89290499687195,-0.6631208062171936,2.564882755279541,-10.698225975036621,0.18754456246826573,0.003146648406982422,0.1311326026916504,3.8922486706002646,-12.10557538474493,-0.46733404403933826,0.6843537456398167,1.0,0.526274784485347,-0.3128929277212798,4.197153191598427,3.625030448812358,-11.945143611441942,-12.345074167802405,0.0,0.0
16.902496576309204,-0.6638372540473938,2.4985506534576416,-10.652898788452148,0.18007990199658366,0.0051462650299072266,0.1311326026916504,3.88181988862976,-12.083029652797192,-0.4873340440393383,0.6850875830135514,1.0,0.6013895011833704,-0.35123310395610063,4.290618571471767,3.513389625899453,-11.844185107771764,-12.408324216886362,0.0,0.0
16.9158456325531,-0.6638372540473938,2.4985506534576416,-10.652898788452148,0.18007990199658366,0.004965305328369141,0.1311326026916504,3.8707143778068644,-12.058573780710937,-0.5073340440393382,0.6847304460652581,1.0,0.6433754680066571,-0.3866850522882641,4.42497778214795,3.3595195590525795,-11.701877730882579,-12.509273038607262,0.0,0.0
17.060773849487305,-0.6231259703636169,2.081286668777466,-10.366877555847168,0.11026566630820459,0.002976655960083008,0.12681245803833008,3.9545976986793994,-12.22562781114932,-0.2973340440393381,0.7113309328993607,1.0,0.6903628276046601,-0.45991148186700465,3.9843992529344403,3.9449923841854004,-12.229927711490788,-12.246577292780517,0.0,0.0
17.067070484161377,-0.6231259703636169,2.081286668777466,-10.366877555847168,0.11026566630820459,0.004004716873168945,0.12681245803833008,3.9495802283800283,-12.21780031135785,-0.3173340440393381,0.7103448707187453,1.0,0.7232539793232621,-0.4958656119946443,3.9894389984821945,3.9326890587892898,-12.221612812663897,-12.24715083395161,0.0,0.0
17.077672243118286,-0.6093063950538635,2.0082907676696777,-10.315900802612305,0.09805089802112629,0.0028007030487060547,0.12681245803833008,3.9439766497987856,-12.208354885623677,-0.33733404403933814,0.7126894320311205,1.0,0.7462777855262834,-0.520218725468525,3.996157194862156,3.917627109139609,-12.210045597603118,-12.247837780416932,0.0,0.0
17.0837242603302,-0.6093063950538635,2.0082907676696777,-10.315900802612305,0.09805089802112629,0.0046079158782958984,0.12681245803833008,3.937770295162172,-12.197267119984348,-0.35733404403933816,0.7123485895498842,1.0,0.7608623903707563,-0.5369134161977818,4.005096103448642,3.8992261788060394,-12.194661390298341,-12.249168383903665,0.0,0.0
17.09346628189087,-0.6093063950538635,2.0082907676696777,-10.315900802612305,0.09805089802112629,0.002827167510986328,0.12681245803833008,3.9309457463926827,-12.184509794206342,-0.3773340440393382,0.71206320102387,1.0,0.7703457029089661,-0.5490805338839657,4.017085661646686,3.876619881707161,-12.174681433804942,-12.25188116366369,0.0,0.0
17.10264277458191,-0.5935002565383911,1.9344509840011597,-10.263699531555176,0.08637688793969954,0.004563570022583008,0.12681245803833008,3.9234890020266278,-12.170052938370716,-0.3973340440393382,0.7135894718434346,1.0,0.7597680550982399,-0.5515677181439083,4.033387114998123,3.848512513753299,-12.149030918626359,-12.257004944179432,0.0,0.0
17.113476991653442,-0.5880572199821472,1.9098174571990967,-10.246410369873047,0.08249290791000356,0.0020151138305664062,0.12681245803833008,3.9153876413083277,-12.153863898573212,-0.4173340440393382,0.7137253192153346,1.0,0.7484535322996029,-0.5470027455025563,4.055906433297145,3.8129659772534636,-12.116241022712867,-12.265956900312652,0.0,0.0
17.123451471328735,-0.582533597946167,1.885181188583374,-10.229179382324219,0.07859605547113796,0.004688739776611328,0.12681245803833008,3.9066309850035754,-12.135907411528576,-0.43733404403933823,0.7138029875854839,1.0,0.7351713861653502,-0.5387394407845986,4.0875040824378415,3.7670903453740494,-12.074066127572864,-12.280925445107478,0.0,0.0
17.132627725601196,-0.5769288539886475,1.8605445623397827,-10.21200942993164,0.07468434294439848,0.002025127410888672,0.12681245803833008,3.897210252492596,-12.116145687845835,-0.45733404403933825,0.7138508548710217,1.0,0.7197256476720051,-0.5276523061337187,4.13247126995663,3.7065679477247793,-12.018858076229293,-12.305496094169298,0.0,0.0
17.142879486083984,-0.5654900074005127,1.8112887144088745,-10.177854537963867,0.06682616733530329,0.0025207996368408203,0.12681245803833008,3.887118714721153,-12.094538503719761,-0.47733404403933827,0.7142165791813859,1.0,0.6923649154016734,-0.508735043338121,4.197153191598427,3.625030448812358,-11.945143611441942,-12.345074167802405,0.0,0.0
17.15259051322937,-0.5596635341644287,1.7866790294647217,-10.160870552062988,0.0628962842503762,0.003933429718017578,0.12681245803833008,3.876351842607812,-12.071043300763959,-0.4973340440393383,0.7142265337759176,1.0,0.6671628151015795,-0.4878566768306321,4.290618571471767,3.513389625899453,-11.844185107771764,-12.408324216886362,0.0,0.0
17.276683807373047,-0.5596635341644287,1.7866790294647217,-10.160870552062988,0.0628962842503762,0.0025587081909179688,0.10967707633972168,3.864907450525539,-12.045615293692746,-0.5173340440393382,0.6920110812709814,1.0,0.653033415192359,-0.47263856953731104,4.42497778214795,3.3595195590525795,-11.701877730882579,-12.509273038607262,0.0,0.0
17.28423261642456,-0.44553765654563904,1.391280174255371,-9.889153480529785,0.005660149174266032,0.0021255016326904297,0.10967707633972168,3.9521611411273403,-12.221914887101008,-0.3073340440393381,0.6980348875322914,1.0,0.42701789210349933,-0.26828328004882296,3.9843992529344403,3.9449923841854004,-12.229927711490788,-12.246577292780517,0.0,0.0
17.292834043502808,-0.4380018711090088,1.3671146631240845,-9.872507095336914,0.002391373922614041,0.0025844573974609375,0.10967707633972168,3.9468527716769226,-12.213281298734321,-0.32733404403933813,0.6980459662202142,0.9528527016167512,0.3209939356137351,-0.16049642216920934,3.9894389984821945,3.9326890587892898,-12.221612812663897,-12.24715083395161,0.0,0.0
17.3027503490448,-0.4229731857776642,1.3191308975219727,-9.839350700378418,-0.004056823643587516,0.002535581588745117,0.10967707633972168,3.9409498143757107,-12.203017931402902,-0.34733404403933815,0.6986274675494443,0.8498749526160104,0.24850919735582294,-0.09590454915016833,3.996157194862156,3.917627109139609,-12.210045597603118,-12.247837780416932,0.0,0.0
17.312793970108032,-0.41548681259155273,1.2953218221664429,-9.822855949401855,-0.007230374865430292,0.002267122268676758,0.10967707633972168,3.9344362052753037,-12.191098961512768,-0.36733404403933817,0.6986993490135189,0.7597447055065315,0.20716015205859029,-0.0709483908690218,4.005096103448642,3.8992261788060394,-12.194661390298341,-12.249168383903665,0.0,0.0
17.323058605194092,-0.40808141231536865,1.2708406448364258,-9.805000305175781,-0.010348543354208171,0.0031363964080810547,0.10967707633972168,3.9272972139059448,-12.17749578634018,-0.3873340440393382,0.6988852299475101,0.6733088514095362,0.1783003022118317,-0.058023631771651915,4.017085661646686,3.876619881707161,-12.174681433804942,-12.25188116366369,0.0,0.0
17.33254337310791,-0.4006992280483246,1.246515154838562,-9.787210464477539,-0.013322096372544672,0.0019330978393554688,0.10967707633972168,3.9195196088407043,-12.162177085199303,-0.4073340440393382,0.6990917268910066,0.5860032160704509,0.15493263670666388,-0.048846283933671755,4.033387114998123,3.848512513753299,-12.149030918626359,-12.257004944179432,0.0,0.0
17.34284520149231,-0.3860042989253998,1.1983319520950317,-9.751816749572754,-0.019097095599845747,0.002820730209350586,0.10967707633972168,3.911091820205392,-12.145108889622183,-0.4273340440393382,0.7000768755590959,0.4728188933909906,0.12368192353980705,-0.032721744412697734,4.055906433297145,3.8129659772534636,-12.116241022712867,-12.265956900312652,0.0,0.0
17.352701902389526,-0.37869778275489807,1.1744823455810547,-9.73420524597168,-0.02190202686216204,0.004043102264404297,0.10967707633972168,3.9020040986856097,-12.126254662329073,-0.44733404403933824,0.7003548811776151,0.3817022434520554,0.10302871517115754,-0.02321148555393144,4.0875040824378415,3.7670903453740494,-12.074066127572864,-12.280925445107478,0.0,0.0
17.362706661224365,-0.3714223802089691,1.1507995128631592,-9.716643333435059,-0.02465762462212079,0.0026366710662841797,0.10967707633972168,3.8922486706002646,-12.10557538474493,-0.46733404403933826,0.7006630958045729,0.2913854706504322,0.08734250252302464,-0.015290324520954503,4.13247126995663,3.7065679477247793,-12.018858076229293,-12.305496094169298,0.0,0.0
17.372522354125977,-0.36418044567108154,1.1272876262664795,-9.6991548538208,-0.02736711887374512,0.0024466514587402344,0.10967707633972168,3.88181988862976,-12.083029652797192,-0.4873340440393383,0.7009986805480538,0.20254874533910916,0.0744763999421463,-0.008057177998015787,4.197153191598427,3.625030448812358,-11.945143611441942,-12.345074167802405,0.0,0.0
17.382477283477783,-0.34980466961860657,1.0807918310165405,-9.66430377960205,-0.032634284905379174,0.001969575881958008,0.10967707633972168,3.8707143778068644,-12.058573780710937,-0.5073340440393382,0.7022511051356386,0.08682644448081711,0.05770278189343249,0.0026913709459796403,4.290618571471767,3.513389625899453,-11.844185107771764,-12.408324216886362,0.0,0.0
17.495774030685425,-0.2574165463447571,0.7976043820381165,-9.433571815490723,-0.06228877237926771,0.0020530223846435547,0.10445713996887207,3.8589311763987904,-12.032161912500124,-0.5273340440393383,0.7115176312870783,0.7704436124445576,0.011490803212682268,0.04218320972817237,4.42497778214795,3.3595195590525795,-11.701877730882579,-12.509273038607262,0.0,0.0
17.5028715133667,-0.24360087513923645,0.7570630311965942,-9.39758014678955,-0.06617577472300745,0.0031859874725341797,0.10445713996887207,3.9495802283800283,-12.21780031135785,-0.3173340440393381,0.7132237748223483,0.7517762167177486,-0.01157709932345243,0.07843112351534441,3.9843992529344403,3.9449923841854004,-12.229927711490788,-12.246577292780517,0.0,0.0
17.51304864883423,-0.24360087513923645,0.7570630311965942,-9.39758014678955,-0.06617577472300745,0.0020122528076171875,0.10445713996887207,3.9439766497987856,-12.208354885623677,-0.33733404403933814,0.7126807938908547,0.7542775097056413,-0.016571773448499923,0.0813689894991541,3.9894389984821945,3.9326890587892898,-12.221612812663897,-12.24715083395161,0.0,0.0
17.52281141281128,-0.2300330251455307,0.7173254489898682,-9.361720085144043,-0.06989924513253386,0.0030660629272460938,0.10445713996887207,3.937770295162172,-12.197267119984348,-0.35733404403933816,0.7144101112960741,0.7418108495635093,-0.022516618260116375,0.0854526960966571,3.996157194862156,3.917627109139609,-12.210045597603118,-12.247837780416932,0.0,0.0
17.532468795776367,-0.2233431488275528,0.6977584362030029,-9.343815803527832,-0.0717005328463475,0.001936197280883789,0.10445713996887207,3.9309457463926827,-12.184509794206342,-0.3773340440393382,0.7149679253171884,0.7401003249227421,-0.026242004560215325,0.08699543813406622,4.005096103448642,3.8992261788060394,-12.194661390298341,-12.249168383903665,0.0,0.0
17.542909145355225,-0.21014995872974396,0.6592378616333008,-9.30807876586914,-0.07521510903007664,0.0024557113647460938,0.10445713996887207,3.9234890020266278,-12.170052938370716,-0.3973340440393382,0.7165141215793883,0.7200944600542047,-0.030801954658066094,0.09004274626066894,4.017085661646686,3.876619881707161,-12.174681433804942,-12.25188116366369,0.0,0.0
17.55256986618042,-0.20365065336227417,0.6402829885482788,-9.290246963500977,-0.07693595897986709,0.0031402111053466797,0.10445713996887207,3.9153876413083277,-12.153863898573212,-0.4173340440393382,0.7170096158962876,0.7113127151502852,-0.032872647012431554,0.09079871179043547,4.033387114998123,3.848512513753299,-12.149030918626359,-12.257004944179432,0.0,0.0
17.563652992248535,-0.20365065336227417,0.6402829885482788,-9.290246963500977,-0.07693595897986709,0.001993894577026367,0.10445713996887207,3.9066309850035754,-12.135907411528576,-0.43733404403933823,0.7164590075542226,0.7285188095610047,-0.03332673626742341,0.09027474874645366,4.055906433297145,3.8129659772534636,-12.116241022712867,-12.265956900312652,0.0,0.0
17.572577476501465,-0.1910223662853241,0.6042007207870483,-9.252792358398438,-0.08028436805617814,0.0023860931396484375,0.10445713996887207,3.897210252492596,-12.116145687845835,-0.45733404403933825,0.7181570669790538,0.6832136400854527,-0.03451252315623721,0.09098234483176422,4.0875040824378415,3.7670903453740494,-12.074066127572864,-12.280925445107478,0.0,0.0
17.582515954971313,-0.17881616950035095,0.5700917840003967,-9.213702201843262,-0.08338703141750124,0.001955270767211914,0.10445713996887207,3.887118714721153,-12.094538503719761,-0.47733404403933827,0.7199985118981641,0.6191316723005611,-0.035566860052635346,0.09276284213126262,4.13247126995663,3.7065679477247793,-12.018858076229293,-12.305496094169298,0.0,0.0
17.592889308929443,-0.17280413210391998,0.5533204674720764,-9.194252967834473,-0.08486831097191239,0.0023436546325683594,0.10445713996887207,3.876351842607812,-12.071043300763959,-0.4973340440393383,0.720649397351762,0.5966510187716184,-0.03616538977623124,0.09495770551899553,4.197153191598427,3.625030448812358,-11.945143611441942,-12.345074167802405,0.0,0.0
17.60266375541687,-0.16685262322425842,0.5367414355278015,-9.174863815307617,-0.08630154535326293,0.0030765533447265625,0.10445713996887207,3.864907450525539,-12.045615293692746,-0.5173340440393382,0.7213120304398896,0.5743552941238178,-0.03652041762281778,0.0962611665969132,4.290618571471767,3.513389625899453,-11.844185107771764,-12.408324216886362,0.0,0.0
17.71664333343506,-0.16685262322425842,0.5367414355278015,-9.174863815307617,-0.08630154535326293,0.0020432472229003906,0.10514187812805176,3.8527858344966686,-12.018207585542465,-0.5373340440393383,0.7092179215630351,0.6720644835669283,-0.036155751498429346,0.09703336796809212,4.42497778214795,3.3595195590525795,-11.701877730882579,-12.509273038607262,0.0,0.0
17.72569513320923,-0.08486484736204147,0.3166435956954956,-8.886371612548828,-0.102318867386231,0.0035636425018310547,0.10514187812805176,3.9468527716769226,-12.213281298734321,-0.32733404403933813,0.7318622841675915,-0.5604130493321917,-0.04418639793536181,0.09092507407972769,3.9843992529344403,3.9449923841854004,-12.229927711490788,-12.246577292780517,0.0,0.0
17.732759714126587,-0.08486484736204147,0.3166435956954956,-8.886371612548828,-0.102318867386231,0.0023462772369384766,0.10514187812805176,3.9409498143757107,-12.203017931402902,-0.34733404403933815,0.7303648118348406,-0.5868865426758285,-0.04512301497871421,0.1133879279084911,3.9894389984821945,3.9326890587892898,-12.221612812663897,-12.24715083395161,0.0,0.0
17.742749452590942,-0.07002709805965424,0.28039219975471497,-8.827685356140137,-0.10433240534668187,0.0033178329467773438,0.10514187812805176,3.9344362052753037,-12.191098961512768,-0.36733404403933817,0.7339718943041158,-0.9082390647369265,-0.047489280038404705,0.12480259746215797,3.996157194862156,3.917627109139609,-12.210045597603118,-12.247837780416932,0.0,0.0
17.752461433410645,-0.06518024206161499,0.26877033710479736,-8.808175086975098,-0.10493944914152258,0.003102540969848633,0.10514187812805176,3.9272972139059448,-12.17749578634018,-0.3873340440393382,0.7343126269109915,-1.0,-0.0480837313847869,0.13143506512044784,4.005096103448642,3.8992261788060394,-12.194661390298341,-12.249168383903665,0.0,0.0
17.76270318031311,-0.060385920107364655,0.2573806941509247,-8.788684844970703,-0.1055188104000874,0.0027153491973876953,0.10514187812805176,3.9195196088407043,-12.162177085199303,-0.4073340440393382,0.7346376358760744,-1.0,-0.04894958997456961,0.13430540869124155,4.017085661646686,3.876619881707161,-12.174681433804942,-12.25188116366369,0.0,0.0
17.7726092338562,-0.05564438924193382,0.24623122811317444,-8.769261360168457,-0.10605084468212063,0.003482341766357422,0.10514187812805176,3.911091820205392,-12.145108889622183,-0.4273340440393382,0.7348459174249132,-1.0,-0.05011893464533822,0.13596164564240032,4.033387114998123,3.848512513753299,-12.149030918626359,-12.257004944179432,0.0,0.0
17.782456398010254,-0.046319108456373215,0.2246779352426529,-8.730530738830566,-0.10695890267640949,0.0023772716522216797,0.10514187812805176,3.9020040986856097,-12.126254662329073,-0.44733404403933824,0.7362958754887153,-1.0,-0.05341269611788582,0.13696944510578724,4.055906433297145,3.8129659772534636,-12.116241022712867,-12.265956900312652,0.0,0.0
17.792895555496216,-0.04173510894179344,0.21427935361862183,-8.711225509643555,-0.1073346305778919,0.003459930419921875,0.10514187812805176,3.8922486706002646,-12.10557538474493,-0.46733404403933826,0.7363532138138393,-1.0,-0.05607069091822976,0.13793691653880283,4.0875040824378415,3.7670903453740494,-12.074066127572864,-12.280925445107478,0.0,0.0
17.802451848983765,-0.037203215062618256,0.20413276553153992,-8.691957473754883,-0.10766657842481304,0.005041599273681641,0.10514187812805176,3.88181988862976,-12.083029652797192,-0.4873340440393383,0.7364304737946318,-1.0,-0.05880578901162565,0.1387011739154446,4.13247126995663,3.7065679477247793,-12.018858076229293,-12.305496094169298,0.0,0.0
17.813812732696533,-0.032723553478717804,0.19423732161521912,-8.672725677490234,-0.10796487826658566,0.002501964569091797,0.10514187812805176,3.8707143778068644,-12.058573780710937,-0.5073340440393382,0.7364928969649825,-1.0,-0.06167313082206703,0.1393439370530757,4.197153191598427,3.625030448812358,-11.945143611441942,-12.345074167802405,0.0,0.0
17.823344469070435,-0.024372905492782593,0.17620809376239777,-8.631937980651855,-0.10845136429865201,0.005766391754150391,0.10514187812805176,3.8589311763987904,-12.032161912500124,-0.5273340440393383,0.7378860786001217,-1.0,-0.06769511234669141,0.13950009319007523,4.290618571471767,3.513389625899453,-11.844185107771764,-12.408324216886362,0.0,0.0
17.83252263069153,-0.024372905492782593,0.17620809376239777,-8.631937980651855,-0.10845136429865201,0.002365589141845703,0.10514187812805176,3.84647187133015,-12.003746140837851,-0.5473340440393383,0.7366715979305155,-1.0,-0.06889849163380825,0.14078491460752912,4.42497778214795,3.3595195590525795,-11.701877730882579,-12.509273038607262,0.0,0.0
17.966598987579346,0.037400372326374054,0.06404311954975128,-8.290631294250488,-0.10841061558181604,0.004614591598510742,0.12256455421447754,3.9439766497987856,-12.208354885623677,-0.33733404403933814,0.7418105908783376,0.6911755526323848,-0.11025918943400187,0.12336400634208476,3.9843992529344403,3.9449923841854004,-12.229927711490788,-12.246577292780517,0.0,0.0
17.982634782791138,0.040311697870492935,0.06069232523441315,-8.269928932189941,-0.10811071909916682,0.0045320987701416016,0.12256455421447754,3.937770295162172,-12.197267119984348,-0.35733404403933816,0.7419331748037283,0.7870996346491743,-0.11516076682786441,0.09011358474383711,3.9894389984821945,3.9326890587892898,-12.221612812663897,-12.24715083395161,0.0,0.0
17.995698928833008,0.040311697870492935,0.06069232523441315,-8.269928932189941,-0.10811071909916682,0.00462651252746582,0.12256455421447754,3.9309457463926827,-12.184509794206342,-0.3773340440393382,0.7411389563330806,0.8864065851685907,-0.11887085733177767,0.07368719032082514,3.996157194862156,3.917627109139609,-12.210045597603118,-12.247837780416932,0.0,0.0
18.008864402770996,0.05409431457519531,0.045671917498111725,-8.167692184448242,-0.1062786411538263,0.003664731979370117,0.12256455421447754,3.9234890020266278,-12.170052938370716,-0.3973340440393382,0.7447572252196052,1.0,-0.131354139131626,0.07592768093971827,4.005096103448642,3.8992261788060394,-12.194661390298341,-12.249168383903665,0.0,0.0
18.016294956207275,0.05409431457519531,0.045671917498111725,-8.167692184448242,-0.1062786411538263,0.002336263656616211,0.12256455421447754,3.9153876413083277,-12.153863898573212,-0.4173340440393382,0.7439964442583973,1.0,-0.13130266601673163,0.060578520952882464,4.017085661646686,3.876619881707161,-12.174681433804942,-12.25188116366369,0.0,0.0
18.027780532836914,0.06171509623527527,0.037907011806964874,-8.10761833190918,-0.10508680926110159,0.0034041404724121094,0.12256455421447754,3.9066309850035754,-12.135907411528576,-0.43733404403933823,0.7453734153288214,1.0,-0.13547447232086512,0.06068605897340407,4.033387114998123,3.848512513753299,-12.149030918626359,-12.257004944179432,0.0,0.0
18.034568309783936,0.06171509623527527,0.037907011806964874,-8.10761833190918,-0.10508680926110159,0.002627849578857422,0.12256455421447754,3.897210252492596,-12.116145687845835,-0.45733404403933825,0.7446530727031397,1.0,-0.135747448377039,0.0572310839475557,4.055906433297145,3.8129659772534636,-12.116241022712867,-12.265956900312652,0.0,0.0
18.04269051551819,0.06171509623527527,0.037907011806964874,-8.10761833190918,-0.10508680926110159,0.0035037994384765625,0.12256455421447754,3.887118714721153,-12.094538503719761,-0.47733404403933827,0.7439467041895956,1.0,-0.13615201417097375,0.056365614717411236,4.0875040824378415,3.7670903453740494,-12.074066127572864,-12.280925445107478,0.0,0.0
18.05244255065918,0.06652241200208664,0.03320180997252464,-8.068037986755371,-0.10431743131249678,0.003250598907470703,0.12256455421447754,3.876351842607812,-12.071043300763959,-0.4973340440393383,0.7446735035478907,1.0,-0.13498494884752188,0.05291570213378877,4.13247126995663,3.7065679477247793,-12.018858076229293,-12.305496094169298,0.0,0.0
18.062639951705933,0.06652241200208664,0.03320180997252464,-8.068037986755371,-0.10431743131249678,0.0029201507568359375,0.12256455421447754,3.864907450525539,-12.045615293692746,-0.5173340440393382,0.7439716902512473,1.0,-0.13534917186170184,0.053705815272679355,4.197153191598427,3.625030448812358,-11.945143611441942,-12.345074167802405,0.0,0.0
18.07279896736145,0.0733381137251854,0.028132177889347076,-8.007850646972656,-0.10320981070343749,0.004813671112060547,0.12256455421447754,3.8527858344966686,-12.018207585542465,-0.5373340440393383,0.7454216509216074,1.0,-0.1304849854332234,0.04445595742575148,4.290618571471767,3.513389625899453,-11.844185107771764,-12.408324216886362,0.0,0.0
18.199976444244385,0.10129596292972565,0.02868632972240448,-7.705160140991211,-0.09805339785361776,0.0045473575592041016,0.11651301383972168,3.8399899047616706,-11.988771290107868,-0.5573340440393383,0.740904189252661,-0.8243864176693054,-0.09035172696137285,-0.034357782101451184,4.42497778214795,3.3595195590525795,-11.701877730882579,-12.509273038607262,0.0,0.0
18.211620569229126,0.10129596292972565,0.02868632972240448,-7.705160140991211,-0.09805339785361776,0.003152608871459961,0.11651301383972168,3.9409498143757107,-12.203017931402902,-0.34733404403933815,0.7401100377766405,-0.7472924105323648,-0.09754893255632469,0.04129988719371762,3.9843992529344403,3.9449923841854004,-12.229927711490788,-12.246577292780517,0.0,0.0
18.2207190990448,0.10467003285884857,0.03053995408117771,-7.664914131164551,-0.0974868502220809,0.0055811405181884766,0.11651301383972168,3.9344362052753037,-12.191098961512768,-0.36733404403933817,0.7408229103449984,-0.9698189552867724,-0.08772263301808307,0.07440972857178649,3.9894389984821945,3.9326890587892898,-12.221612812663897,-12.24715083395161,0.0,0.0
18.232082843780518,0.10467003285884857,0.03053995408117771,-7.664914131164551,-0.0974868502220809,0.00296783447265625,0.11651301383972168,3.9272972139059448,-12.17749578634018,-0.3873340440393382,0.7399829935041288,-0.8876447929484836,-0.08074831570391268,0.09815498235830183,3.996157194862156,3.917627109139609,-12.210045597603118,-12.247837780416932,0.0,0.0
18.244205236434937,0.10947569459676743,0.03457729518413544,-7.605273246765137,-0.09672298399372384,0.0033333301544189453,0.11651301383972168,3.9195196088407043,-12.162177085199303,-0.4073340440393382,0.7413108646993908,-1.0,-0.06792083231580977,0.10479884056297753,4.005096103448642,3.8992261788060394,-12.194661390298341,-12.249168383903665,0.0,0.0
18.25280261039734,0.11101687699556351,0.03629077225923538,-7.5855488777160645,-0.09648233531163819,0.004893779754638672,0.11651301383972168,3.911091820205392,-12.145108889622183,-0.4273340440393382,0.741040438604211,-1.0,-0.061360274808096096,0.11001966633009352,4.017085661646686,3.876619881707161,-12.174681433804942,-12.25188116366369,0.0,0.0
18.26602029800415,0.11101687699556351,0.03629077225923538,-7.5855488777160645,-0.09648233531163819,0.004507780075073242,0.11651301383972168,3.9020040986856097,-12.126254662329073,-0.44733404403933824,0.7402246318625738,-1.0,-0.05964594219353455,0.11232585058004406,4.033387114998123,3.848512513753299,-12.149030918626359,-12.257004944179432,0.0,0.0
18.276639938354492,0.11547055095434189,0.04259664565324783,-7.526896953582764,-0.09566031753458595,0.0033419132232666016,0.11651301383972168,3.8922486706002646,-12.10557538474493,-0.46733404403933826,0.7412527108685473,-1.0,-0.05078657552086419,0.11344027015487276,4.055906433297145,3.8129659772534636,-12.116241022712867,-12.265956900312652,0.0,0.0
18.284135580062866,0.11690238118171692,0.04509234055876732,-7.5075154304504395,-0.09532742100607251,0.002889394760131836,0.11651301383972168,3.88181988862976,-12.083029652797192,-0.4873340440393383,0.7410872236690582,-1.0,-0.04735119335325704,0.11390549623259683,4.0875040824378415,3.7670903453740494,-12.074066127572864,-12.280925445107478,0.0,0.0
18.29332733154297,0.11830933392047882,0.04778489097952843,-7.488195419311523,-0.09496409757481132,0.003216266632080078,0.11651301383972168,3.8707143778068644,-12.058573780710937,-0.5073340440393382,0.7409654800587969,-1.0,-0.04509946470642861,0.11416248125588728,4.13247126995663,3.7065679477247793,-12.018858076229293,-12.305496094169298,0.0,0.0
18.302433013916016,0.1196918860077858,0.050673481076955795,-7.468934535980225,-0.09457560288333883,0.0052721500396728516,0.11651301383972168,3.8589311763987904,-12.032161912500124,-0.5273340440393383,0.7408577671452369,-1.0,-0.043327003581434535,0.11431270658978877,4.197153191598427,3.625030448812358,-11.945143611441942,-12.345074167802405,0.0,0.0
18.31595492362976,0.1196918860077858,0.050673481076955795,-7.468934535980225,-0.09457560288333883,0.0051572322845458984,0.11651301383972168,3.84647187133015,-12.003746140837851,-0.5473340440393383,0.740067227716523,-1.0,-0.043027546277914504,0.11438321319999936,4.290618571471767,3.513389625899453,-11.844185107771764,-12.408324216886362,0.0,0.0
18.456594705581665,0.14632415771484375,0.15098196268081665,-7.10138463973999,-0.08327489237316581,0.0024030208587646484,0.12223672866821289,3.833340727818103,-11.97327663297445,-0.5661497559548085,0.7513055151753242,-1.0,-0.0430943953925968,0.10580630818548412,4.42497778214795,3.3595195590525795,-11.701877730882579,-12.509273038607262,0.0,0.0
18.46398615837097,0.14801359176635742,0.15911154448986053,-7.082366943359375,-0.08257906523091499,0.002067089080810547,0.12223672866821289,3.937770295162172,-12.197267119984348,-0.35733404403933816,0.751195970212432,-1.0,-0.044073877368513835,0.10074809940905916,3.9843992529344403,3.9449923841854004,-12.229927711490788,-12.246577292780517,0.0,0.0
18.472519636154175,0.15127456188201904,0.1755685955286026,-7.0445661544799805,-0.08116310065539582,0.0024623870849609375,0.12223672866821289,3.9309457463926827,-12.184509794206342,-0.3773340440393382,0.7516589738778163,-1.0,-0.04483812325759249,0.09705855189964918,3.9894389984821945,3.9326890587892898,-12.221612812663897,-12.24715083395161,0.0,0.0
18.482530117034912,0.15284675359725952,0.18388785421848297,-7.025781154632568,-0.08044219684309335,0.0020401477813720703,0.12223672866821289,3.9234890020266278,-12.170052938370716,-0.3973340440393382,0.751520489633415,-1.0,-0.045186934240384294,0.09491647669144748,3.996157194862156,3.917627109139609,-12.210045597603118,-12.247837780416932,0.0,0.0
18.49292492866516,0.15438057482242584,0.19226206839084625,-7.007058620452881,-0.07971471095504798,0.0023374557495117188,0.12223672866821289,3.9153876413083277,-12.153863898573212,-0.4173340440393382,0.7513441485521554,-1.0,-0.04540639166121632,0.09331056019202336,4.005096103448642,3.8992261788060394,-12.194661390298341,-12.249168383903665,0.0,0.0
18.502476453781128,0.155876025557518,0.2006874531507492,-6.988403797149658,-0.07898093908180007,0.002793550491333008,0.12223672866821289,3.9066309850035754,-12.135907411528576,-0.43733404403933823,0.7511179241738133,-1.0,-0.04565101279975511,0.09184480358888719,4.017085661646686,3.876619881707161,-12.174681433804942,-12.25188116366369,0.0,0.0
18.512835025787354,0.1587524116039276,0.21767547726631165,-6.951309680938721,-0.07749558676642232,0.002276897430419922,0.12223672866821289,3.897210252492596,-12.116145687845835,-0.45733404403933825,0.7512915597988108,-1.0,-0.04600949188458313,0.08951882233247417,4.033387114998123,3.848512513753299,-12.149030918626359,-12.257004944179432,0.0,0.0
18.52259397506714,0.16013343632221222,0.22622956335544586,-6.932915210723877,-0.07674664476932087,0.002526521682739258,0.12223672866821289,3.887118714721153,-12.094538503719761,-0.47733404403933827,0.7509971969073788,-1.0,-0.04610267121818093,0.08795146510349841,4.055906433297145,3.8129659772534636,-12.116241022712867,-12.265956900312652,0.0,0.0
18.532575368881226,0.16147124767303467,0.23480862379074097,-6.914593696594238,-0.07599373869877472,0.0019958019256591797,0.12223672866821289,3.876351842607812,-12.071043300763959,-0.4973340440393383,0.7506953214443687,-1.0,-0.04618166641150739,0.08650671771854428,4.0875040824378415,3.7670903453740494,-12.074066127572864,-12.280925445107478,0.0,0.0
18.542855978012085,0.16277164220809937,0.24341697990894318,-6.896346092224121,-0.07523539462847788,0.002791166305541992,0.12223672866821289,3.864907450525539,-12.045615293692746,-0.5173340440393382,0.750384344870437,-1.0,-0.046311254265321525,0.08506072725132045,4.13247126995663,3.7065679477247793,-12.018858076229293,-12.305496094169298,0.0,0.0
18.55268120765686,0.1652609407901764,0.2607027292251587,-6.860070705413818,-0.0737095556917562,0.004021883010864258,0.12223672866821289,3.8527858344966686,-12.018207585542465,-0.5373340440393383,0.7504418504196836,-1.0,-0.04659481214110445,0.08257073627852764,4.197153191598427,3.625030448812358,-11.945143611441942,-12.345074167802405,0.0,0.0
18.668965339660645,0.18403387069702148,0.40499240159988403,-6.594890117645264,-0.06242185256393018,0.002886533737182617,0.10368752479553223,3.8399899047616706,-11.988771290107868,-0.5573340440393383,0.7480326150108286,-0.504477684954138,-0.04578158497833494,0.06352339358576849,4.290618571471767,3.513389625899453,-11.844185107771764,-12.408324216886362,0.0,0.0
18.677460432052612,0.18403387069702148,0.40499240159988403,-6.594890117645264,-0.06242185256393018,0.0023391246795654297,0.10368752479553223,3.8265063437419635,-11.957263743904361,-0.573199455842201,0.7474278630544385,-0.49094474317931547,-0.041304367780610085,0.07444169034646433,4.42497778214795,3.3595195590525795,-11.701877730882579,-12.509273038607262,0.0,0.0
18.683905839920044,0.18503370881080627,0.4143213629722595,-6.577785015106201,-0.06165606584851609,0.0017561912536621094,0.10368752479553223,3.9344362052753037,-12.191098961512768,-0.36733404403933817,0.7471682308747026,-0.4457038285627941,-0.042107547343518334,0.07347525876057469,3.9843992529344403,3.9449923841854004,-12.229927711490788,-12.246577292780517,0.0,0.0
18.692765951156616,0.1859958916902542,0.4235661029815674,-6.560741901397705,-0.06088788805862114,0.0026082992553710938,0.10368752479553223,3.9272972139059448,-12.17749578634018,-0.3873340440393382,0.7469149704814197,-0.3979439024757718,-0.04184200257139728,0.07395923443992342,3.9894389984821945,3.9326890587892898,-12.221612812663897,-12.24715083395161,0.0,0.0
18.70244574546814,0.18692071735858917,0.43272194266319275,-6.543759822845459,-0.060120064471855555,0.0023584365844726562,0.10368752479553223,3.9195196088407043,-12.162177085199303,-0.4073340440393382,0.746664967534458,-0.3477545349403274,-0.04180081291476722,0.07395017277157431,3.996157194862156,3.917627109139609,-12.210045597603118,-12.247837780416932,0.0,0.0
18.712658166885376,0.1900831162929535,0.45241209864616394,-6.508367538452148,-0.05861122027820313,0.002292156219482422,0.10368752479553223,3.911091820205392,-12.145108889622183,-0.4273340440393382,0.746806648872503,-0.2665535643967645,-0.04069049950243659,0.07401517152660289,4.005096103448642,3.8992261788060394,-12.194661390298341,-12.249168383903665,0.0,0.0
18.722713470458984,0.19158640503883362,0.46208107471466064,-6.490833282470703,-0.05786857033991617,0.003127574920654297,0.10368752479553223,3.9020040986856097,-12.126254662329073,-0.44733404403933824,0.7465948508432294,-0.22016912171955472,-0.040045978582566095,0.07399966724503346,4.017085661646686,3.876619881707161,-12.174681433804942,-12.25188116366369,0.0,0.0
18.73257040977478,0.19303876161575317,0.4716276228427887,-6.473373889923096,-0.057128896482394345,0.0021288394927978516,0.10368752479553223,3.8922486706002646,-12.10557538474493,-0.46733404403933826,0.7464004175963151,-0.17526264760077392,-0.03948109368051946,0.07383148391391862,4.033387114998123,3.848512513753299,-12.149030918626359,-12.257004944179432,0.0,0.0
18.74311399459839,0.19443443417549133,0.4810503125190735,-6.455986022949219,-0.05639358887177838,0.0023119449615478516,0.10368752479553223,3.88181988862976,-12.083029652797192,-0.4873340440393383,0.746222717187614,-0.13201888395799966,-0.03896148076321074,0.07362382444833508,4.055906433297145,3.8129659772534636,-12.116241022712867,-12.265956900312652,0.0,0.0
18.75259494781494,0.19707800447940826,0.49950703978538513,-6.42141580581665,-0.05492639905602584,0.002291440963745117,0.10368752479553223,3.8707143778068644,-12.058573780710937,-0.5073340440393382,0.7464811308536705,-0.06326246894149656,-0.03801112131196413,0.07316113476959718,4.0875040824378415,3.7670903453740494,-12.074066127572864,-12.280925445107478,0.0,0.0
18.762770891189575,0.19832730293273926,0.5085362195968628,-6.404229640960693,-0.05419317332405062,0.0022509098052978516,0.10368752479553223,3.8589311763987904,-12.032161912500124,-0.5273340440393383,0.7463312755714273,-0.02513594179396439,-0.03740369049886404,0.07280814013755287,4.13247126995663,3.7065679477247793,-12.018858076229293,-12.305496094169298,0.0,0.0
18.77259659767151,0.19952929019927979,0.5174297094345093,-6.387106418609619,-0.0534617207685561,0.00232696533203125,0.10368752479553223,3.84647187133015,-12.003746140837851,-0.5473340440393383,0.7461888411239075,0.011332997149670287,-0.03685797773481126,0.07240236316260493,4.197153191598427,3.625030448812358,-11.945143611441942,-12.345074167802405,0.0,0.0
18.782737731933594,0.2006845921278,0.5261859893798828,-6.370086669921875,-0.05273283146143548,0.0020008087158203125,0.10368752479553223,3.833340727818103,-11.97327663297445,-0.5661497559548085,0.7460479948417204,0.04617944995168177,-0.03636329556712478,0.07196467961264597,4.290618571471767,3.513389625899453,-11.844185107771764,-12.408324216886362,0.0,0.0
18.79300022125244,0.20179401338100433,0.534803569316864,-6.353126049041748,-0.05200588422863915,0.002543926239013672,0.10368752479553223,3.81945837014791,-11.940739246345327,-0.5785781888967384,0.7459150034231202,0.07938529541367012,-0.03590742007308157,0.07150072489737663,4.42497778214795,3.3595195590525795,-11.701877730882579,-12.509273038607262,0.0,0.0
