time,x,y,z,yaw,ctrl_comp_time,rollout_comptime,y_ref,z_ref,yaw_ref,throttle,roll_rate,pitch_rate,yaw_rate,save_tube_pyH,save_tube_pyL,save_tube_pzH,save_tube_pzL,wy,wz
15.002179861068726,-0.03505600616335869,3.89036226272583,-12.635522842407227,0.0002669778316603099,0.18842053413391113,0.11243915557861328,3.882721602519513,-12.592615156470712,-0.12355625613533525,0.5887045422764496,-1.0,-0.022942701564427015,0.017588151398916913,3.9105229015345357,3.8551686466958657,-12.571365074889286,-12.625927202085332,0.0,0.0
15.470930099487305,-0.03505600616335869,3.89036226272583,-12.635522842407227,0.0002669778316603099,0.16534066200256348,0.11243915557861328,3.8824390439130223,-12.579551829133722,-0.14355625613533526,0.5873436809935343,-1.0,-0.07201739433802784,-0.04844833009742567,3.9229691584728945,3.8422052352147795,-12.546927900794197,-12.625571542312839,0.0,0.0
15.570338487625122,0.016027577221393585,3.9142727851867676,-12.674857139587402,-0.0013952938060007624,0.003398418426513672,0.07469511032104492,3.8820871175271496,-12.565165987245221,-0.16355625613533528,0.5882314995933713,-1.0,-0.1355288532493295,-0.2499624147733474,3.939311231293602,3.8252358982059502,-12.51775961806986,-12.627287065493851,0.0,0.0
15.577659130096436,0.016027577221393585,3.9142727851867676,-12.674857139587402,-0.0013952938060007624,0.0023565292358398438,0.07469511032104492,3.8816364554338563,-12.549470901993269,-0.1835562561353353,0.5868731184567891,-1.0,-0.33487019727453066,-0.5249812073866736,3.960735563819706,3.8030164373289104,-12.482891532658495,-12.632071180381713,0.0,0.0
15.585364818572998,0.016645362600684166,3.915304183959961,-12.675908088684082,-0.0013935583511903542,0.0026693344116210938,0.07469511032104492,3.881056781519048,-12.532477627377272,-0.20355625613533532,0.5854722497885062,-1.0,-0.47440913809217145,-0.6624906036933368,3.9889699298280283,3.7737594101100473,-12.440844136917704,-12.641427734390124,0.0,0.0
15.59418773651123,0.01725483313202858,3.9163057804107666,-12.676884651184082,-0.001392416306710415,0.002526998519897461,0.07469511032104492,3.8803170116547308,-12.514194944155161,-0.22355625613533534,0.5840666774111458,-1.0,-0.5720863966645201,-0.7312453018466684,4.0265679475626746,3.73484981263875,-12.389338000378768,-12.65765600618315,0.0,0.0
15.601535320281982,0.01725483313202858,3.9163057804107666,-12.676884651184082,-0.001392416306710415,0.002537250518798828,0.07469511032104492,3.879385356837025,-12.494629308444852,-0.24355625613533535,0.5826901031357652,-1.0,-0.640460477665164,-0.7656226509233343,4.077348926895857,3.68240543577353,-12.324853690007837,-12.684290677927537,0.0,0.0
15.61125659942627,0.019033046439290047,3.9191393852233887,-12.6793851852417,-0.0013827106749233894,0.0025970935821533203,0.07469511032104492,3.878229429060116,-12.473784805114656,-0.26355625613533534,0.5812369788111396,-1.0,-0.6883223343656147,-0.7828113254616672,4.147055062031999,3.6106198815080486,-12.241990625892843,-12.726742881565478,0.0,0.0
15.621142387390137,0.019609859213232994,3.9200358390808105,-12.680078506469727,-0.0014062673414718682,0.002711057662963867,0.07469511032104492,3.8768163496909263,-12.45166310608561,-0.28355625613533536,0.5798959342735566,-1.0,-0.7218256340559303,-0.7914056627308336,4.244248074065335,3.5108661347215633,-12.132628722815276,-12.793138468906305,0.0,0.0
15.63107442855835,0.020178750157356262,3.9209065437316895,-12.680712699890137,-0.0014724895740684941,0.002644777297973633,0.07469511032104492,3.8751128601045917,-12.428263433656726,-0.3035562561353354,0.5787195500332579,-1.0,-0.7452779438391512,-0.795702831365417,4.381277610228063,3.370728383001442,-11.985136077294534,-12.895110246183476,0.0,0.0
15.641076803207397,0.0212936419993639,3.9225735664367676,-12.681708335876465,-0.0017186470719950941,0.002626180648803711,0.07469511032104492,3.873085434336749,-12.403582528952105,-0.3235562561353354,0.5778514257421086,-1.0,-0.7616945606874059,-0.7978514156827085,4.574552431814101,3.1737310520686246,-11.782014073130354,-13.05015280026129,0.0,0.0
15.65110158920288,0.021840620785951614,3.923370361328125,-12.68206787109375,-0.0019097645205719388,0.0027070045471191406,0.07469511032104492,3.870700393505161,-12.377614625576665,-0.3435562561353354,0.5768081175281667,-1.0,-0.7731861924811841,-0.7989257078413542,4.844727395775738,2.8991520513171465,-11.490870535244277,-13.290649286876112,0.0,0.0
15.661067008972168,0.022381596267223358,3.924142599105835,-12.682336807250977,-0.0021415908785428458,0.0027205944061279297,0.07469511032104492,3.8825871968438364,-12.58624972155352,-0.13355625613533526,0.5756694887035222,-1.0,-0.7812303347368289,-0.7994628539206771,3.9105229015345357,3.8551686466958657,-12.571365074889286,-12.625927202085332,0.0,0.0
15.671190977096558,0.02291748858988285,3.92488956451416,-12.682517051696777,-0.0024230230588346453,0.002959012985229492,0.07469511032104492,3.8822735647497755,-12.572523341781856,-0.15355625613533527,0.5746064802886193,-1.0,-0.7868612343157803,-0.7997314269603387,3.9229691584728945,3.8422052352147795,-12.546927900794197,-12.625571542312839,0.0,0.0
15.681055784225464,0.02402546815574169,3.926997184753418,-12.683687210083008,-0.0030883679929599164,0.002617359161376953,0.07469511032104492,3.881876000574308,-12.557481356520105,-0.1735562561353353,0.5737315639108703,-1.0,-0.7908028640210462,-0.7998657134801693,3.939311231293602,3.8252358982059502,-12.51775961806986,-12.627287065493851,0.0,0.0
15.691275596618652,0.02459859289228916,3.9283411502838135,-12.684629440307617,-0.0034708915113930826,0.0028312206268310547,0.07469511032104492,3.8813646699690376,-12.541135935653914,-0.1935562561353353,0.5726092906136239,-1.0,-0.7935620048147323,-0.7999328567400849,3.960735563819706,3.8030164373289104,-12.482891532658495,-12.632071180381713,0.0,0.0
15.702194213867188,0.02517016790807247,3.9296419620513916,-12.685464859008789,-0.0038850182641809302,0.002772092819213867,0.07469511032104492,3.880708880100712,-12.523497003280958,-0.21355625613533533,0.5713688913870927,-1.0,-0.7954934033703125,-0.7999664283700426,3.9889699298280283,3.7737594101100473,-12.440844136917704,-12.641427734390124,0.0,0.0
15.810249090194702,0.02517016790807247,3.9296419620513916,-12.685464859008789,-0.0038850182641809302,0.0027396678924560547,0.09876728057861328,3.879877181334693,-12.504572183967687,-0.23355625613533534,0.5913136417812557,-1.0,-0.7968453823592188,-0.7999832141850215,4.0265679475626746,3.73484981263875,-12.389338000378768,-12.65765600618315,0.0,0.0
15.821680307388306,0.03493628278374672,3.9445176124572754,-12.689492225646973,-0.01257984049929267,0.002727031707763672,0.09876728057861328,3.878837471770024,-12.48436675372916,-0.25355625613533533,0.5897286115347437,-0.8497519700641332,-0.7977917676514531,-0.7999916070925109,4.077348926895857,3.68240543577353,-12.324853690007837,-12.684290677927537,0.0,0.0
15.831201791763306,0.03588706627488136,3.945603132247925,-12.689696311950684,-0.01315888995469497,0.0026557445526123047,0.09876728057861328,3.87755710439345,-12.46288359586079,-0.27355625613533535,0.5881595216041589,-0.927650919730213,-0.7984542373560172,-0.7999958035462554,4.147055062031999,3.6106198815080486,-12.241990625892843,-12.726742881565478,0.0,0.0
15.8427255153656,0.03778095915913582,3.9475855827331543,-12.689995765686035,-0.014286127412238626,0.0055048465728759766,0.09876728057861328,3.8760029966147527,-12.440123161739004,-0.29355625613533537,0.5863895095943065,-1.0,-0.798917966149212,-0.7999979017731277,4.244248074065335,3.5108661347215633,-12.132628722815276,-12.793138468906305,0.0,0.0
15.857106685638428,0.03778095915913582,3.9475855827331543,-12.689995765686035,-0.014286127412238626,0.0029239654541015625,0.09876728057861328,3.874141741941363,-12.416083436695823,-0.3135562561353354,0.5850142744717529,-1.0,-0.7992425763044484,-0.7999989508865638,4.381277610228063,3.370728383001442,-11.985136077294534,-12.895110246183476,0.0,0.0
15.866634845733643,0.040590837597846985,3.9501264095306396,-12.690009117126465,-0.016367308425469754,0.002813577651977539,0.09876728057861328,3.871939723546442,-12.390759911060195,-0.3335562561353354,0.5846639269726549,-1.0,-0.7994698034131139,-0.7999994754432819,4.574552431814101,3.1737310520686246,-11.782014073130354,-13.05015280026129,0.0,0.0
15.874460697174072,0.040590837597846985,3.9501264095306396,-12.690009117126465,-0.016367308425469754,0.002763986587524414,0.09876728057861328,3.8693632294814626,-12.364145556446736,-0.3535562561353354,0.583280641061193,-1.0,-0.7996288623891797,-0.7999997377216409,4.844727395775738,2.8991520513171465,-11.490870535244277,-13.290649286876112,0.0,0.0
15.883888721466064,0.0424441434442997,3.9515671730041504,-12.689459800720215,-0.018080150594650523,0.002641439437866211,0.09876728057861328,3.889148104317484,-12.607934814771127,-0.0833917206290625,0.5839560885268985,-1.0,-0.7997402036724258,-0.7999998688608204,3.90017814366887,3.878297229149017,-12.601451624259433,-12.623382551271744,0.0,0.0
15.8936927318573,0.0424441434442997,3.9515671730041504,-12.689459800720215,-0.018080150594650523,0.0030074119567871094,0.09876728057861328,3.8889700599802324,-12.59793828259148,-0.10339172062906249,0.5825669264243161,-1.0,-0.7998181425706982,-0.7999999344304102,3.9070992743005335,3.871020647895891,-12.585133262495011,-12.621082165478825,0.0,0.0
15.905175924301147,0.044302716851234436,3.952812433242798,-12.688240051269531,-0.02006418680812649,0.003889799118041992,0.09876728057861328,3.888771814114834,-12.586581795376535,-0.12339172062906248,0.5838273916172163,-1.0,-0.7998726997994887,-0.799999967215205,3.9164951026469215,3.8612551515113123,-12.565158436092556,-12.619699351815155,0.0,0.0
15.915613174438477,0.045241907238960266,3.953359603881836,-12.687355041503906,-0.02115673291381521,0.0026750564575195312,0.09876728057861328,3.8885262996229724,-12.573882814176743,-0.1433917206290625,0.5839032282497789,-1.0,-0.7999108898596421,-0.7999999836076027,3.92893945154018,3.848373950838697,-12.541094446441413,-12.619703765360459,0.0,0.0
15.924741744995117,0.04715344309806824,3.9542946815490723,-12.685022354125977,-0.02353317191027554,0.002675771713256836,0.09876728057861328,3.8882053493468995,-12.559856714297338,-0.16339172062906251,0.5856790612799122,-1.0,-0.7999376229017495,-0.7999999918038015,3.9452520675883456,3.8315020421035793,-12.512301772219423,-12.621767780573762,0.0,0.0
16.037991046905518,0.06305048614740372,3.9506542682647705,-12.65320110321045,-0.04342326239216304,0.00431370735168457,0.10231971740722656,3.887779789482778,-12.544516720294617,-0.18339172062906253,0.6211822282487216,-0.13574459735836297,-0.7999563360312246,-0.7999999959019007,3.9666110573303275,3.8094039540157314,-12.477817590197377,-12.626882836261208,0.0,0.0
16.052018880844116,0.06305048614740372,3.9506542682647705,-12.65320110321045,-0.04342326239216304,0.002528667449951172,0.10231971740722656,3.8872195364049857,-12.527873845317643,-0.20339172062906255,0.6198827325359468,-0.21431621762513786,-0.7999694352218573,-0.7999999979509504,3.994732135348309,3.7803046899478834,-12.436172251119846,-12.636542833992412,0.0,0.0
16.061607122421265,0.0677955150604248,3.947873830795288,-12.640656471252441,-0.04869826446713128,0.0029382705688476562,0.10231971740722656,3.8864936966840684,-12.509936834952985,-0.22339172062906257,0.6246214377854074,-0.05269367314226925,-0.7999786046553001,-0.7999999989754754,4.032151127477081,3.741607421623815,-12.38510243011376,-12.653030870840302,0.0,0.0
16.071154832839966,0.07205497473478317,3.947204113006592,-12.632172584533691,-0.05230739277547715,0.002866029739379883,0.10231971740722656,3.88557067007453,-12.490712115718866,-0.24339172062906259,0.6274337199049367,0.025568518851666333,-0.7884005473184527,-0.7999999994877377,4.082660742864793,3.689456920120067,-12.321114292195505,-12.679855966177763,0.0,0.0
16.081047296524048,0.07205497473478317,3.947204113006592,-12.632172584533691,-0.05230739277547715,0.0028238296508789062,0.10231971740722656,3.884418255242742,-12.470203748343593,-0.2633917206290626,0.6261143263803254,-0.059364071589880885,-0.7733249437248457,-0.7999999997438688,4.151963522849733,3.6180868157629784,-12.238846389614169,-12.7223900660747,0.0,0.0
16.091382026672363,0.07890011370182037,3.945223569869995,-12.617754936218262,-0.05785225944148453,0.0030019283294677734,0.10231971740722656,3.883003757999948,-12.448413385951367,-0.2833917206290626,0.630898966226937,0.10613848342219323,-0.6973206356046769,-0.7999999998719344,4.24856405536297,3.5189275977463326,-12.130234363826004,-12.788703252758523,0.0,0.0
16.10254192352295,0.07890011370182037,3.945223569869995,-12.617754936218262,-0.05785225944148453,0.002962827682495117,0.10231971740722656,3.881294101800637,-12.425340237266694,-0.3033917206290626,0.6295606418301531,0.016532726799801445,-0.6391103465791569,-0.7999999999359672,4.384737430386495,3.3796383774650707,-11.983713816329269,-12.89036079514322,0.0,0.0
16.11250948905945,0.08379536867141724,3.9431848526000977,-12.607064247131348,-0.06169601204103757,0.0027086734771728516,0.10231971740722656,3.8890599610982126,-12.603107713986915,-0.0933917206290625,0.6320558919615605,0.08862168352797628,-0.5626807558014413,-0.7999999999679835,3.90017814366887,3.878297229149017,-12.601451624259433,-12.623382551271744,0.0,0.0
16.121721267700195,0.08379536867141724,3.9431848526000977,-12.607064247131348,-0.06169601204103757,0.002912282943725586,0.10231971740722656,3.888875127079117,-12.592428893953855,-0.11339172062906248,0.6306950669561538,-0.006220449670260031,-0.5150117736259625,-0.7999999999839917,3.9070992743005335,3.871020647895891,-12.585133262495011,-12.621082165478825,0.0,0.0
16.131755113601685,0.09170975536108017,3.938957929611206,-12.589578628540039,-0.06786026466686544,0.002779245376586914,0.10231971740722656,3.8886567011894386,-12.580399105900934,-0.1333917206290625,0.6350835372793787,0.11922584546486115,-0.4229266863334355,-0.7999999999919959,3.9164951026469215,3.8612551515113123,-12.565158436092556,-12.619699351815155,0.0,0.0
16.249703884124756,0.09170975536108017,3.938957929611206,-12.589578628540039,-0.06786026466686544,0.0026776790618896484,0.10867738723754883,3.8883770548459626,-12.567034776396591,-0.1533917206290625,0.6304571539698979,-1.0,-0.3707548262313739,-0.799999999995998,3.92893945154018,3.848373950838697,-12.541094446441413,-12.619703765360459,0.0,0.0
16.26016330718994,0.14649717509746552,3.8963067531585693,-12.484423637390137,-0.11254022218277202,0.0041599273681640625,0.10867738723754883,3.888007505673029,-12.55235021322929,-0.17339172062906252,0.658435061742625,-0.2841916897426904,-0.07935362341877815,-0.7999999999979991,3.9452520675883456,3.8315020421035793,-12.512301772219423,-12.621767780573762,0.0,0.0
16.26875615119934,0.14649717509746552,3.8963067531585693,-12.484423637390137,-0.11254022218277202,0.0033049583435058594,0.10867738723754883,3.887518412648096,-12.536357542556127,-0.19339172062906254,0.6572442215286968,-0.42271383826191056,0.10890442364709475,-0.5998987975041996,3.9666110573303275,3.8094039540157314,-12.477817590197377,-12.626882836261208,0.0,0.0
16.278238534927368,0.15585918724536896,3.887855052947998,-12.467698097229004,-0.12015615060260239,0.0035071372985839844,0.10867738723754883,3.886879274550448,-12.51906665047703,-0.21339172062906256,0.659999479663471,-0.4653130184166462,0.31623309655296633,-0.2116150808789708,3.994732135348309,3.7803046899478834,-12.436172251119846,-12.636542833992412,0.0,0.0
16.286161422729492,0.15585918724536896,3.887855052947998,-12.467698097229004,-0.12015615060260239,0.005065441131591797,0.10867738723754883,3.88605883149243,-12.50048512918663,-0.23339172062906258,0.6588270002041666,-0.6109001732757094,0.46136316758707646,0.49984039534037883,4.032151127477081,3.741607421623815,-12.38510243011376,-12.653030870840302,0.0,0.0
16.29791808128357,0.17082108557224274,3.87391996383667,-12.441150665283203,-0.132056758243216,0.0032918453216552734,0.10867738723754883,3.8850251693063553,-12.480618227844431,-0.25339172062906257,0.6635265573690456,-0.6046755812877808,0.5629542173109535,0.6499201976701895,4.082660742864793,3.689456920120067,-12.321114292195505,-12.679855966177763,0.0,0.0
16.308288097381592,0.17082108557224274,3.87391996383667,-12.441150665283203,-0.132056758243216,0.0035371780395507812,0.10867738723754883,3.883745826554651,-12.459468808292261,-0.2733917206290626,0.6623840392590881,-0.7577716829309611,0.6340679521176675,0.7249600988350947,4.151963522849733,3.6180868157629784,-12.238846389614169,-12.7223900660747,0.0,0.0
16.318750619888306,0.1812194585800171,3.8631157875061035,-12.422247886657715,-0.1402880539444345,0.005717754364013672,0.10867738723754883,3.8821879039257827,-12.437037305736242,-0.2933917206290626,0.6650383856606052,-0.7816520430573273,0.6838475664823673,0.7624800494175473,4.24856405536297,3.5189275977463326,-12.130234363826004,-12.788703252758523,0.0,0.0
16.333652019500732,0.1812194585800171,3.8631157875061035,-12.422247886657715,-0.1402880539444345,0.004069805145263672,0.10867738723754883,3.880318175774105,-12.413321694498444,-0.3133917206290626,0.6639148468463031,-0.9419406756486516,0.7186932965376571,0.7812400247087737,4.384737430386495,3.3796383774650707,-11.983713816329269,-12.89036079514322,0.0,0.0
16.449955940246582,0.2927141785621643,3.734910249710083,-12.239507675170898,-0.21477226797989316,0.0035409927368164062,0.10404443740844727,3.8889700599802324,-12.59793828259148,-0.10339172062906249,0.6799773066249287,0.8826661461465741,0.74308530757636,0.7906200123543868,3.90017814366887,3.878297229149017,-12.601451624259433,-12.623382551271744,0.0,0.0
16.46013355255127,0.2927141785621643,3.734910249710083,-12.239507675170898,-0.21477226797989316,0.003579854965209961,0.10404443740844727,3.888771814114834,-12.586581795376535,-0.12339172062906248,0.6788299701088291,0.7302182066346368,0.760159715303452,0.7953100061771934,3.9070992743005335,3.871020647895891,-12.585133262495011,-12.621082165478825,0.0,0.0
16.46938729286194,0.30938267707824707,3.714973211288452,-12.21652889251709,-0.22154331653421255,0.004678964614868164,0.10404443740844727,3.8885262996229724,-12.573882814176743,-0.1433917206290625,0.6809976715592688,0.8592546621983814,0.7721118007124165,0.7976550030885967,3.9164951026469215,3.8612551515113123,-12.565158436092556,-12.619699351815155,0.0,0.0
16.480159521102905,0.30938267707824707,3.714973211288452,-12.21652889251709,-0.22154331653421255,0.003566741943359375,0.10404443740844727,3.8882053493468995,-12.559856714297338,-0.16339172062906251,0.6798507597315248,0.6997856555723829,0.7804782604986915,0.7988275015442984,3.92893945154018,3.848373950838697,-12.541094446441413,-12.619703765360459,0.0,0.0
16.490384340286255,0.33505430817604065,3.683593511581421,-12.181056022644043,-0.23060778506539234,0.004759073257446289,0.10404443740844727,3.887779789482778,-12.544516720294617,-0.18339172062906253,0.6837000390363673,0.9822309628882202,0.786334782349084,0.7994137507721492,3.9452520675883456,3.8315020421035793,-12.512301772219423,-12.621767780573762,0.0,0.0
16.500312328338623,0.33505430817604065,3.683593511581421,-12.181056022644043,-0.23060778506539234,0.004106044769287109,0.10404443740844727,3.8872195364049857,-12.527873845317643,-0.20339172062906255,0.6825533291839323,0.8153137025361996,0.7904343476443588,0.7997068753860747,3.9666110573303275,3.8094039540157314,-12.477817590197377,-12.626882836261208,0.0,0.0
16.51334500312805,0.3525705933570862,3.6616368293762207,-12.156781196594238,-0.23577846961467766,0.003461122512817383,0.10404443740844727,3.8864936966840684,-12.509936834952985,-0.22339172062906257,0.6844109423782684,0.9377550268838637,0.7933040433510512,0.7998534376930374,3.994732135348309,3.7803046899478834,-12.436172251119846,-12.636542833992412,0.0,0.0
16.521241664886475,0.3525705933570862,3.6616368293762207,-12.156781196594238,-0.23577846961467766,0.003522157669067383,0.10404443740844727,3.88557067007453,-12.490712115718866,-0.24339172062906259,0.6832693521905628,0.7634684637553666,0.7953128303457359,0.7999267188465188,4.032151127477081,3.741607421623815,-12.38510243011376,-12.653030870840302,0.0,0.0
16.63858199119568,0.5077428817749023,3.447922468185425,-11.949553489685059,-0.2560196784815029,0.0038602352142333984,0.10650205612182617,3.884418255242742,-12.470203748343593,-0.2633917206290626,0.698942518395038,0.4618912426269628,0.7967189812420151,0.7999633594232595,4.082660742864793,3.689456920120067,-12.321114292195505,-12.679855966177763,0.0,0.0
16.648494720458984,0.5077428817749023,3.447922468185425,-11.949553489685059,-0.2560196784815029,0.0030939579010009766,0.10650205612182617,3.883003757999948,-12.448413385951367,-0.2833917206290626,0.6981321278492633,0.2640823237855141,0.7977032868694106,0.7999816797116298,4.151963522849733,3.6180868157629784,-12.238846389614169,-12.7223900660747,0.0,0.0
16.65707302093506,0.5387319326400757,3.4017372131347656,-11.9081392288208,-0.25579565970693846,0.003208637237548828,0.10650205612182617,3.881294101800637,-12.425340237266694,-0.3033917206290626,0.7004989650328746,0.25747277862637463,0.7983923008085875,0.7999908398558149,4.24856405536297,3.5189275977463326,-12.130234363826004,-12.788703252758523,0.0,0.0
16.665071725845337,0.5387319326400757,3.4017372131347656,-11.9081392288208,-0.25579565970693846,0.0033218860626220703,0.10650205612182617,3.8792559402624534,-12.400981034936537,-0.32339172062906263,0.6997621922096275,0.052240874454743125,0.7988746105660113,0.7999954199279075,4.384737430386495,3.3796383774650707,-11.983713816329269,-12.89036079514322,0.0,0.0
16.674031972885132,0.5490870475769043,3.3860673904418945,-11.894132614135742,-0.2554231361411274,0.003244638442993164,0.10650205612182617,3.888875127079117,-12.592428893953855,-0.11339172062906248,0.7000755744704356,-0.0954344938281152,0.7992122273962079,0.7999977099639537,3.90017814366887,3.878297229149017,-12.601451624259433,-12.623382551271744,0.0,0.0
16.681828498840332,0.5490870475769043,3.3860673904418945,-11.894132614135742,-0.2554231361411274,0.0032918453216552734,0.10650205612182617,3.8886567011894386,-12.580399105900934,-0.1333917206290625,0.6993814293692515,-0.3077473259666512,0.7994485591773456,0.7999988549819769,3.9070992743005335,3.871020647895891,-12.585133262495011,-12.621082165478825,0.0,0.0
16.691137313842773,0.5807636380195618,3.3368797302246094,-11.85268497467041,-0.2534594125514826,0.0033130645751953125,0.10650205612182617,3.8883770548459626,-12.567034776396591,-0.1533917206290625,0.7015104382042763,-0.3364979075786194,0.7996139914241419,0.7999994274909885,3.9164951026469215,3.8612551515113123,-12.565158436092556,-12.619699351815155,0.0,0.0
16.701589345932007,0.5916789770126343,3.319293975830078,-11.83939266204834,-0.2528377608504963,0.0032482147216796875,0.10650205612182617,3.888007505673029,-12.55235021322929,-0.17339172062906252,0.7016902353562767,-0.4859013261995053,0.7997297939968994,0.7999997137454943,3.92893945154018,3.848373950838697,-12.541094446441413,-12.619703765360459,0.0,0.0
16.819060802459717,0.5916789770126343,3.319293975830078,-11.83939266204834,-0.2528377608504963,0.0034422874450683594,0.10781049728393555,3.887518412648096,-12.536357542556127,-0.19339172062906254,0.6833887960369118,-0.6597237237615399,0.7998108557978295,0.7999998568727472,3.9452520675883456,3.8315020421035793,-12.512301772219423,-12.621767780573762,0.0,0.0
16.829825162887573,0.7616691589355469,3.0256552696228027,-11.61754322052002,-0.2289615564222462,0.003309488296508789,0.10781049728393555,3.886879274550448,-12.51906665047703,-0.21339172062906256,0.6954191642634362,0.9047707156563225,0.7998675990584807,0.7999999284363736,3.9666110573303275,3.8094039540157314,-12.477817590197377,-12.626882836261208,0.0,0.0
16.837465524673462,0.7616691589355469,3.0256552696228027,-11.61754322052002,-0.2289615564222462,0.0050199031829833984,0.10781049728393555,3.88605883149243,-12.50048512918663,-0.23339172062906258,0.6944934285699137,0.8598504637040023,0.7999073193409365,0.34555822749282394,3.994732135348309,3.7803046899478834,-12.436172251119846,-12.636542833992412,0.0,0.0
16.853392601013184,0.7919713854789734,2.967001438140869,-11.576298713684082,-0.222797571523872,0.00460362434387207,0.10781049728393555,3.8850251693063553,-12.480618227844431,-0.25339172062906257,0.6959068189648672,1.0,0.7999351235386556,0.45295192333886364,4.032151127477081,3.741607421623815,-12.38510243011376,-12.653030870840302,0.0,0.0
16.862611293792725,0.7919713854789734,2.967001438140869,-11.576298713684082,-0.222797571523872,0.0035512447357177734,0.10781049728393555,3.883745826554651,-12.459468808292261,-0.2733917206290626,0.6949845919029312,1.0,0.799954586477059,0.382958147034445,4.082660742864793,3.689456920120067,-12.321114292195505,-12.679855966177763,0.0,0.0
16.874755144119263,0.8117454648017883,2.927534580230713,-11.548282623291016,-0.2184197999659913,0.0036134719848632812,0.10781049728393555,3.8821879039257827,-12.437037305736242,-0.2933917206290626,0.6957513766307027,1.0,0.7999682105339413,0.3940498770533349,4.151963522849733,3.6180868157629784,-12.238846389614169,-12.7223900660747,0.0,0.0
16.884640216827393,0.8214937448501587,2.9076883792877197,-11.53411865234375,-0.2161784915715337,0.0035026073455810547,0.10781049728393555,3.880318175774105,-12.413321694498444,-0.3133917206290626,0.6956206734472221,1.0,0.7999777473737589,0.3903215652860325,4.24856405536297,3.5189275977463326,-12.130234363826004,-12.788703252758523,0.0,0.0
16.896591663360596,0.8501725792884827,2.847710132598877,-11.491178512573242,-0.20951570422709168,0.003732919692993164,0.10781049728393555,3.878103203558001,-12.388317458931267,-0.33339172062906264,0.6970307112802338,1.0,0.7999844231616313,0.3852047855853835,4.384737430386495,3.3796383774650707,-11.983713816329269,-12.89036079514322,0.0,0.0
16.907603979110718,0.8501725792884827,2.847710132598877,-11.491178512573242,-0.20951570422709168,0.0034401416778564453,0.10781049728393555,3.888771814114834,-12.586581795376535,-0.12339172062906248,0.6961167406415041,1.0,0.799989096213142,0.384986822375256,3.90017814366887,3.878297229149017,-12.601451624259433,-12.623382551271744,0.0,0.0
17.022758722305298,0.977727472782135,2.5374362468719482,-11.270049095153809,-0.17165708249879752,0.003362894058227539,0.10405611991882324,3.8885262996229724,-12.573882814176743,-0.1433917206290625,0.7063827699398607,1.0,0.7096125716285454,0.4619760921488919,3.9070992743005335,3.871020647895891,-12.585133262495011,-12.621082165478825,0.0,0.0
17.03222680091858,0.977727472782135,2.5374362468719482,-11.270049095153809,-0.17165708249879752,0.0031692981719970703,0.10405611991882324,3.8882053493468995,-12.559856714297338,-0.16339172062906251,0.7055530167736113,1.0,0.6964425374308849,0.38450784689640716,3.9164951026469215,3.8612551515113123,-12.565158436092556,-12.619699351815155,0.0,0.0
17.041321754455566,0.9924827218055725,2.4953789710998535,-11.239171981811523,-0.16564708858437785,0.003329753875732422,0.10405611991882324,3.887779789482778,-12.544516720294617,-0.18339172062906253,0.706730696266941,1.0,0.6265863016164358,0.40954037452993,3.92893945154018,3.848373950838697,-12.541094446441413,-12.619703765360459,0.0,0.0
17.05107092857361,1.0066510438919067,2.4533019065856934,-11.207914352416992,-0.15936759126704544,0.0032825469970703125,0.10405611991882324,3.8872195364049857,-12.527873845317643,-0.20339172062906255,0.7079930026418508,1.0,0.5551959435514293,0.39015132936349883,3.9452520675883456,3.8315020421035793,-12.512301772219423,-12.621767780573762,0.0,0.0
17.06338620185852,1.0066510438919067,2.4533019065856934,-11.207914352416992,-0.15936759126704544,0.005501747131347656,0.10405611991882324,3.8864936966840684,-12.509936834952985,-0.22339172062906257,0.707173499158346,1.0,0.5278923261715116,0.33973482300553354,3.9666110573303275,3.8094039540157314,-12.477817590197377,-12.626882836261208,0.0,0.0
17.079209804534912,1.0258216857910156,2.389883041381836,-11.162327766418457,-0.1495547099865781,0.005489826202392578,0.10405611991882324,3.88557067007453,-12.490712115718866,-0.24339172062906259,0.7093571805728889,1.0,0.427944299788145,0.3718548304341394,3.994732135348309,3.7803046899478834,-12.436172251119846,-12.636542833992412,0.0,0.0
17.093758583068848,1.0258216857910156,2.389883041381836,-11.162327766418457,-0.1495547099865781,0.005499362945556641,0.10405611991882324,3.884418255242742,-12.470203748343593,-0.2633917206290626,0.7085410912087373,1.0,0.4014757670110527,0.29758518657724736,4.032151127477081,3.741607421623815,-12.38510243011376,-12.653030870840302,0.0,0.0
17.111409187316895,1.048495888710022,2.3054003715515137,-11.10146713256836,-0.13592529825740177,0.0033273696899414062,0.10405611991882324,3.883003757999948,-12.448413385951367,-0.2833917206290626,0.7118246723112146,1.0,0.2724975181478757,0.34716386031204355,4.082660742864793,3.689456920120067,-12.321114292195505,-12.679855966177763,0.0,0.0
17.22096300125122,1.048495888710022,2.3054003715515137,-11.10146713256836,-0.13592529825740177,0.0038270950317382812,0.10009193420410156,3.881294101800637,-12.425340237266694,-0.3033917206290626,0.6840549826038603,1.0,0.24373143698016794,0.2453188607196954,4.151963522849733,3.6180868157629784,-12.238846389614169,-12.7223900660747,0.0,0.0
17.23202157020569,1.1009585857391357,2.0165603160858154,-10.8782958984375,-0.08471221249389767,0.002535104751586914,0.10009193420410156,3.8792559402624534,-12.400981034936537,-0.32339172062906263,0.6990665576705679,0.6500626454136631,-0.1391452650161658,0.5226594303598476,4.24856405536297,3.5189275977463326,-12.130234363826004,-12.788703252758523,0.0,0.0
17.24105477333069,1.103951096534729,1.9765998125076294,-10.845755577087402,-0.07769101634839934,0.0027925968170166016,0.10009193420410156,3.8768557714603493,-12.37533000905715,-0.34339172062906265,0.700513761860032,0.5507560123503911,-0.2056736102475574,0.15382279798914622,4.384737430386495,3.3796383774650707,-11.983713816329269,-12.89036079514322,0.0,0.0
17.251139879226685,1.103951096534729,1.9765998125076294,-10.845755577087402,-0.07769101634839934,0.002670764923095703,0.10009193420410156,3.8886567011894386,-12.580399105900934,-0.1333917206290625,0.6994333902773239,0.5405591371774667,-0.307279614422619,0.09223332419432481,3.90017814366887,3.878297229149017,-12.601451624259433,-12.623382551271744,0.0,0.0
17.2611243724823,1.1071780920028687,1.917572021484375,-10.796127319335938,-0.06702843384849937,0.0027475357055664062,0.10009193420410156,3.8883770548459626,-12.567034776396591,-0.1533917206290625,0.7023595015536203,0.3843413055660423,-0.4157406031589415,0.03582012207821886,3.9070992743005335,3.871020647895891,-12.585133262495011,-12.621082165478825,0.0,0.0
17.271109104156494,1.1071780920028687,1.917572021484375,-10.796127319335938,-0.06702843384849937,0.004845619201660156,0.10009193420410156,3.888007505673029,-12.55235021322929,-0.17339172062906252,0.7012839376419364,0.3790069514747785,-0.46730372760150946,-0.044796021493341664,3.9164951026469215,3.8612551515113123,-12.565158436092556,-12.619699351815155,0.0,0.0
17.285310745239258,1.1071780920028687,1.917572021484375,-10.796127319335938,-0.06702843384849937,0.004313230514526367,0.10009193420410156,3.887518412648096,-12.536357542556127,-0.19339172062906254,0.7002082599371529,0.3761469331675751,-0.5011574391757574,-0.0977138993023915,3.92893945154018,3.848373950838697,-12.541094446441413,-12.619703765360459,0.0,0.0
17.29560089111328,1.1084758043289185,1.8788849115371704,-10.762430191040039,-0.05995392674192302,0.0028984546661376953,0.10009193420410156,3.886879274550448,-12.51906665047703,-0.21339172062906256,0.7020497700529774,0.266154525077436,-0.562961824286508,-0.1229595743836458,3.9452520675883456,3.8315020421035793,-12.512301772219423,-12.621767780573762,0.0,0.0
17.305856466293335,1.109127163887024,1.8219542503356934,-10.711101531982422,-0.05052975994343398,0.002849578857421875,0.10009193420410156,3.88605883149243,-12.50048512918663,-0.23339172062906258,0.7053243406987303,0.10421723556785212,-0.6340732770005556,-0.1577158831597038,3.9666110573303275,3.8094039540157314,-12.477817590197377,-12.626882836261208,0.0,0.0
17.313594102859497,1.109127163887024,1.8219542503356934,-10.711101531982422,-0.05052975994343398,0.0026962757110595703,0.10009193420410156,3.8850251693063553,-12.480618227844431,-0.25339172062906257,0.7042612032550357,0.10895130483567717,-0.6734302447564078,-0.2062141813492467,3.994732135348309,3.7803046899478834,-12.436172251119846,-12.636542833992412,0.0,0.0
17.40620708465576,1.109127163887024,1.8219542503356934,-10.711101531982422,-0.05052975994343398,0.002523183822631836,0.08373475074768066,3.883745826554651,-12.459468808292261,-0.2733917206290626,0.6957636834756947,0.8409034007905138,-0.6963257540141929,-0.24422136982163098,4.032151127477081,3.741607421623815,-12.38510243011376,-12.653030870840302,0.0,0.0
17.415181159973145,1.0815564393997192,1.613465666770935,-10.504676818847656,-0.03729214725662759,0.0022706985473632812,0.08373475074768066,3.8821879039257827,-12.437037305736242,-0.2933917206290626,0.7125912930379182,0.3480310112912347,-0.7274280278099351,-0.20471750007858722,4.082660742864793,3.689456920120067,-12.321114292195505,-12.679855966177763,0.0,0.0
17.422422647476196,1.0748335123062134,1.581215739250183,-10.468744277954102,-0.03769549153053703,0.002570629119873047,0.08373475074768066,3.880318175774105,-12.413321694498444,-0.3133917206290626,0.714637632845694,0.27037041732300704,-0.746786862836445,-0.2942219301570328,4.151963522849733,3.6180868157629784,-12.238846389614169,-12.7223900660747,0.0,0.0
17.431289672851562,1.0712957382202148,1.5653595924377441,-10.450599670410156,-0.03806027464733518,0.0023174285888671875,0.08373475074768066,3.878103203558001,-12.388317458931267,-0.33339172062906264,0.7151837483357522,0.21986102413411218,-0.7627508039855115,-0.32686407740850215,4.24856405536297,3.5189275977463326,-12.130234363826004,-12.788703252758523,0.0,0.0
17.441027641296387,1.0676451921463013,1.5496832132339478,-10.432337760925293,-0.03851865164695174,0.002485990524291992,0.08373475074768066,3.8755094509274883,-12.362017569575391,-0.35339172062906266,0.7157376598577578,0.17011288829405974,-0.7739255627898581,-0.35075402099698305,4.384737430386495,3.3796383774650707,-11.983713816329269,-12.89036079514322,0.0,0.0
17.451141119003296,1.063884973526001,1.5341871976852417,-10.414005279541016,-0.03906734920206713,0.002312898635864258,0.08373475074768066,3.8885262996229724,-12.573882814176743,-0.1433917206290625,0.7162937494989258,0.12063288388256249,-0.7813272739596073,-0.36981294478959587,3.90017814366887,3.878297229149017,-12.601451624259433,-12.623382551271744,0.0,0.0
17.46116876602173,1.0532883405685425,1.5065809488296509,-10.37942123413086,-0.040675070069465066,0.002647876739501953,0.08373475074768066,3.8882053493468995,-12.559856714297338,-0.16339172062906251,0.7182202816949127,0.025231617909483917,-0.7794365326786945,-0.38889803197399164,3.9070992743005335,3.871020647895891,-12.585133262495011,-12.621082165478825,0.0,0.0
17.471064567565918,1.0478706359863281,1.4930118322372437,-10.36192512512207,-0.04174617819571724,0.003221273422241211,0.08373475074768066,3.887779789482778,-12.544516720294617,-0.18339172062906253,0.7186756191494023,-0.039657846790495,-0.7779236485448732,-0.39854226732301895,3.9164951026469215,3.8612551515113123,-12.565158436092556,-12.619699351815155,0.0,0.0
17.48112392425537,1.0423756837844849,1.4796031713485718,-10.3443021774292,-0.042950959084901194,0.0023345947265625,0.08373475074768066,3.8872195364049857,-12.527873845317643,-0.20339172062906255,0.7191062533061986,-0.10629231555926022,-0.7741736893927572,-0.4061181373258861,3.92893945154018,3.848373950838697,-12.541094446441413,-12.619703765360459,0.0,0.0
17.4914767742157,1.0368058681488037,1.4663578271865845,-10.326558113098145,-0.04430742837795919,0.004448413848876953,0.08373475074768066,3.8864936966840684,-12.509936834952985,-0.22339172062906257,0.7195222404066434,-0.1733550214261168,-0.768356553939245,-0.4115861705729514,3.9452520675883456,3.8315020421035793,-12.512301772219423,-12.621767780573762,0.0,0.0
17.58197569847107,0.9642404317855835,1.3219319581985474,-10.106781005859375,-0.0688441589321634,0.0021517276763916016,0.0776371955871582,3.88557067007453,-12.490712115718866,-0.24339172062906259,0.724104977791505,-0.6449385726623995,-0.6540214667058328,-0.4755909915178664,3.9666110573303275,3.8094039540157314,-12.477817590197377,-12.626882836261208,0.0,0.0
17.59119200706482,0.9568937420845032,1.3121471405029297,-10.08857536315918,-0.07159868766361623,0.0032482147216796875,0.0776371955871582,3.884418255242742,-12.470203748343593,-0.2633917206290626,0.7244690165287279,-0.701155855818031,-0.6060762764240145,-0.408788599343872,3.994732135348309,3.7803046899478834,-12.436172251119846,-12.636542833992412,0.0,0.0
17.6009259223938,0.949550986289978,1.3025141954421997,-10.070300102233887,-0.07440643707212996,0.002088308334350586,0.0776371955871582,3.883003757999948,-12.448413385951367,-0.2833917206290626,0.7248287168849851,-0.756002145871572,-0.5624477746360077,-0.354151959264929,4.032151127477081,3.741607421623815,-12.38510243011376,-12.653030870840302,0.0,0.0
17.611223697662354,0.9422059655189514,1.293032169342041,-10.051920890808105,-0.07727893237307198,0.0025441646575927734,0.0776371955871582,3.881294101800637,-12.425340237266694,-0.3033917206290626,0.7251838709434332,-0.809610382119767,-0.5224997657549533,-0.30642188110154106,4.082660742864793,3.689456920120067,-12.321114292195505,-12.679855966177763,0.0,0.0
17.621095418930054,0.9275228977203369,1.2745180130004883,-10.014859199523926,-0.08315053086655293,0.002627134323120117,0.0776371955871582,3.8792559402624534,-12.400981034936537,-0.32339172062906263,0.7267987236112706,-0.8909309990647667,-0.4729624399677584,-0.2622340252795976,4.151963522849733,3.6180868157629784,-12.238846389614169,-12.7223900660747,0.0,0.0
17.63124942779541,0.9201915860176086,1.265486717224121,-9.996186256408691,-0.08612429221156506,0.0023779869079589844,0.0776371955871582,3.8768557714603493,-12.37533000905715,-0.34339172062906265,0.7270902315672653,-0.940231288850752,-0.43158069619964795,-0.2136221643298712,4.24856405536297,3.5189275977463326,-12.130234363826004,-12.788703252758523,0.0,0.0
17.641339540481567,0.9128713011741638,1.256606101989746,-9.977424621582031,-0.08910300808645458,0.004655122756958008,0.0776371955871582,3.8740600537447927,-12.348378865980266,-0.36339172062906266,0.7312677133114817,-1.0,-0.3934096903322527,-0.1689555784497208,4.384737430386495,3.3796383774650707,-11.983713816329269,-12.89036079514322,0.0,0.0
17.652141094207764,0.8982770442962646,1.2392936944961548,-9.939733505249023,-0.09493207478872273,0.0031027793884277344,0.0776371955871582,3.8883770548459626,-12.567034776396591,-0.1533917206290625,0.7326942948841172,-1.0,-0.34572634100986693,-0.12080103945093955,3.90017814366887,3.878297229149017,-12.601451624259433,-12.623382551271744,0.0,0.0
17.66121554374695,0.8982770442962646,1.2392936944961548,-9.939733505249023,-0.09493207478872273,0.003275156021118164,0.0776371955871582,3.888007505673029,-12.55235021322929,-0.17339172062906252,0.7312795588143602,-1.0,-0.3194036693397521,-0.0855374814475777,3.9070992743005335,3.871020647895891,-12.585133262495011,-12.621082165478825,0.0,0.0
17.671156406402588,0.883772611618042,1.2225768566131592,-9.901727676391602,-0.10046148162942845,0.0039594173431396484,0.0776371955871582,3.887518412648096,-12.536357542556127,-0.19339172062906254,0.7326068659391336,-1.0,-0.28198916682165176,-0.05214877043884452,3.9164951026469215,3.8612551515113123,-12.565158436092556,-12.619699351815155,0.0,0.0
17.68135690689087,0.8765577077865601,1.2144328355789185,-9.882615089416504,-0.10310087923640136,0.005469560623168945,0.0776371955871582,3.886879274550448,-12.51906665047703,-0.21339172062906256,0.7325330622927265,-1.0,-0.2528280639918712,-0.022827168964275665,3.92893945154018,3.848373950838697,-12.541094446441413,-12.619703765360459,0.0,0.0
17.79723834991455,0.8765577077865601,1.2144328355789185,-9.882615089416504,-0.10310087923640136,0.005668163299560547,0.09850621223449707,3.88605883149243,-12.50048512918663,-0.23339172062906258,0.7058111523064797,0.8966516254666028,-0.23674593979586872,-0.0022736382505960384,3.9452520675883456,3.8315020421035793,-12.512301772219423,-12.621767780573762,0.0,0.0
17.811889171600342,0.7593777775764465,1.1194571256637573,-9.58914566040039,-0.13594227800938574,0.003538370132446289,0.09850621223449707,3.8850251693063553,-12.480618227844431,-0.25339172062906257,0.7219568629447312,1.0,-0.13857715142116508,-0.1003082647948745,3.9666110573303275,3.8094039540157314,-12.477817590197377,-12.626882836261208,0.0,0.0
17.821025133132935,0.7454805970191956,1.1092122793197632,-9.551589012145996,-0.1388882889348356,0.0035047531127929688,0.09850621223449707,3.883745826554651,-12.459468808292261,-0.2733917206290626,0.7225689997835808,1.0,-0.15345506159468023,0.04572510300028064,3.994732135348309,3.7803046899478834,-12.436172251119846,-12.636542833992412,0.0,0.0
17.831127405166626,0.7386642098426819,1.1058231592178345,-9.533415794372559,-0.1402888786273606,0.0032379627227783203,0.09850621223449707,3.8821879039257827,-12.437037305736242,-0.2933917206290626,0.7223749644122017,1.0,-0.10623353954527169,-0.0071410637174899195,4.032151127477081,3.741607421623815,-12.38510243011376,-12.653030870840302,0.0,0.0
17.8411226272583,0.7318959832191467,1.1024374961853027,-9.515166282653809,-0.14183033032424328,0.003991842269897461,0.09850621223449707,3.880318175774105,-12.413321694498444,-0.3133917206290626,0.7221995433092467,1.0,-0.11316956041737762,0.05763815781570765,4.082660742864793,3.689456920120067,-12.321114292195505,-12.679855966177763,0.0,0.0
17.85122847557068,0.7318959832191467,1.1024374961853027,-9.515166282653809,-0.14183033032424328,0.004767656326293945,0.09850621223449707,3.878103203558001,-12.388317458931267,-0.33339172062906264,0.7213130014148684,1.0,-0.09475965059065733,0.037329391396852776,4.151963522849733,3.6180868157629784,-12.238846389614169,-12.7223900660747,0.0,0.0
17.862138748168945,0.7118791937828064,1.0922558307647705,-9.460103034973145,-0.1461725377416226,0.003442525863647461,0.09850621223449707,3.8755094509274883,-12.362017569575391,-0.35339172062906266,0.7226742180370719,1.0,-0.08805388169201829,0.05891428600585917,4.24856405536297,3.5189275977463326,-12.130234363826004,-12.788703252758523,0.0,0.0
17.871062755584717,0.7053036093711853,1.0888398885726929,-9.441610336303711,-0.14752425662183272,0.003805398941040039,0.09850621223449707,3.872503400209921,-12.334412464629787,-0.3733917206290627,0.7226456661214633,1.0,-0.0778543516744864,0.06248701289132286,4.384737430386495,3.3796383774650707,-11.983713816329269,-12.89036079514322,0.0,0.0
17.98695397377014,0.7053036093711853,1.0888398885726929,-9.441610336303711,-0.14752425662183272,0.003250598907470703,0.10600662231445312,3.8882053493468995,-12.559856714297338,-0.16339172062906251,0.7225405788881081,0.36175066924601407,-0.07549606783267268,0.07311980490501489,3.90017814366887,3.878297229149017,-12.601451624259433,-12.623382551271744,0.0,0.0
18.002312898635864,0.6032732129096985,1.038756012916565,-9.140721321105957,-0.16353039095677327,0.0029363632202148438,0.10600662231445312,3.887779789482778,-12.544516720294617,-0.18339172062906253,0.7368291338989408,-0.539813266764659,-0.06333899368431835,0.0854573094793288,3.9070992743005335,3.871020647895891,-12.585133262495011,-12.621082165478825,0.0,0.0
18.011838674545288,0.5970962047576904,1.0361405611038208,-9.121634483337402,-0.16427216478684678,0.003388643264770508,0.10600662231445312,3.8872195364049857,-12.527873845317643,-0.20339172062906255,0.7369104848681408,-0.6413397776280183,-0.05418766532946827,0.13205158600070988,3.9164951026469215,3.8612551515113123,-12.565158436092556,-12.619699351815155,0.0,0.0
18.021026372909546,0.58494633436203,1.0310101509094238,-9.083244323730469,-0.1656642265637879,0.0034639835357666016,0.10600662231445312,3.8864936966840684,-12.509936834952985,-0.22339172062906257,0.7381867950843845,-0.8430992857936386,-0.0432921389412386,0.16177209381041932,3.92893945154018,3.848373950838697,-12.541094446441413,-12.619703765360459,0.0,0.0
18.03118348121643,0.5789743065834045,1.02851140499115,-9.063942909240723,-0.16631590253699954,0.0033533573150634766,0.10600662231445312,3.88557067007453,-12.490712115718866,-0.24339172062906259,0.7383053561507497,-0.9513668784613448,-0.033312418622111206,0.18636832389303076,3.9452520675883456,3.8315020421035793,-12.512301772219423,-12.621767780573762,0.0,0.0
18.041104793548584,0.5730713605880737,1.0260655879974365,-9.044577598571777,-0.16693288479719856,0.0034983158111572266,0.10600662231445312,3.884418255242742,-12.470203748343593,-0.2633917206290626,0.738397953077271,-1.0,-0.02506603319127825,0.20430526209747013,3.9666110573303275,3.8094039540157314,-12.477817590197377,-12.626882836261208,0.0,0.0
18.05109405517578,0.5672380328178406,1.0236806869506836,-9.025200843811035,-0.1675072756791092,0.003251791000366211,0.10600662231445312,3.883003757999948,-12.448413385951367,-0.2833917206290626,0.7384004378512227,-1.0,-0.01884834709251367,0.21683073176696788,3.994732135348309,3.7803046899478834,-12.436172251119846,-12.636542833992412,0.0,0.0
18.06110906600952,0.5557814240455627,1.01912260055542,-8.986319541931152,-0.16849317429680788,0.003444671630859375,0.10600662231445312,3.881294101800637,-12.425340237266694,-0.3033917206290626,0.7393921052223044,-1.0,-0.014804214751914612,0.22606658015574768,4.032151127477081,3.741607421623815,-12.38510243011376,-12.653030870840302,0.0,0.0
18.07102918624878,0.5501582026481628,1.0169579982757568,-8.96682071685791,-0.1688893360391227,0.004565715789794922,0.10600662231445312,3.8792559402624534,-12.400981034936537,-0.32339172062906263,0.7393509832530297,-1.0,-0.012719186906613613,0.2323329865008781,4.082660742864793,3.689456920120067,-12.321114292195505,-12.679855966177763,0.0,0.0
18.1867618560791,0.5501582026481628,1.0169579982757568,-8.96682071685791,-0.1688893360391227,0.003706216812133789,0.10321283340454102,3.8768557714603493,-12.37533000905715,-0.34339172062906265,0.7259198127881019,-0.29865683330468995,-0.0108796015597074,0.2363188979095726,4.151963522849733,3.6180868157629784,-12.238846389614169,-12.7223900660747,0.0,0.0
18.19822907447815,0.46798384189605713,0.9872666597366333,-8.669610977172852,-0.16745468662321794,0.0035915374755859375,0.10321283340454102,3.8740600537447927,-12.348378865980266,-0.36339172062906266,0.7387948773661445,-0.4410069543679599,-0.04905102619253978,0.2224618410987169,4.24856405536297,3.5189275977463326,-12.130234363826004,-12.788703252758523,0.0,0.0
18.20650863647461,0.46798384189605713,0.9872666597366333,-8.669610977172852,-0.16745468662321794,0.0034542083740234375,0.10321283340454102,3.870835322831624,-12.320116772460967,-0.3833917206290627,0.7378811239275608,-0.4441262864125961,-0.060332902527134295,0.20652589226279514,4.384737430386495,3.3796383774650707,-11.983713816329269,-12.89036079514322,0.0,0.0
18.215760946273804,0.4543943405151367,0.9877959489822388,-8.613361358642578,-0.16608654232846587,0.003382444381713867,0.10321283340454102,3.888007505673029,-12.55235021322929,-0.17339172062906252,0.7390688918269358,-0.3760826188257691,-0.07294704368835002,0.1956085843668912,3.90017814366887,3.878297229149017,-12.601451624259433,-12.623382551271744,0.0,0.0
18.22365427017212,0.4543943405151367,0.9877959489822388,-8.613361358642578,-0.16608654232846587,0.003382444381713867,0.10321283340454102,3.887518412648096,-12.536357542556127,-0.19339172062906254,0.738190480757397,-0.3793072014275044,-0.07780269428126545,0.18419005996811955,3.9070992743005335,3.871020647895891,-12.585133262495011,-12.621082165478825,0.0,0.0
18.231783390045166,0.4543943405151367,0.9877959489822388,-8.613361358642578,-0.16608654232846587,0.003421783447265625,0.10321283340454102,3.886879274550448,-12.51906665047703,-0.21339172062906256,0.7373102933666225,-0.38242898626493216,-0.08081132167224767,0.17686770811312594,3.9164951026469215,3.8612551515113123,-12.565158436092556,-12.619699351815155,0.0,0.0
18.242029190063477,0.4455691874027252,0.9881718158721924,-8.575623512268066,-0.16507798544216803,0.0035190582275390625,0.10321283340454102,3.88605883149243,-12.50048512918663,-0.23339172062906258,0.7378329927691323,-0.32724413279004305,-0.08660465436548835,0.17342697137378496,3.92893945154018,3.848373950838697,-12.541094446441413,-12.619703765360459,0.0,0.0
18.452255487442017,0.4455691874027252,0.9881718158721924,-8.575623512268066,-0.16507798544216803,0.0030515193939208984,0.0761253833770752,3.8850251693063553,-12.480618227844431,-0.25339172062906257,0.7341960325933183,-0.8652875141172247,-0.08861892356788842,0.16793837653780058,3.9452520675883456,3.8315020421035793,-12.512301772219423,-12.621767780573762,0.0,0.0
18.46324396133423,0.3421633839607239,0.9960806369781494,-8.048184394836426,-0.14391445556018428,0.003150463104248047,0.0761253833770752,3.883745826554651,-12.459468808292261,-0.2733917206290626,0.7532766281504433,-0.29114899109069736,-0.03913282790566069,0.1953052527894126,3.9666110573303275,3.8094039540157314,-12.477817590197377,-12.626882836261208,0.0,0.0
18.47159194946289,0.33898603916168213,0.9964683055877686,-8.029467582702637,-0.14297288581949988,0.003333568572998047,0.0761253833770752,3.8821879039257827,-12.437037305736242,-0.2933917206290626,0.7531422618311681,-0.27297818090801085,-0.03149271219169686,0.18691724294823747,3.994732135348309,3.7803046899478834,-12.436172251119846,-12.636542833992412,0.0,0.0
18.481048107147217,0.33898603916168213,0.9964683055877686,-8.029467582702637,-0.14297288581949988,0.003368854522705078,0.0761253833770752,3.880318175774105,-12.413321694498444,-0.3133917206290626,0.7523057341592347,-0.2807973437465463,-0.03041802545427259,0.18194660197872697,4.032151127477081,3.741607421623815,-12.38510243011376,-12.653030870840302,0.0,0.0
18.49132776260376,0.33273622393608093,0.9970324039459229,-7.991915225982666,-0.14105363652907477,0.003358125686645508,0.0761253833770752,3.878103203558001,-12.388317458931267,-0.33339172062906264,0.7528792269305146,-0.2331726778004738,-0.025424074075097225,0.17926545235196711,4.082660742864793,3.689456920120067,-12.321114292195505,-12.679855966177763,0.0,0.0
18.50215435028076,0.33273622393608093,0.9970324039459229,-7.991915225982666,-0.14105363652907477,0.0031185150146484375,0.0761253833770752,3.8755094509274883,-12.362017569575391,-0.35339172062906266,0.7520381304300902,-0.2409730227916152,-0.024601000177179887,0.17731878984477992,4.151963522849733,3.6180868157629784,-12.238846389614169,-12.7223900660747,0.0,0.0
18.511656045913696,0.32363149523735046,0.9973435401916504,-7.9354658126831055,-0.13805915532421592,0.0035817623138427734,0.0761253833770752,3.872503400209921,-12.334412464629787,-0.3733917206290627,0.7531325683462543,-0.14694298053961746,-0.01713710170905137,0.17598013376671187,4.24856405536297,3.5189275977463326,-12.130234363826004,-12.788703252758523,0.0,0.0
18.521199941635132,0.32363149523735046,0.9973435401916504,-7.9354658126831055,-0.13805915532421592,0.003640413284301758,0.0761253833770752,3.8690516700404727,-12.305490036789946,-0.3933917206290627,0.7522899663182367,-0.15482755064335502,-0.015813009690487184,0.17440229773522634,4.384737430386495,3.3796383774650707,-11.983713816329269,-12.89036079514322,0.0,0.0
18.53116226196289,0.31773635745048523,0.9971765875816345,-7.897731781005859,-0.1359944829307003,0.003551483154296875,0.0761253833770752,3.887779789482778,-12.544516720294617,-0.18339172062906253,0.7525816406148458,-0.08609329709761188,-0.011746583951748069,0.17296325547726027,3.90017814366887,3.878297229149017,-12.601451624259433,-12.623382551271744,0.0,0.0
18.54144787788391,0.31773635745048523,0.9971765875816345,-7.897731781005859,-0.1359944829307003,0.003728151321411133,0.0761253833770752,3.8872195364049857,-12.527873845317643,-0.20339172062906255,0.7517358319360424,-0.09402504383989241,-0.01105118438629021,0.17179502869935837,3.9070992743005335,3.871020647895891,-12.585133262495011,-12.621082165478825,0.0,0.0
18.551887035369873,0.30914634466171265,0.9963330030441284,-7.841136455535889,-0.13280912261913805,0.003653287887573242,0.0761253833770752,3.8864936966840684,-12.509936834952985,-0.22339172062906257,0.7525996953192665,0.014034611125780694,-0.006901442718812779,0.16982861830948878,3.9164951026469215,3.8612551515113123,-12.565158436092556,-12.619699351815155,0.0,0.0
18.56218647956848,0.30914634466171265,0.9963330030441284,-7.841136455535889,-0.13280912261913805,0.003597259521484375,0.0761253833770752,3.88557067007453,-12.490712115718866,-0.24339172062906259,0.7517523825684029,0.00599144866566248,-0.006209156524846066,0.1681736016451751,3.92893945154018,3.848373950838697,-12.541094446441413,-12.619703765360459,0.0,0.0
18.57177472114563,0.3035839796066284,0.9953625202178955,-7.8033857345581055,-0.13063696844586398,0.00406193733215332,0.0761253833770752,3.884418255242742,-12.470203748343593,-0.2633917206290626,0.7520660392220645,0.07391251641169111,-0.00427144062630231,0.1662966411039934,3.9452520675883456,3.8315020421035793,-12.512301772219423,-12.621767780573762,0.0,0.0
18.581087589263916,0.3035839796066284,0.9953625202178955,-7.8033857345581055,-0.13063696844586398,0.003571033477783203,0.0761253833770752,3.883003757999948,-12.448413385951367,-0.2833917206290626,0.7512162131550596,0.0658174255934929,-0.0039790405134033,0.16488897917934808,3.9666110573303275,3.8094039540157314,-12.477817590197377,-12.626882836261208,0.0,0.0
18.695555925369263,0.2692645788192749,0.9810269474983215,-7.5481743812561035,-0.1152606255309062,0.005689859390258789,0.10299038887023926,3.881294101800637,-12.425340237266694,-0.3033917206290626,0.7511109832156755,-0.38010820708614484,0.004467192966632534,0.15547002972859372,3.994732135348309,3.7803046899478834,-12.436172251119846,-12.636542833992412,0.0,0.0
18.710980892181396,0.262929230928421,0.9758650660514832,-7.49468994140625,-0.11182593645621808,0.0033948421478271484,0.10299038887023926,3.8792559402624534,-12.400981034936537,-0.32339172062906263,0.7519494082040322,-0.31862343563369144,0.006693851642264395,0.14290564451962914,4.032151127477081,3.741607421623815,-12.38510243011376,-12.653030870840302,0.0,0.0
18.72113823890686,0.2610267400741577,0.9740033149719238,-7.47767972946167,-0.11070448216202579,0.004041194915771484,0.10299038887023926,3.8768557714603493,-12.37533000905715,-0.34339172062906265,0.7516536783792458,-0.3064555849784531,0.008064252468793812,0.13748290860051413,4.082660742864793,3.689456920120067,-12.321114292195505,-12.679855966177763,0.0,0.0
18.731651782989502,0.2591445744037628,0.9720577001571655,-7.460626125335693,-0.10957867568349554,0.003504037857055664,0.10299038887023926,3.8740600537447927,-12.348378865980266,-0.36339172062906266,0.7513621018116786,-0.294347421347506,0.009044908808576972,0.13425567767350804,4.151963522849733,3.6180868157629784,-12.238846389614169,-12.7223900660747,0.0,0.0
18.74109983444214,0.2572876811027527,0.9700326919555664,-7.443531036376953,-0.10844705241381429,0.003443479537963867,0.10299038887023926,3.870835322831624,-12.320116772460967,-0.3833917206290627,0.7510719315057564,-0.28212442037856655,0.00993736049010133,0.13215027843254126,4.24856405536297,3.5189275977463326,-12.130234363826004,-12.788703252758523,0.0,0.0
18.751026391983032,0.2536492347717285,0.9657481908798218,-7.409275531768799,-0.10617424341433188,0.003401517868041992,0.10299038887023926,3.867148309909498,-12.290530345197217,-0.4033917206290627,0.7512286266831453,-0.2411246418955482,0.011337190055283972,0.12990558514247952,4.384737430386495,3.3796383774650707,-11.983713816329269,-12.89036079514322,0.0,0.0
18.76132845878601,0.25186747312545776,0.9634908437728882,-7.392119407653809,-0.10503533847438369,0.0035398006439208984,0.10299038887023926,3.887518412648096,-12.536357542556127,-0.19339172062906254,0.7509231082602199,-0.2223584423680334,0.012101826799669042,0.12856065900087524,3.90017814366887,3.878297229149017,-12.601451624259433,-12.623382551271744,0.0,0.0
18.771018266677856,0.2501104176044464,0.9611573219299316,-7.374931812286377,-0.10389431619790498,0.003464937210083008,0.10299038887023926,3.886879274550448,-12.51906665047703,-0.21339172062906256,0.7506287374999622,-0.20056642882852516,0.012650109479710686,0.1273014421267827,3.9070992743005335,3.871020647895891,-12.585133262495011,-12.621082165478825,0.0,0.0
18.781343698501587,0.2483779340982437,0.9587479829788208,-7.3577141761779785,-0.10275389980310137,0.0035734176635742188,0.10299038887023926,3.88605883149243,-12.50048512918663,-0.23339172062906258,0.7503413441295461,-0.1759311360123866,0.013052110477373131,0.12612889495853774,3.9164951026469215,3.8612551515113123,-12.565158436092556,-12.619699351815155,0.0,0.0
18.889378547668457,0.22856557369232178,0.9156235456466675,-7.122958183288574,-0.08716562763921257,0.0034847259521484375,0.09694170951843262,3.8850251693063553,-12.480618227844431,-0.25339172062906257,0.7526703612856959,0.2819167413199529,0.011486760832213136,0.11196919928297523,3.92893945154018,3.848373950838697,-12.541094446441413,-12.619703765360459,0.0,0.0
18.900253295898438,0.22856557369232178,0.9156235456466675,-7.122958183288574,-0.08716562763921257,0.002845287322998047,0.09694170951843262,3.883745826554651,-12.459468808292261,-0.2733917206290626,0.7519238970684701,0.2695603238563049,0.012223486968955734,0.1108915451775423,3.9452520675883456,3.8315020421035793,-12.512301772219423,-12.621767780573762,0.0,0.0
18.909953117370605,0.22524549067020416,0.9040489792823792,-7.073648452758789,-0.08389335672117493,0.0026929378509521484,0.09694170951843262,3.8821879039257827,-12.437037305736242,-0.2933917206290626,0.7526672125086423,0.4103279957562601,0.011919802964040303,0.10818793417896222,3.9666110573303275,3.8094039540157314,-12.477817590197377,-12.626882836261208,0.0,0.0
18.917131900787354,0.22524549067020416,0.9040489792823792,-7.073648452758789,-0.08389335672117493,0.002463102340698242,0.09694170951843262,3.880318175774105,-12.413321694498444,-0.3133917206290626,0.7519248158755739,0.3979878607035211,0.012004657786260326,0.10663994825464411,3.994732135348309,3.7803046899478834,-12.436172251119846,-12.636542833992412,0.0,0.0
18.924923181533813,0.22416828572750092,0.9000271558761597,-7.05714225769043,-0.08280563245540179,0.0024857521057128906,0.09694170951843262,3.878103203558001,-12.388317458931267,-0.33339172062906264,0.751686768582465,0.4378113881644268,0.011892790311376116,0.10527189136101656,4.032151127477081,3.741607421623815,-12.38510243011376,-12.653030870840302,0.0,0.0
18.932756423950195,0.22310568392276764,0.8959224820137024,-7.040596961975098,-0.0817192447025342,0.002494335174560547,0.09694170951843262,3.8755094509274883,-12.362017569575391,-0.35339172062906266,0.751448750092105,0.47809909606323653,0.011758744833339876,0.10375948146128354,4.082660742864793,3.689456920120067,-12.321114292195505,-12.679855966177763,0.0,0.0
18.94120454788208,0.22205670177936554,0.8917338848114014,-7.024016380310059,-0.08063747147823268,0.0027434825897216797,0.09694170951843262,3.872503400209921,-12.334412464629787,-0.3733917206290627,0.7511839013939794,0.5180612999217477,0.011636369125967657,0.10213347985934032,4.151963522849733,3.6180868157629784,-12.238846389614169,-12.7223900660747,0.0,0.0
18.951111793518066,0.22000163793563843,0.8831014633178711,-6.990810394287109,-0.07848762570306436,0.0025930404663085938,0.09694170951843262,3.8690516700404727,-12.305490036789946,-0.3933917206290627,0.7513762609003543,0.6041627344916772,0.011335449147050803,0.09978305385417924,4.24856405536297,3.5189275977463326,-12.130234363826004,-12.788703252758523,0.0,0.0
18.961267232894897,0.21898841857910156,0.8787512183189392,-6.9752278327941895,-0.07741883774033828,0.0027222633361816406,0.09694170951843262,3.8651211338827576,-12.275235625498107,-0.4133917206290627,0.7510529437687015,0.6358295181562679,0.011363395970680755,0.09715272217271657,4.384737430386495,3.3796383774650707,-11.983713816329269,-12.89036079514322,0.0,0.0
