time,x,y,z,yaw,ctrl_comp_time,rollout_comptime,y_ref,z_ref,yaw_ref,throttle,roll_rate,pitch_rate,yaw_rate,save_tube_pyH,save_tube_pyL,save_tube_pzH,save_tube_pzL,wy,wz
15.002716064453125,-0.0039029140025377274,4.0700507164001465,-12.585640907287598,0.0017097038153647826,0.17928600311279297,0.14426612854003906,4.0754234944528465,-12.536891427319693,-0.30903184386649196,0.6017141280835606,-0.9570224596770194,-0.005089072943150812,0.014939699972009637,4.118332983407103,4.035828998201709,-12.523940285217519,-12.563431276161786,2.882412999435763,-0.3360299743497894
15.578383445739746,-0.0039029140025377274,4.0700507164001465,-12.585640907287598,0.0017097038153647826,0.16468501091003418,0.11408162117004395,4.071744342696265,-12.522173488038048,-0.329031843866492,0.6012471012122738,-1.0,-0.022238283140988163,-0.0010484846216645143,4.129805762122329,4.017485187093283,-12.501239305070778,-12.558203859403244,2.882412999435763,-0.3360299743497894
15.77219557762146,-0.021669181063771248,4.003727912902832,-12.539321899414062,-0.000582274630532259,0.0028624534606933594,0.11199545860290527,4.0675627507296905,-12.50593060108299,-0.349031843866492,0.5981293966114274,-0.8877848386873757,-0.06184308024380652,-0.07702695359359883,4.144977516786222,3.9944576462829624,-12.473839536083899,-12.55464886929829,2.125149109478618,-5.554910746871353
15.781082153320312,-0.021669181063771248,4.003727912902832,-12.539321899414062,-0.000582274630532259,0.002507448196411133,0.11199545860290527,4.06285953471596,-12.48813704353643,-0.369031843866492,0.5969135929538468,-0.9871563666620186,-0.16556996403174287,-0.3186405941991688,4.165329111942998,3.9652258721437037,-12.440537515125982,-12.55392123830113,1.9696262673191696,-6.795883038084656
15.788530588150024,-0.02199633978307247,4.003485679626465,-12.539532661437988,-0.0005659426992536548,0.0029637813568115234,0.11199545860290527,4.057616910120933,-12.468764220900036,-0.38903184386649203,0.5956447491116795,-1.0,-0.35589897482222005,-0.5593202970995844,4.19307812138098,3.9275352801108254,-12.399667131324309,-12.557632744565158,1.9696262673191696,-6.795883038084656
15.797985315322876,-0.02263292856514454,4.003025531768799,-12.53990364074707,-0.0005276679957808977,0.0026395320892333984,0.11199545860290527,4.051818659827771,-12.447780732902961,-0.40903184386649205,0.5943267065750419,-1.0,-0.48912928237555403,-0.6796601485497923,4.231529701237998,3.8780466707579517,-12.348559305818851,-12.568392454586862,1.9696262673191696,-6.795883038084656
15.807843446731567,-0.022942818701267242,4.002807140350342,-12.540063858032227,-0.0005100491659125045,0.0028705596923828125,0.11199545860290527,4.0454502989522325,-12.425152448365473,-0.42903184386649207,0.5931146389332863,-1.0,-0.5823904976628879,-0.7398300742748961,4.28562622090295,3.811786931938998,-12.282936338944351,-12.590412516750778,1.9696262673191696,-6.795883038084656
15.817718267440796,-0.023246755823493004,4.002598762512207,-12.540184020996094,-0.0005147436861831639,0.0023508071899414062,0.11199545860290527,4.038499235911995,-12.400842588884352,-0.4490318438664921,0.5922750909878389,-1.0,-0.6476733483640216,-0.769915037137448,4.362624093822498,3.7214725339755756,-12.196243467039315,-12.630176763130914,1.9696262673191696,-6.795883038084656
15.827917337417603,-0.02354489453136921,4.002402305603027,-12.54023551940918,-0.0005695802670909605,0.0027985572814941406,0.11199545860290527,4.030954929321509,-12.374811821083807,-0.4690318438664921,0.5917011140008233,-1.0,-0.6933713438548151,-0.784957518568724,4.472755554799546,3.596848070427426,-12.077933793355747,-12.698155954583973,1.9696262673191696,-6.795883038084656
15.837774753570557,-0.024125196039676666,4.002052307128906,-12.540033340454102,-0.0007994851735847047,0.00286865234375,0.11199545860290527,4.022809040303378,-12.347018357155433,-0.4890318438664921,0.5922598992106929,-1.0,-0.7253599406983706,-0.7924787592843622,4.62945942738949,3.4244558000021548,-11.910999157910547,-12.811277103760396,1.9696262673191696,-6.795883038084656
15.971590518951416,-0.033609334379434586,4.00583553314209,-12.521553993225098,-0.006663586142345607,0.0035872459411621094,0.12175965309143066,4.01405557982755,-12.317418063391964,-0.5090318438664921,0.6230939986489537,-0.20815169396436017,-0.7477519584888594,-0.7962393796421813,4.852422715117329,3.184594355083259,-11.66892717638237,-12.995966645357216,2.111245475977855,-4.682322893776691
15.98048210144043,-0.033609334379434586,4.00583553314209,-12.521553993225098,-0.006663586142345607,0.0029604434967041016,0.12175965309143066,4.004691050710708,-12.285964576402522,-0.5290318438664922,0.6219056953718,-0.30500388133244105,-0.7634263709422017,-0.7981196898210906,5.172870319580181,2.846029313055428,-11.314180881758157,-13.289671019300604,2.111245475977855,-4.682322893776691
15.989320755004883,-0.034754395484924316,4.006374835968018,-12.516592025756836,-0.007877478263425941,0.0027408599853515625,0.12175965309143066,4.060004811356435,-12.541651014827087,-0.2742494941540514,0.6239655180320902,-0.26483494998058843,-0.7743984596595412,-0.7990598449105454,4.085959140160699,4.036758356828783,-12.536552470788333,-12.557863945256358,2.111245475977855,-4.682322893776691
15.99842095375061,-0.034754395484924316,4.006374835968018,-12.516592025756836,-0.007877478263425941,0.0026018619537353516,0.12175965309143066,4.0569628566949385,-12.529428543097037,-0.29424949415405144,0.6227767112199853,-0.36718435347625167,-0.7820789217616789,-0.7995299224552727,4.093507280774149,4.023573600059184,-12.519695920985827,-12.55175439459717,2.111245475977855,-4.682322893776691
16.007949829101562,-0.0360042043030262,4.006711483001709,-12.50778579711914,-0.009875490279427301,0.0038084983825683594,0.12175965309143066,4.05345720116975,-12.515713723438944,-0.31424949415405146,0.6265811600834705,-0.24995530064344695,-0.7874552452331752,-0.7997649612276364,4.103398647910367,4.0071400187875055,-12.49934463816821,-12.546173138467934,2.111245475977855,-4.682322893776691
16.0185546875,-0.0360042043030262,4.006711483001709,-12.50778579711914,-0.009875490279427301,0.002040386199951172,0.12175965309143066,4.049466754449232,-12.500486052531027,-0.3342494941540515,0.6253943860608759,-0.3578589530102255,-0.7912186716632227,-0.7998824806138182,4.116427588637331,3.986620119470768,-12.474778362726944,-12.541802421318629,2.111245475977855,-4.682322893776691
16.029510021209717,-0.03648800030350685,4.006580829620361,-12.501041412353516,-0.011336609691221272,0.003348112106323242,0.12175965309143066,4.0449715227659055,-12.483722066620894,-0.3542494941540515,0.6272388309093857,-0.3153675020288019,-0.7938530701642559,-0.7999412403069092,4.133790617973186,3.960776259562075,-12.444986135122296,-12.539609224462717,2.111245475977855,-4.682322893776691
16.038321018218994,-0.03648800030350685,4.006580829620361,-12.501041412353516,-0.011336609691221272,0.003946065902709961,0.12175965309143066,4.039952781552621,-12.465395390889327,-0.3742494941540515,0.6260553512017133,-0.42906426772278417,-0.7956971491149791,-0.7999706201534545,4.15728463994889,3.9277727738227455,-12.408557678287336,-12.540953972870902,2.111245475977855,-4.682322893776691
16.05325484275818,-0.03648800030350685,4.006580829620361,-12.501041412353516,-0.011336609691221272,0.00400543212890625,0.12175965309143066,4.034393245609617,-12.445476798216365,-0.3942494941540515,0.6248728800249599,-0.5457470209736808,-0.7969880043804854,-0.7999853100767272,4.189593555553898,3.884889709300866,-12.363459551154007,-12.547814489819634,1.9903137754476568,-2.7941185041262377
16.0641450881958,-0.03854943811893463,4.007001876831055,-12.481401443481445,-0.015426522936039355,0.002794027328491211,0.12175965309143066,4.028277236326254,-12.423934277158054,-0.41424949415405155,0.6310079284776953,-0.3210175460185789,-0.7570224938654566,-0.7999926550383637,4.234732570709991,3.8280788548633073,-12.306233627250545,-12.563587645087585,1.9903137754476568,-2.7941185041262377
16.070816040039062,-0.03854943811893463,4.007001876831055,-12.481401443481445,-0.015426522936039355,0.0022156238555908203,0.12175965309143066,4.02159084549767,-12.400733108917535,-0.43424949415405156,0.6298395573582584,-0.44377477205781357,-0.6886175531169749,-0.7999963275191818,4.298673798035258,3.7513384705829225,-12.231686782531904,-12.593399812130103,1.9903137754476568,-2.7941185041262377
16.079241275787354,-0.03854943811893463,4.007001876831055,-12.481401443481445,-0.015426522936039355,0.0027952194213867188,0.12175965309143066,4.014322095294214,-12.375835953071093,-0.4542494941540516,0.6286734266195749,-0.5695932362214621,-0.668519056171772,-0.7999981637595909,4.390050168386789,3.6460097000901808,-12.131573480444336,-12.645424445774388,1.9903137754476568,-2.7941185041262377
16.219334602355957,-0.024113431572914124,3.981438636779785,-12.383768081665039,-0.03799736981368301,0.002046346664428711,0.13010263442993164,4.006461093960275,-12.349202941788185,-0.4742494941540516,0.6715850674618169,0.3513245028248766,-0.19767453476722188,-0.7999990818797955,4.520652337014756,3.5002799801907836,-11.992573333097425,-12.732904701061337,1.9903137754476568,-2.7941185041262377
16.229477167129517,-0.022135725244879723,3.978602170944214,-12.377083778381348,-0.03966634929361121,0.004386186599731445,0.13010263442993164,3.9980001868387576,-12.320791782264621,-0.4942494941540516,0.6722686912602632,0.28651743953007736,0.04849109142689679,-0.6443975568557282,4.70611579867484,3.2984962325749465,-11.793458830728786,-12.876985900506627,2.3345936016678377,-1.3655235125880723
16.243314504623413,-0.01773649826645851,3.972461462020874,-12.363176345825195,-0.04309261377327253,0.0027277469635009766,0.13010263442993164,4.060004811356411,-12.541651014827087,-0.2742494941540514,0.6745239097795394,0.3118946509702214,0.27394376399882775,-0.27830202896328926,4.085959140160679,4.036758356828762,-12.536552470788333,-12.557863945256358,2.3345936016678377,-1.3655235125880723
16.25235915184021,-0.01773649826645851,3.972461462020874,-12.363176345825195,-0.04309261377327253,0.002050161361694336,0.13010263442993164,4.0569628566949065,-12.529428543097037,-0.29424949415405144,0.6737145114968729,0.15017472127692733,0.4317606347991794,0.2763802948855924,4.093507280774122,4.023573600059156,-12.519695920985827,-12.55175439459717,2.389329415572901,-0.9212119143831659
16.260300159454346,-0.0099776741117239,3.962041139602661,-12.340963363647461,-0.0487718449959596,0.002568483352661133,0.13010263442993164,4.053457201169707,-12.515713723438944,-0.31424949415405146,0.6771860054586005,0.2727096162601388,0.5422324443594256,0.5381901474427961,4.10339864791033,4.007140018787467,-12.499344638168209,-12.546173138467934,2.389329415572901,-0.9212119143831659
16.267915964126587,-0.0099776741117239,3.962041139602661,-12.340963363647461,-0.0487718449959596,0.002348184585571289,0.13010263442993164,4.0494667544491785,-12.500486052531025,-0.3342494941540515,0.676410747360503,0.10319618882958759,0.619562711051598,0.6690950737213981,4.116427588637284,3.9866201194707194,-12.47477836272694,-12.541802421318629,2.389329415572901,-0.9212119143831659
16.277912616729736,-0.0070614744909107685,3.9582102298736572,-12.333242416381836,-0.051179035592664984,0.0031347274780273438,0.13010263442993164,4.04497152276584,-12.48372206662089,-0.3542494941540515,0.6768423245549144,0.02486616109382833,0.6736938977361187,0.7345475368606991,4.133790617973127,3.960776259562014,-12.444986135122289,-12.53960922446272,2.389329415572901,-0.9212119143831659
16.287696838378906,-0.003971694502979517,3.954188823699951,-12.325380325317383,-0.05396668953219633,0.002193450927734375,0.13010263442993164,4.0399527815525405,-12.46539539088932,-0.3742494941540515,0.677247679796383,-0.06128147585502619,0.7115857284152831,0.7672737684303497,4.157284639948819,3.927772773822671,-12.408557678287323,-12.540953972870907,2.389329415572901,-0.9212119143831659
16.29786252975464,0.0029095630161464214,3.945638418197632,-12.308159828186035,-0.060661458092664655,0.0027322769165039062,0.13010263442993164,4.03439324560952,-12.445476798216356,-0.3942494941540515,0.6786386838168956,-0.06814254545378529,0.7381100098906982,0.7836368842151749,4.189593555553813,3.8848897093007757,-12.363459551153987,-12.547814489819643,2.389329415572901,-0.9212119143831659
16.308001041412354,0.006624924018979073,3.9410529136657715,-12.299394607543945,-0.06453350341141656,0.0027539730072021484,0.13010263442993164,4.02827723632614,-12.423934277158041,-0.41424949415405155,0.6787414679482865,-0.16621009534301412,0.7566770069234888,0.7918184421075876,4.23473257070989,3.8280788548632003,-12.306233627250519,-12.563587645087598,2.389329415572901,-0.9212119143831659
16.317729234695435,0.010538696311414242,3.9362633228302,-12.290536880493164,-0.06874528698703383,0.0025980472564697266,0.13010263442993164,4.021590845497537,-12.40073310891752,-0.43424949415405156,0.6787635792930983,-0.26859930206289184,0.7696739048464422,0.7959092210537937,4.298673798035138,3.7513384705827977,-12.231686782531868,-12.59339981213012,2.389329415572901,-0.9212119143831659
16.32788348197937,0.018939588218927383,3.9260222911834717,-12.27259349822998,-0.07793812718731791,0.002714395523071289,0.13010263442993164,4.014322095294061,-12.375835953071073,-0.4542494941540516,0.6794255382206309,-0.2919811447538142,0.7787717333925096,0.7979546105268969,4.390050168386645,3.6460097000900413,-12.131573480444295,-12.645424445774402,2.389329415572901,-0.9212119143831659
16.45985722541809,0.018939588218927383,3.9260222911834717,-12.27259349822998,-0.07793812718731791,0.002254009246826172,0.1232917308807373,4.006461093960098,-12.34920294178816,-0.4742494941540516,0.683623107634762,-1.0,0.7851402133747568,0.7989773052634486,4.520652337014571,3.50027998019064,-11.99257333309739,-12.732904701061337,2.389329415572901,-0.9212119143831659
16.469610929489136,0.12771804630756378,3.7950358390808105,-12.110440254211426,-0.1530814286355332,0.005552768707275391,0.1232917308807373,3.9980001868385555,-12.320791782264589,-0.4942494941540516,0.6959915899458989,0.34156967802109284,0.7895981493623297,0.7994886526317244,4.706115798674578,3.2984962325748315,-11.793458830728792,-12.876985900506579,1.4199979638698412,-2.9641572613720655
16.480658769607544,0.1525774747133255,3.764263391494751,-12.07992172241211,-0.16243992481129516,0.0034906864166259766,0.1232917308807373,4.058540440416639,-12.535725157791498,-0.28424949415405143,0.696655772753168,0.4590195405541184,0.7927187045536309,0.7997443263158622,4.085959140160679,4.036758356828762,-12.536552470788333,-12.557863945256358,1.4199979638698412,-2.9641572613720655
16.4880313873291,0.1525774747133255,3.764263391494751,-12.07992172241211,-0.16243992481129516,0.0033898353576660156,0.1232917308807373,4.055269333348899,-12.522758888318071,-0.30424949415405145,0.6959990383127178,0.24633779227246588,0.7949030931875416,0.7998721631579312,4.093507280774122,4.023573600059156,-12.519695920985827,-12.55175439459717,1.4199979638698412,-2.9641572613720655
16.49822425842285,0.16102167963981628,3.753660202026367,-12.069583892822266,-0.16527442000180204,0.0033888816833496094,0.1232917308807373,4.051523854054001,-12.508290392022785,-0.32424949415405147,0.6959735872138113,0.13962037935994598,0.7964321652312791,0.7999360815789657,4.10339864791033,4.007140018787467,-12.499344638168209,-12.546173138467934,1.4199979638698412,-2.9641572613720655
16.50780439376831,0.1695384681224823,3.7428832054138184,-12.059167861938477,-0.16798539805752638,0.003036022186279297,0.1232917308807373,4.047283438767571,-12.492297679792504,-0.3442494941540515,0.6958636437509177,0.03278658058974804,0.7975025156618955,0.7999680407894829,4.116427588637284,3.9866201194707194,-12.47477836272694,-12.541802421318629,1.4199979638698412,-2.9641572613720655
16.517895460128784,0.1781248152256012,3.731928586959839,-12.048681259155273,-0.17057552496754919,0.002977609634399414,0.1232917308807373,4.042528706885745,-12.474755825579114,-0.3642494941540515,0.6956789708261628,-0.07509402060529036,0.7982517609633268,0.7999840203947415,4.133790617973127,3.960776259562014,-12.444986135122289,-12.53960922446272,1.4199979638698412,-2.9641572613720655
16.529043912887573,0.19549357891082764,3.7094802856445312,-12.027524948120117,-0.17531692706132734,0.005719184875488281,0.1232917308807373,4.037241632427294,-12.455637020486813,-0.3842494941540515,0.6958167478945805,-0.07410026055002972,0.7987762326743288,0.7999920101973708,4.157284639948819,3.927772773822671,-12.408557678287323,-12.540953972870907,1.4199979638698412,-2.9641572613720655
16.544347286224365,0.21520060300827026,3.684692621231079,-12.006732940673828,-0.179441446681749,0.005499601364135742,0.1232917308807373,4.031405712786546,-12.434910636169056,-0.40424949415405154,0.6958781811601477,-0.08216067831929263,0.7991433628720302,0.7999960050986854,4.189593555553813,3.8848897093007757,-12.363459551153987,-12.547814489819643,1.4199979638698412,-2.9641572613720655
16.556159257888794,0.21520060300827026,3.684692621231079,-12.006732940673828,-0.179441446681749,0.003259420394897461,0.1232917308807373,4.025006134308969,-12.412543297330991,-0.42424949415405155,0.6953151328833411,-0.31802006159733087,0.7994003540104212,0.7999980025493427,4.23473257070989,3.8280788548632003,-12.306233627250519,-12.563587645087598,1.6977407536071447,-2.979957702168757
16.565157651901245,0.24497470259666443,3.646282196044922,-11.975061416625977,-0.1846788572711908,0.0033216476440429688,0.1232917308807373,4.018029934238344,-12.388498963109345,-0.44424949415405157,0.6956968387207388,-0.23399763926535588,0.7995802478072949,0.7999990012746714,4.298673798035138,3.7513384705827977,-12.231686782531868,-12.59339981213012,1.6977407536071447,-2.979957702168757
16.572083234786987,0.24497470259666443,3.646282196044922,-11.975061416625977,-0.1846788572711908,0.0037567615509033203,0.1232917308807373,4.010466158602607,-12.36273901707936,-0.4642494941540516,0.6951510881017086,-0.4775804129672422,0.7997061734651064,0.7999995006373357,4.390050168386645,3.6460097000900413,-12.131573480444295,-12.645424445774402,1.6977407536071447,-2.979957702168757
16.582942485809326,0.2649259865283966,3.6198723316192627,-11.953640937805176,-0.18765227938638956,0.003278970718383789,0.1232917308807373,4.002306015624706,-12.33522236561768,-0.4842494941540516,0.6952523161731379,-0.5091223612874656,0.7997943214255745,0.7999997503186679,4.520652337014571,3.50027998019064,-11.99257333309739,-12.732904701061337,1.6977407536071447,-2.979957702168757
16.59022569656372,0.2649259865283966,3.6198723316192627,-11.953640937805176,-0.18765227938638956,0.003261089324951172,0.1232917308807373,3.9935430242648837,-12.305905544331008,-0.5042494941540516,0.6947343403644944,-0.7602368998227214,0.7998560249979022,0.7999998751593339,4.706115798674578,3.2984962325748315,-11.793458830728792,-12.876985900506579,1.6977407536071447,-2.979957702168757
16.73328709602356,0.46531859040260315,3.339778423309326,-11.748976707458496,-0.20007057619707205,0.0030829906463623047,0.13221502304077148,4.0569628566949065,-12.529428543097037,-0.29424949415405144,0.6914725723994151,1.0,0.7998992174985315,0.799999937579667,4.085959140160679,4.036758356828762,-12.536552470788333,-12.557863945256358,1.6977407536071447,-2.979957702168757
16.74174213409424,0.46531859040260315,3.339778423309326,-11.748976707458496,-0.20007057619707205,0.003076791763305664,0.13221502304077148,4.053457201169707,-12.515713723438944,-0.31424949415405146,0.6912463620721577,1.0,0.799929452248972,0.7398236947462099,4.093507280774122,4.023573600059156,-12.519695920985827,-12.55175439459717,1.980909608943262,-2.9048077170425946
16.750454425811768,0.48641982674598694,3.3070671558380127,-11.726808547973633,-0.2002600591589037,0.0029196739196777344,0.13221502304077148,4.0494667544491785,-12.500486052531025,-0.3342494941540515,0.6909575491942183,1.0,0.7999506165742805,0.71558186767961,4.10339864791033,4.007140018787467,-12.499344638168209,-12.546173138467934,1.980909608943262,-2.9048077170425946
16.758163452148438,0.48641982674598694,3.3070671558380127,-11.726808547973633,-0.2002600591589037,0.004377126693725586,0.13221502304077148,4.04497152276584,-12.48372206662089,-0.3542494941540515,0.6905991807919445,1.0,0.7999654316019963,0.711871186656955,4.116427588637284,3.9866201194707194,-12.47477836272694,-12.541802421318629,1.980909608943262,-2.9048077170425946
16.768542528152466,0.5071145296096802,3.2736613750457764,-11.704268455505371,-0.20032451053593278,0.0027163028717041016,0.13221502304077148,4.0399527815525405,-12.46539539088932,-0.3742494941540515,0.6902892820585824,1.0,0.7999758021213974,0.6923037518067934,4.133790617973127,3.960776259562014,-12.444986135122289,-12.53960922446272,1.980909608943262,-2.9048077170425946
16.779879808425903,0.5172975659370422,3.2566864490509033,-11.69286823272705,-0.20029000396731758,0.005574464797973633,0.13221502304077148,4.03439324560952,-12.445476798216356,-0.3942494941540515,0.6899048736635564,1.0,0.7999830614849782,0.6780049027099934,4.157284639948819,3.927772773822671,-12.408557678287323,-12.540953972870907,1.980909608943262,-2.9048077170425946
16.794698238372803,0.5383405685424805,3.220945119857788,-11.669734001159668,-0.1999082070798538,0.0036711692810058594,0.13221502304077148,4.02827723632614,-12.423934277158041,-0.41424949415405155,0.6895832755271654,1.0,0.7999881430394847,0.6520922637828063,4.189593555553813,3.8848897093007757,-12.363459551153987,-12.547814489819643,1.980909608943262,-2.9048077170425946
16.80294942855835,0.5383405685424805,3.220945119857788,-11.669734001159668,-0.1999082070798538,0.0042917728424072266,0.13221502304077148,4.021590845497537,-12.40073310891752,-0.43424949415405156,0.6893075831196194,1.0,0.7999917001276393,0.6455918882279081,4.23473257070989,3.8280788548632003,-12.306233627250519,-12.563587645087598,1.980909608943262,-2.9048077170425946
16.81340980529785,0.5689545273780823,3.16605281829834,-11.634360313415527,-0.19872156445352798,0.003600597381591797,0.13221502304077148,4.014322095294061,-12.375835953071073,-0.4542494941540516,0.6894986761838223,1.0,0.7999941900893476,0.6093747953489187,4.298673798035138,3.7513384705827977,-12.231686782531868,-12.59339981213012,1.980909608943262,-2.9048077170425946
16.821253299713135,0.5689545273780823,3.16605281829834,-11.634360313415527,-0.19872156445352798,0.003139495849609375,0.13221502304077148,4.006461093960098,-12.34920294178816,-0.4742494941540516,0.6892369103279349,0.8976103726403739,0.7999959330625434,0.5983729150984491,4.390050168386645,3.6460097000900413,-12.131573480444295,-12.645424445774402,1.980909608943262,-2.9048077170425946
16.83000898361206,0.5887004137039185,3.128631114959717,-11.610309600830078,-0.19767382730257563,0.003607511520385742,0.13221502304077148,3.9980001868385555,-12.320791782264589,-0.4942494941540516,0.6895219250649476,0.8527856750430751,0.7999971531437804,0.580971183069729,4.520652337014571,3.50027998019064,-11.99257333309739,-12.732904701061337,1.980909608943262,-2.9048077170425946
16.83781623840332,0.5887004137039185,3.128631114959717,-11.610309600830078,-0.19767382730257563,0.004295825958251953,0.13221502304077148,3.988934102337744,-12.290557867069701,-0.5142494941540516,0.6892846507444833,0.5811666166200915,0.7999980072006463,0.5770756202668865,4.706115798674578,3.2984962325748315,-11.793458830728792,-12.876985900506579,1.980909608943262,-2.9048077170425946
16.970325708389282,0.5887004137039185,3.128631114959717,-11.610309600830078,-0.19767382730257563,0.0038297176361083984,0.11647582054138184,4.055269333348899,-12.522758888318071,-0.30424949415405145,0.702592325819232,-1.0,0.7999986050404524,0.5847075383451031,4.085959140160679,4.036758356828762,-12.536552470788333,-12.557863945256358,1.9847694707418204,-2.837004589185114
16.980047702789307,0.754857063293457,2.7310776710510254,-11.367072105407715,-0.1775901959460915,0.0034956932067871094,0.11647582054138184,4.051523854054001,-12.508290392022785,-0.32424949415405147,0.7088162172372923,0.495168020326036,0.3314129665100284,-0.8181585326550923,4.093507280774122,4.023573600059156,-12.519695920985827,-12.55175439459717,1.9847694707418204,-2.837004589185114
16.98761749267578,0.754857063293457,2.7310776710510254,-11.367072105407715,-0.1775901959460915,0.0036737918853759766,0.11647582054138184,4.047283438767571,-12.492297679792504,-0.3442494941540515,0.7084325104550968,0.42654562854001377,0.35688275371113126,-0.22068372194253047,4.10339864791033,4.007140018787467,-12.499344638168209,-12.546173138467934,1.9847694707418204,-2.837004589185114
16.999879837036133,0.754857063293457,2.7310776710510254,-11.367072105407715,-0.1775901959460915,0.0034329891204833984,0.11647582054138184,4.042528706885745,-12.474755825579114,-0.3642494941540515,0.708296117699027,0.35805529937045566,0.34867241638351354,0.01031220113525781,4.116427588637284,3.9866201194707194,-12.47477836272694,-12.541802421318629,1.9847694707418204,-2.837004589185114
17.00855278968811,0.7762510776519775,2.6633670330047607,-11.326053619384766,-0.17273492803465357,0.0031926631927490234,0.11647582054138184,4.037241632427294,-12.455637020486813,-0.3842494941540515,0.7096612856911138,0.5108659845005028,0.26611645138703915,0.06301952241131682,4.133790617973127,3.960776259562014,-12.444986135122289,-12.53960922446272,1.9847694707418204,-2.837004589185114
17.017813205718994,0.7829423546791077,2.640697956085205,-11.312213897705078,-0.17109601645350597,0.003035306930541992,0.11647582054138184,4.031405712786546,-12.434910636169056,-0.40424949415405154,0.7097648772274423,0.5241354008464325,0.1934332443252434,0.10584698418924765,4.157284639948819,3.927772773822671,-12.408557678287323,-12.540953972870907,1.9847694707418204,-2.837004589185114
17.027849674224854,0.7894022464752197,2.6179802417755127,-11.298315048217773,-0.1693787398841436,0.0034563541412353516,0.11647582054138184,4.025006134308969,-12.412543297330991,-0.42424949415405155,0.7097929471367206,0.5435335781834678,0.12880223547864778,0.1311973759731738,4.189593555553813,3.8848897093007757,-12.363459551153987,-12.547814489819643,1.9847694707418204,-2.837004589185114
17.037814140319824,0.7956249713897705,2.5952134132385254,-11.284364700317383,-0.1675397416549626,0.003513813018798828,0.11647582054138184,4.018029934238344,-12.388498963109345,-0.44424949415405157,0.7097944557817432,0.5666002517074062,0.07024928174810753,0.14735694489507745,4.23473257070989,3.8280788548632003,-12.306233627250519,-12.563587645087598,1.9847694707418204,-2.837004589185114
17.04948115348816,0.7956249713897705,2.5952134132385254,-11.284364700317383,-0.1675397416549626,0.003304004669189453,0.11647582054138184,4.010466158602607,-12.36273901707936,-0.4642494941540516,0.7096247834563666,0.5009359097411963,0.03776256494339529,0.1652045485677339,4.298673798035138,3.7513384705827977,-12.231686782531868,-12.59339981213012,2.609563758778374,-2.7348173121793034
17.05810809135437,0.8127040266990662,2.524684190750122,-11.241530418395996,-0.1611147336168523,0.0038557052612304688,0.11647582054138184,4.002306015624706,-12.33522236561768,-0.4842494941540516,0.7101248168266189,0.7134875137782561,-0.040691609932340785,0.15777090552309614,4.390050168386645,3.6460097000900413,-12.131573480444295,-12.645424445774402,2.609563758778374,-2.7348173121793034
17.067955017089844,0.8127040266990662,2.524684190750122,-11.241530418395996,-0.1611147336168523,0.002884387969970703,0.11647582054138184,3.9935430242648837,-12.305905544331008,-0.5042494941540516,0.7099362692905214,0.6488097764752019,-0.08353451533231183,0.17454988473470812,4.520652337014571,3.50027998019064,-11.99257333309739,-12.732904701061337,2.609563758778374,-2.7348173121793034
17.077881336212158,0.8228943943977356,2.4775047302246094,-11.212715148925781,-0.15621425200709071,0.0036432743072509766,0.11647582054138184,3.984173157521648,-12.274742832242865,-0.5242494941540516,0.7103970021354707,0.7596286549609841,-0.14283348537462004,0.18101553637173207,4.706115798674578,3.2984962325748315,-11.793458830728792,-12.876985900506579,2.609563758778374,-2.7348173121793034
17.08773159980774,0.8228943943977356,2.4775047302246094,-11.212715148925781,-0.15621425200709071,0.0031003952026367188,0.11647582054138184,4.053457201169707,-12.515713723438944,-0.31424949415405146,0.710198391756424,0.6958515881726361,-0.17536765721575356,0.19368988073612936,4.085959140160679,4.036758356828762,-12.536552470788333,-12.557863945256358,2.609563758778374,-2.7348173121793034
17.218122959136963,0.8228943943977356,2.4775047302246094,-11.212715148925781,-0.15621425200709071,0.0033903121948242188,0.12140870094299316,4.0494667544491785,-12.500486052531025,-0.3342494941540515,0.6905984184751996,1.0,-0.19111503615934108,0.20346893077758135,4.093507280774122,4.023573600059156,-12.519695920985827,-12.55175439459717,2.609563758778374,-2.7348173121793034
17.22818684577942,0.8653088212013245,2.0484979152679443,-10.94806957244873,-0.1029602281378868,0.003489255905151367,0.12140870094299316,4.04497152276584,-12.48372206662089,-0.3542494941540515,0.6992352294753849,1.0,-0.37378052531153877,0.2637017786737712,4.10339864791033,4.007140018787467,-12.499344638168209,-12.546173138467934,2.6401575182415717,-3.0474557110955267
17.237760066986084,0.8651102185249329,2.0245814323425293,-10.933124542236328,-0.10003527243049185,0.0027539730072021484,0.12140870094299316,4.0399527815525405,-12.46539539088932,-0.3742494941540515,0.6992208279879479,1.0,-0.5016463677180771,0.30304718718996165,4.116427588637284,3.9866201194707194,-12.47477836272694,-12.541802421318629,2.6401575182415717,-3.0474557110955267
17.249309062957764,0.8651102185249329,2.0245814323425293,-10.933124542236328,-0.10003527243049185,0.005092620849609375,0.12140870094299316,4.03439324560952,-12.445476798216356,-0.3942494941540515,0.6985885641980386,1.0,-0.591152457402654,0.32682186402962926,4.133790617973127,3.960776259562014,-12.444986135122289,-12.53960922446272,2.6401575182415717,-3.0474557110955267
17.26229500770569,0.8623136281967163,1.929147720336914,-10.872698783874512,-0.08862075407916384,0.0034401416778564453,0.12140870094299316,4.02827723632614,-12.423934277158041,-0.41424949415405155,0.7011804804571161,1.0,-0.6538067201818578,0.35644695221970624,4.157284639948819,3.927772773822671,-12.408557678287323,-12.540953972870907,2.9848917209031116,-2.497045024279621
17.270232915878296,0.8623136281967163,1.929147720336914,-10.872698783874512,-0.08862075407916384,0.0027081966400146484,0.12140870094299316,4.021590845497537,-12.40073310891752,-0.43424949415405156,0.7004828750773399,1.0,-0.6976647041273005,0.37207849415896255,4.189593555553813,3.8848897093007757,-12.363459551153987,-12.547814489819643,2.9848917209031116,-2.497045024279621
17.278730630874634,0.8611252903938293,1.9053645133972168,-10.857426643371582,-0.08580080032070006,0.0028493404388427734,0.12140870094299316,4.014322095294061,-12.375835953071073,-0.4542494941540516,0.700522650976209,1.0,-0.7283652928891103,0.38363898240355343,4.23473257070989,3.8280788548632003,-12.306233627250519,-12.563587645087598,2.9848917209031116,-2.497045024279621
17.287667512893677,0.8597449064254761,1.8816179037094116,-10.842087745666504,-0.08294728453612629,0.0020542144775390625,0.12140870094299316,4.006461093960098,-12.34920294178816,-0.4742494941540516,0.7005628758605849,1.0,-0.7498557050223773,0.3917570115753867,4.298673798035138,3.7513384705827977,-12.231686782531868,-12.59339981213012,2.9848917209031116,-2.497045024279621
17.298202514648438,0.8581740260124207,1.8579115867614746,-10.826679229736328,-0.08005034745622802,0.0029611587524414062,0.12140870094299316,3.9980001868385555,-12.320791782264589,-0.4942494941540516,0.7006148093478658,1.0,-0.7648989935156641,0.39689411701430294,4.390050168386645,3.6460097000900413,-12.131573480444295,-12.645424445774402,2.9848917209031116,-2.497045024279621
17.30799674987793,0.8559305667877197,1.8335102796554565,-10.810846328735352,-0.0771082290824551,0.0027968883514404297,0.12140870094299316,3.988934102337744,-12.290557867069701,-0.5142494941540516,0.7006887156225714,1.0,-0.775429295460965,0.39990816029118403,4.520652337014571,3.50027998019064,-11.99257333309739,-12.732904701061337,2.9848917209031116,-2.497045024279621
17.317909479141235,0.8508686423301697,1.784927487373352,-10.779023170471191,-0.07134026009421243,0.002535104751586914,0.12140870094299316,3.9792600924786106,-12.258454392091846,-0.5342494941540517,0.7015362290630092,1.0,-0.7828005068226754,0.3992324276438162,4.706115798674578,3.2984962325748315,-11.793458830728792,-12.876985900506579,2.9848917209031116,-2.497045024279621
17.328027963638306,0.8480703234672546,1.760740041732788,-10.763028144836426,-0.06842096485171653,0.0029146671295166016,0.12140870094299316,4.051523854054001,-12.508290392022785,-0.32424949415405147,0.7016268090133246,1.0,-0.7879603547758728,0.3958285487063902,4.085959140160679,4.036758356828762,-12.536552470788333,-12.557863945256358,2.9848917209031116,-2.497045024279621
17.451659679412842,0.8480703234672546,1.760740041732788,-10.763028144836426,-0.06842096485171653,0.0022852420806884766,0.11464953422546387,4.047283438767571,-12.492297679792504,-0.3442494941540515,0.6876693629045517,1.0,-0.791572248343111,0.3937138250256888,4.093507280774122,4.023573600059156,-12.519695920985827,-12.55175439459717,2.9848917209031116,-2.497045024279621
17.459807872772217,0.7666531205177307,1.3417625427246094,-10.468482971191406,-0.021310556865029903,0.0020935535430908203,0.11464953422546387,4.042528706885745,-12.474755825579114,-0.3642494941540515,0.7029585695664764,0.5776835263060902,-0.6774630735012032,0.14935622302788928,4.10339864791033,4.007140018787467,-12.499344638168209,-12.546173138467934,3.1539735310938384,-2.3770062066017106
17.467763423919678,0.7666531205177307,1.3417625427246094,-10.468482971191406,-0.021310556865029903,0.0023398399353027344,0.11464953422546387,4.037241632427294,-12.455637020486813,-0.3842494941540515,0.702224314233581,0.5196181490175955,-0.6526695590951566,0.16862884418906693,4.116427588637284,3.9866201194707194,-12.47477836272694,-12.541802421318629,3.1539735310938384,-2.3770062066017106
17.477866411209106,0.760543942451477,1.3196669816970825,-10.451798439025879,-0.0192309273686594,0.0025217533111572266,0.11464953422546387,4.031405712786546,-12.434910636169056,-0.40424949415405154,0.7025119568882157,0.4206377757687739,-0.6327298943456726,0.17659709376894098,4.133790617973127,3.960776259562014,-12.444986135122289,-12.53960922446272,3.1539735310938384,-2.3770062066017106
17.487794876098633,0.7543492913246155,1.2977319955825806,-10.435056686401367,-0.01720136045559613,0.002102375030517578,0.11464953422546387,4.025006134308969,-12.412543297330991,-0.42424949415405155,0.7028206069372579,0.3213920658153906,-0.6141899091342522,0.1832957826327151,4.157284639948819,3.927772773822671,-12.408557678287323,-12.540953972870907,3.1539735310938384,-2.3770062066017106
17.498026609420776,0.7417222857475281,1.2543615102767944,-10.401389122009277,-0.013334272552410684,0.0026950836181640625,0.11464953422546387,4.018029934238344,-12.388498963109345,-0.44424949415405157,0.704255810417055,0.1727830764307603,-0.5831196976792864,0.1772387528535918,4.189593555553813,3.8848897093007757,-12.363459551153987,-12.547814489819643,3.1539735310938384,-2.3770062066017106
17.507755994796753,0.7352979183197021,1.232935905456543,-10.384469032287598,-0.011526852919135216,0.003596782684326172,0.11464953422546387,4.010466158602607,-12.36273901707936,-0.4642494941540516,0.7045842660427091,0.07307556482606792,-0.5588255308262008,0.18245231091189257,4.23473257070989,3.8280788548632003,-12.306233627250519,-12.563587645087598,3.1539735310938384,-2.3770062066017106
17.517757892608643,0.7287838459014893,1.2116889953613281,-10.367501258850098,-0.009795717374005648,0.00223541259765625,0.11464953422546387,4.002306015624706,-12.33522236561768,-0.4842494941540516,0.7049203960521262,-0.024251057850690483,-0.5372124665861427,0.1862520623279337,4.298673798035138,3.7513384705827977,-12.231686782531868,-12.59339981213012,3.1539735310938384,-2.3770062066017106
17.52786350250244,0.7222052812576294,1.190626859664917,-10.350481033325195,-0.008127062198449907,0.0024356842041015625,0.11464953422546387,3.9935430242648837,-12.305905544331008,-0.5042494941540516,0.7052761264424893,-0.11820026043507714,-0.516689634639008,0.1887161541938869,4.390050168386645,3.6460097000900413,-12.131573480444295,-12.645424445774402,3.1539735310938384,-2.3770062066017106
17.537928104400635,0.7088716626167297,1.1490719318389893,-10.316279411315918,-0.004942417211682246,0.0024340152740478516,0.11464953422546387,3.984173157521648,-12.274742832242865,-0.5242494941540516,0.7067838527023331,-0.2528167697800341,-0.4850274712654874,0.18385030821030146,4.520652337014571,3.50027998019064,-11.99257333309739,-12.732904701061337,3.1539735310938384,-2.3770062066017106
17.547819137573242,0.7010679841041565,1.1281166076660156,-10.298864364624023,-0.003409771217637858,0.0024390220642089844,0.11464953422546387,3.974194980140159,-12.241686373415078,-0.5442494941540517,0.7072029022013913,-0.33312957041791047,-0.46216311615623284,0.18377028372810902,4.706115798674578,3.2984962325748315,-11.793458830728792,-12.876985900506579,3.402959740772875,-1.1986116304284848
17.557785272598267,0.6932337880134583,1.107369303703308,-10.281400680541992,-0.0019891399521292027,0.003160715103149414,0.11464953422546387,4.0494667544491785,-12.500486052531025,-0.3342494941540515,0.7076391167731486,-0.4083986497484584,-0.4433511786675921,0.18172382606526036,4.085959140160679,4.036758356828762,-12.536552470788333,-12.557863945256358,3.402959740772875,-1.1986116304284848
17.685567140579224,0.564475953578949,0.8052686452865601,-9.996540069580078,0.02026909349401374,0.002011537551879883,0.11764955520629883,4.04497152276584,-12.48372206662089,-0.3542494941540515,0.7180671936431076,0.858473680298713,-0.30031572722537103,0.1750059662269162,4.093507280774122,4.023573600059156,-12.519695920985827,-12.55175439459717,3.402959740772875,-1.1986116304284848
17.693076372146606,0.564475953578949,0.8052686452865601,-9.996540069580078,0.02026909349401374,0.0023839473724365234,0.11764955520629883,4.0399527815525405,-12.46539539088932,-0.3742494941540515,0.7173081700236555,0.8780858754750444,-0.22903282674059047,-0.01498403662474921,4.10339864791033,4.007140018787467,-12.499344638168209,-12.546173138467934,3.3993452945429716,-0.4783540579859812
17.700680017471313,0.5387008190155029,0.7557047605514526,-9.943253517150879,0.02433971575035166,0.002220630645751953,0.11764955520629883,4.03439324560952,-12.445476798216356,-0.3942494941540515,0.7200720092507058,0.9301641523088662,-0.1926780371917291,-0.05518364920919742,4.116427588637284,3.9866201194707194,-12.47477836272694,-12.541802421318629,3.3993452945429716,-0.4783540579859812
17.707791328430176,0.5387008190155029,0.7557047605514526,-9.943253517150879,0.02433971575035166,0.0028374195098876953,0.11764955520629883,4.02827723632614,-12.423934277158041,-0.41424949415405155,0.7193122463983461,0.9555960998322427,-0.1853127718359554,-0.04611163619453944,4.133790617973127,3.960776259562014,-12.444986135122289,-12.53960922446272,3.3993452945429716,-0.4783540579859812
17.717790365219116,0.5301721692085266,0.739564061164856,-9.925374984741211,0.02571360684424418,0.0021049976348876953,0.11764955520629883,4.021590845497537,-12.40073310891752,-0.43424949415405156,0.7197224931054431,0.9959750633158728,-0.17282234897080354,-0.04834597503026224,4.157284639948819,3.927772773822671,-12.408557678287323,-12.540953972870907,3.3993452945429716,-0.4783540579859812
17.727810621261597,0.5216800570487976,0.7236031293869019,-9.907438278198242,0.02709628753389507,0.002559185028076172,0.11764955520629883,4.014322095294061,-12.375835953071073,-0.4542494941540516,0.7201107961609053,1.0,-0.1595786886449896,-0.050563845912598236,4.189593555553813,3.8848897093007757,-12.363459551153987,-12.547814489819643,3.3993452945429716,-0.4783540579859812
17.73791766166687,0.5132254362106323,0.7078275680541992,-9.889453887939453,0.02848791405129973,0.0021104812622070312,0.11764955520629883,4.006461093960098,-12.34920294178816,-0.4742494941540516,0.7203977107510174,1.0,-0.1465435589974457,-0.05158074085221448,4.23473257070989,3.8280788548632003,-12.306233627250519,-12.563587645087598,3.3993452945429716,-0.4783540579859812
17.74786376953125,0.5048108696937561,0.6922362446784973,-9.871432304382324,0.029902749780580794,0.004448413848876953,0.11764955520629883,3.9980001868385555,-12.320791782264589,-0.4942494941540516,0.7206245053036465,0.9949599207028124,-0.13453894117597584,-0.051670384823233995,4.298673798035138,3.7513384705827977,-12.231686782531868,-12.59339981213012,3.4061730580983336,-0.6558788699864152
17.759368658065796,0.5048108696937561,0.6922362446784973,-9.871432304382324,0.029902749780580794,0.0023560523986816406,0.11764955520629883,3.988934102337744,-12.290557867069701,-0.5142494941540516,0.7198580616865506,0.9653680632948378,-0.13166755276148895,-0.04380430804250505,4.390050168386645,3.6460097000900413,-12.131573480444295,-12.645424445774402,3.4061730580983336,-0.6558788699864152
17.76775074005127,0.47982823848724365,0.6465551853179932,-9.81718635559082,0.03431380160627179,0.00229644775390625,0.11764955520629883,3.9792600924786106,-12.258454392091846,-0.5342494941540517,0.7220589264928297,0.8958962137325278,-0.1121396442070943,-0.05857186942801267,4.520652337014571,3.50027998019064,-11.99257333309739,-12.732904701061337,3.4061730580983336,-0.6558788699864152
17.777953147888184,0.4634031057357788,0.6170102953910828,-9.78087329864502,0.03720839900571314,0.0024306774139404297,0.11764955520629883,3.9689780676819475,-12.224432481751471,-0.5542494941540517,0.7233208655282927,0.7993461483427721,-0.10058580451399274,-0.05867720731083063,4.706115798674578,3.2984962325748315,-11.793458830728792,-12.876985900506579,3.4061730580983336,-0.6558788699864152
17.78780460357666,0.4552619159221649,0.6025137901306152,-9.762670516967773,0.03860034072849792,0.0023086071014404297,0.11764955520629883,4.047283438767571,-12.492297679792504,-0.3442494941540515,0.7235894407405924,0.7265839566246447,-0.09410063162216671,-0.055681810105935786,4.085959140160679,4.036758356828762,-12.536552470788333,-12.557863945256358,3.4061730580983336,-0.6558788699864152
17.915323734283447,0.4552619159221649,0.6025137901306152,-9.762670516967773,0.03860034072849792,0.0024929046630859375,0.11854386329650879,4.042528706885745,-12.474755825579114,-0.3642494941540515,0.7107224301828831,0.534209496144307,-0.09246083741524182,-0.0508810592041352,4.093507280774122,4.023573600059156,-12.519695920985827,-12.55175439459717,3.4061730580983336,-0.6558788699864152
17.9243266582489,0.33183109760284424,0.3933618366718292,-9.452118873596191,0.05545814882917799,0.00449371337890625,0.11854386329650879,4.037241632427294,-12.455637020486813,-0.3842494941540515,0.7305894470932954,-0.7618775337654796,-0.036980217766038104,-0.11076208790455344,4.10339864791033,4.007140018787467,-12.499344638168209,-12.546173138467934,3.3982103996221156,-1.1979654062621556
17.936226844787598,0.33183109760284424,0.3933618366718292,-9.452118873596191,0.05545814882917799,0.0029435157775878906,0.11854386329650879,4.031405712786546,-12.434910636169056,-0.40424949415405154,0.7297926507630422,-0.7891413445475719,-0.028328305906915076,-0.08520167797196872,4.116427588637284,3.9866201194707194,-12.47477836272694,-12.541802421318629,3.3982103996221156,-1.1979654062621556
17.945420265197754,0.3124357759952545,0.36344727873802185,-9.395563125610352,0.05730045609132314,0.002553701400756836,0.11854386329650879,4.025006134308969,-12.412543297330991,-0.42424949415405155,0.7332779907828999,-1.0,-0.01533917935974179,-0.07599529781591122,4.133790617973127,3.960776259562014,-12.444986135122289,-12.53960922446272,3.3982103996221156,-1.1979654062621556
17.953158378601074,0.3124357759952545,0.36344727873802185,-9.395563125610352,0.05730045609132314,0.0020825862884521484,0.11854386329650879,4.018029934238344,-12.388498963109345,-0.44424949415405157,0.7324817505424843,-1.0,-0.010605625214116338,-0.06965229646118389,4.157284639948819,3.927772773822671,-12.408557678287323,-12.540953972870907,3.0971459534856063,-0.14144522483384803
17.961737871170044,0.299719899892807,0.34468865394592285,-9.357590675354004,0.058349983346682024,0.002489805221557617,0.11854386329650879,4.010466158602607,-12.36273901707936,-0.4642494941540516,0.7347052203025581,-1.0,-0.0019877945536274306,-0.06813826471770174,4.189593555553813,3.8848897093007757,-12.363459551153987,-12.547814489819643,3.0971459534856063,-0.14144522483384803
17.968433141708374,0.299719899892807,0.34468865394592285,-9.357590675354004,0.058349983346682024,0.0024199485778808594,0.11854386329650879,4.002306015624706,-12.33522236561768,-0.4842494941540516,0.7339081166720793,-1.0,0.0003538980225924254,-0.06908778060083554,4.23473257070989,3.8280788548632003,-12.306233627250519,-12.563587645087598,3.0971459534856063,-0.14144522483384803
17.977807760238647,0.28717997670173645,0.3269059658050537,-9.319419860839844,0.05926323184100289,0.0028247833251953125,0.11854386329650879,3.9935430242648837,-12.305905544331008,-0.5042494941540516,0.7358966425633385,-1.0,0.008480901652190483,-0.06984202917969685,4.298673798035138,3.7513384705827977,-12.231686782531868,-12.59339981213012,3.0971459534856063,-0.14144522483384803
17.987804174423218,0.2809784710407257,0.31839632987976074,-9.300283432006836,0.05968531669643011,0.002170085906982422,0.11854386329650879,3.984173157521648,-12.274742832242865,-0.5242494941540516,0.7364465779803945,-1.0,0.014334552316320566,-0.07126699805839297,4.390050168386645,3.6460097000900413,-12.131573480444295,-12.645424445774402,3.0971459534856063,-0.14144522483384803
17.99788546562195,0.27482345700263977,0.31014418601989746,-9.281115531921387,0.06009410850030163,0.002641439437866211,0.11854386329650879,3.974194980140159,-12.241686373415078,-0.5442494941540517,0.7370125175195164,-1.0,0.019408140817488224,-0.07252363940582424,4.520652337014571,3.50027998019064,-11.99257333309739,-12.732904701061337,3.0971459534856063,-0.14144522483384803
18.00794291496277,0.2687261700630188,0.3021215498447418,-9.261911392211914,0.060495329976714474,0.0033965110778808594,0.11854386329650879,3.9636097803987127,-12.206686305666462,-0.5642494941540517,0.7375787933752803,-1.0,0.024107647751622753,-0.07351690207264598,4.706115798674578,3.2984962325748315,-11.793458830728792,-12.876985900506579,3.0971459534856063,-0.14144522483384803
18.12770104408264,0.18691742420196533,0.21698717772960663,-8.975860595703125,0.06531679524923313,0.0024547576904296875,0.10846567153930664,3.995635317185822,-12.495272772858243,-0.2850761170254436,0.741526875472283,-1.0,0.06462165402473193,-0.06300686357896082,4.026107161110522,3.967415263105237,-12.487771735410703,-12.513863537786731,3.0971459534856063,-0.14144522483384803
18.137983083724976,0.18691742420196533,0.21698717772960663,-8.975860595703125,0.06531679524923313,0.0021877288818359375,0.10846567153930664,3.9930293978100035,-12.483073774309865,-0.3050761170254436,0.7406568827840939,-1.0,0.0732684170933759,-0.07211017772507902,4.035326278517766,3.9534582996019063,-12.470076355061792,-12.508641495674796,3.1625853223246225,-0.21319256730135966
18.14781928062439,0.17216166853904724,0.20612651109695435,-8.918413162231445,0.06589414041940483,0.0022644996643066406,0.10846567153930664,3.9899334018391523,-12.469379346307159,-0.32507611702544364,0.7431872867014522,-1.0,0.08121026495048418,-0.07764700879787363,4.047179638471325,3.9359083046065795,-12.448601814239344,-12.504227810657268,3.183147543357285,-0.2637632945166516
18.15794849395752,0.17216166853904724,0.20612651109695435,-8.918413162231445,0.06589414041940483,0.0028634071350097656,0.10846567153930664,3.986326748582581,-12.454167204167298,-0.34507611702544366,0.742320187716125,-1.0,0.08277692621154707,-0.08310908836266735,4.062620950867269,3.9137693475989828,-12.422510233325,-12.501418761660183,3.183147543357285,-0.2637632945166516
18.16796064376831,0.1625376045703888,0.19972048699855804,-8.88001537322998,0.06623154695496937,0.0024433135986328125,0.10846567153930664,3.982190046497516,-12.437412129297615,-0.3650761170254437,0.7436096735743146,-1.0,0.08707530738655476,-0.08499330443293175,4.083086490176659,3.885565138748685,-12.390627363149147,-12.501341082196124,3.183147543357285,-0.2637632945166516
18.177844762802124,0.1625376045703888,0.19972048699855804,-8.88001537322998,0.06623154695496937,0.002415895462036133,0.10846567153930664,3.977505264485035,-12.419086023431202,-0.3850761170254437,0.7427455937019223,-1.0,0.08790672476421106,-0.08764247824751223,4.110730528420525,3.8491039408860175,-12.351327915003905,-12.505566729382737,3.183147543357285,-0.2637632945166516
18.18782949447632,0.1473790407180786,0.19606338441371918,-8.823373794555664,0.06653221779522613,0.00223541259765625,0.10846567153930664,3.9722559004712066,-12.39915797216457,-0.4050761170254437,0.7449816539087657,-1.0,0.09191353829365763,-0.08790430461594918,4.148769922846633,3.8011343218213525,-12.30199951356339,-12.516649048843743,3.183147543357285,-0.2637632945166516
18.19791007041931,0.1473790407180786,0.19606338441371918,-8.823373794555664,0.06653221779522613,0.00257110595703125,0.10846567153930664,3.96642714680573,-12.377594317592857,-0.42507611702544373,0.7441231710396419,-1.0,0.09261078597740292,-0.09001555255267985,4.202023334835829,3.7368062695333872,-12.238480120966607,-12.538685486853083,3.183147543357285,-0.2637632945166516
18.207815885543823,0.1375746876001358,0.19419744610786438,-8.7855224609375,0.06662780923567065,0.0030264854431152344,0.10846567153930664,3.9600060520274294,-12.354358739814257,-0.44507611702544375,0.7452083993124564,-1.0,0.09409572996669208,-0.09079889368654592,4.277581881586211,3.6490008677595434,-12.154387456230342,-12.577988325121629,3.183147543357285,-0.2637632945166516
18.217875957489014,0.1375746876001358,0.19419744610786438,-8.7855224609375,0.06662780923567065,0.002349853515625,0.10846567153930664,3.9529816785641754,-12.32941234705301,-0.46507611702544377,0.7443556324447903,-1.0,0.09436376916885314,-0.0918695379540053,4.385482130026972,3.5276576216532787,-12.039457557885164,-12.644746289853913,3.183147543357285,-0.2637632945166516
18.228063106536865,0.12330237030982971,0.19216102361679077,-8.728677749633789,0.06664893657381707,0.004270076751708984,0.10846567153930664,3.945345255954049,-12.302713774129627,-0.4850761170254438,0.7462505488126429,-1.0,0.09522214442826521,-0.0921574876624809,4.538951632308757,3.3595292333156492,-11.877133026356615,-12.755436498030447,3.183147543357285,-0.2637632945166516
18.238285541534424,0.12330237030982971,0.19216102361679077,-8.728677749633789,0.06664893657381707,0.002239227294921875,0.10846567153930664,3.937090329194653,-12.274219288987972,-0.5050761170254437,0.7454057761906333,-1.0,0.0953566466946933,-0.0927171245212882,4.757164743364921,3.1254260859002168,-11.641558963682701,-12.93582872276238,3.183147543357285,-0.2637632945166516
18.36034846305847,0.12330237030982971,0.19216102361679077,-8.728677749633789,0.06664893657381707,0.002504110336303711,0.11040043830871582,3.994392289059835,-12.489358925368295,-0.2950761170254436,0.7318123015405211,-1.0,0.09505737967759754,-0.0931672725808347,4.026107161110522,3.967415263105237,-12.487771735410703,-12.513863537786731,3.196572749305369,-0.5473186694632141
18.368227243423462,0.050344835966825485,0.20062629878520966,-8.405660629272461,0.0628812268312848,0.0025277137756347656,0.11040043830871582,3.991543971538951,-12.476414812448306,-0.31507611702544364,0.7439227441447392,-0.4165956036817001,0.08883724634155557,-0.09174473125233272,4.035326278517766,3.9534582996019063,-12.470076355061792,-12.508641495674796,3.196572749305369,-0.5473186694632141
18.377898454666138,0.050344835966825485,0.20062629878520966,-8.405660629272461,0.0628812268312848,0.002416849136352539,0.11040043830871582,3.988195149233125,-12.461964497492591,-0.33507611702544365,0.7431158843644695,-0.5045382009564081,0.08659638772455916,-0.09921363533431642,4.047179638471325,3.9359083046065795,-12.448601814239344,-12.504227810657268,3.196572749305369,-0.5473186694632141
18.387897491455078,0.038985271006822586,0.2040441632270813,-8.348861694335938,0.06155588122283424,0.0022821426391601562,0.11040043830871582,3.984325814462671,-12.445984222672635,-0.35507611702544367,0.7441816275724944,-0.4161336174912411,0.08560268277518232,-0.09907717403400801,4.062620950867269,3.9137693475989828,-12.422510233325,-12.501418761660183,3.196572749305369,-0.5473186694632141
18.3982253074646,0.038985271006822586,0.2040441632270813,-8.348861694335938,0.06155588122283424,0.002546072006225586,0.11040043830871582,3.9799172346532705,-12.428447322193321,-0.3750761170254437,0.7433923854886427,-0.5089024701044931,0.08523538418732414,-0.09998791342423037,4.083086490176659,3.885565138748685,-12.390627363149147,-12.501341082196124,3.196572749305369,-0.5473186694632141
18.407867908477783,0.03532358258962631,0.20513789355754852,-8.329963684082031,0.06108041145110525,0.003123044967651367,0.11040043830871582,3.974952122333992,-12.409324281203567,-0.3950761170254437,0.7432363692680656,-0.5401089907735764,0.0850316360203433,-0.09798092911883777,4.110730528420525,3.8491039408860175,-12.351327915003905,-12.505566729382737,3.196572749305369,-0.5473186694632141
18.417826414108276,0.03172367811203003,0.2062005251646042,-8.311083793640137,0.06058966421712953,0.0028955936431884766,0.11040043830871582,3.9694148021846076,-12.388582803909845,-0.4150761170254437,0.7430426396575723,-0.5726702590777005,0.08419344353399963,-0.09658173329182929,4.148769922846633,3.8011343218213525,-12.30199951356339,-12.516649048843743,3.196572749305369,-0.5473186694632141
18.4278244972229,0.02818545326590538,0.20722660422325134,-8.292224884033203,0.06008378836973572,0.002632617950439453,0.11040043830871582,3.9632913746728766,-12.366187890675986,-0.43507611702544374,0.7428382494897211,-0.6082737244756802,0.0833029100240306,-0.09460901691412954,4.202023334835829,3.7368062695333872,-12.238480120966607,-12.538685486853083,3.196572749305369,-0.5473186694632141
18.438085556030273,0.021894214674830437,0.21081189811229706,-8.254903793334961,0.05901426629629965,0.0022072792053222656,0.11040043830871582,3.9565698758401253,-12.34210192386954,-0.45507611702544376,0.7432117919956541,-0.5947761374607543,0.08244783371168615,-0.09159889589345879,4.277581881586211,3.6490008677595434,-12.154387456230342,-12.577988325121629,3.196572749305369,-0.5473186694632141
18.447768211364746,0.01882898434996605,0.21251866221427917,-8.236268043518066,0.058450175246082425,0.002419710159301758,0.11040043830871582,3.9492404328122035,-12.316284762193533,-0.4750761170254438,0.7430208945941322,-0.6441153276486512,0.08140563430919381,-0.09071795692718884,4.385482130026972,3.5276576216532787,-12.039457557885164,-12.644746289853913,3.005749266027021,-1.259244094556345
18.457921504974365,0.015817321836948395,0.21415765583515167,-8.217645645141602,0.05787168061991571,0.0031538009643554688,0.11040043830871582,3.9412954146325694,-12.288693843222543,-0.4950761170254438,0.7428302008762652,-0.6967729885711688,0.081000878788208,-0.08731069770331984,4.538951632308757,3.3595292333156492,-11.877133026356615,-12.755436498030447,3.005749266027021,-1.259244094556345
18.467966318130493,0.01285872794687748,0.2157261073589325,-8.199040412902832,0.05727915465120799,0.0024499893188476562,0.11040043830871582,3.9327295780347535,-12.259284293843818,-0.5150761170254438,0.7426394348446301,-0.7116853657629161,0.08001027780641119,-0.08448695296953115,4.757164743364921,3.1254260859002168,-11.641558963682701,-12.93582872276238,3.005749266027021,-1.259244094556345
18.587560653686523,0.01285872794687748,0.2157261073589325,-8.199040412902832,0.05727915465120799,0.0023555755615234375,0.11205101013183594,3.9930293978100035,-12.483073774309865,-0.3050761170254436,0.7357821548420882,-0.6715508665965222,0.07892170693594495,-0.08328640796935678,4.026107161110522,3.967415263105237,-12.487771735410703,-12.513863537786731,3.005749266027021,-1.259244094556345
18.59741973876953,-0.02881535515189171,0.2290439009666443,-7.88442850112915,0.04594917103263346,0.002529621124267578,0.11205101013183594,3.9899334018391523,-12.469379346307159,-0.32507611702544364,0.7436530846488465,0.49312522902988,0.0781698556412305,-0.06969160801507339,4.035326278517766,3.9534582996019063,-12.470076355061792,-12.508641495674796,2.882088203047922,-1.7697879139243966
18.603872537612915,-0.02881535515189171,0.2290439009666443,-7.88442850112915,0.04594917103263346,0.002351045608520508,0.11205101013183594,3.986326748582581,-12.454167204167298,-0.34507611702544366,0.7430692792165682,0.4729617769383586,0.07442156889891972,-0.09417051094202168,4.047179638471325,3.9359083046065795,-12.448601814239344,-12.504227810657268,2.882088203047922,-1.7697879139243966
18.612481594085693,-0.032636091113090515,0.22860212624073029,-7.847548961639404,0.044490543964581075,0.0025167465209960938,0.11205101013183594,3.982190046497516,-12.437412129297615,-0.3650761170254437,0.743385341942717,0.6318441114034614,0.07971071165900587,-0.10288507681938362,4.062620950867269,3.9137693475989828,-12.422510233325,-12.501418761660183,2.882088203047922,-1.7697879139243966
18.619324207305908,-0.032636091113090515,0.22860212624073029,-7.847548961639404,0.044490543964581075,0.0024721622467041016,0.11205101013183594,3.977505264485035,-12.419086023431202,-0.3850761170254437,0.7428133082650867,0.6117303620020745,0.0834036042154357,-0.11029632134693976,4.083086490176659,3.885565138748685,-12.390627363149147,-12.501341082196124,2.882088203047922,-1.7697879139243966
18.627772569656372,-0.03628756105899811,0.22764381766319275,-7.810730934143066,0.04299871665570634,0.0027408599853515625,0.11205101013183594,3.9722559004712066,-12.39915797216457,-0.4050761170254437,0.7431303599305461,0.7785233890058532,0.0870087499002955,-0.11649344025986655,4.110730528420525,3.8491039408860175,-12.351327915003905,-12.505566729382737,2.882088203047922,-1.7697879139243966
18.637904405593872,-0.0380508154630661,0.226963073015213,-7.792341232299805,0.04224892202032404,0.0022535324096679688,0.11205101013183594,3.96642714680573,-12.377594317592857,-0.42507611702544373,0.7430097666043852,0.8544899707779317,0.0902876265763039,-0.1219338199547867,4.148769922846633,3.8011343218213525,-12.30199951356339,-12.516649048843743,2.882088203047922,-1.7697879139243966
18.648194313049316,-0.039780810475349426,0.22614623606204987,-7.7739691734313965,0.04149419641243776,0.0025348663330078125,0.11205101013183594,3.9600060520274294,-12.354358739814257,-0.44507611702544375,0.7428112492969507,0.9305996071977096,0.09317223376535622,-0.1265743537728362,4.202023334835829,3.7368062695333872,-12.238480120966607,-12.538685486853083,2.777411956021589,-1.7711431616400501
18.657983779907227,-0.041469208896160126,0.2251826375722885,-7.755619049072266,0.04073562540131337,0.0036475658416748047,0.11205101013183594,3.9529816785641754,-12.32941234705301,-0.46507611702544377,0.7425700316356899,1.0,0.09560282372101554,-0.13039494396463286,4.277581881586211,3.6490008677595434,-12.154387456230342,-12.577988325121629,2.777411956021589,-1.7711431616400501
18.66782283782959,-0.04472247138619423,0.22280257940292358,-7.718991756439209,0.039197584272576136,0.0024309158325195312,0.11205101013183594,3.945345255954049,-12.302713774129627,-0.4850761170254438,0.7426783681472471,1.0,0.09749113075626938,-0.13377711068711748,4.385482130026972,3.5276576216532787,-12.039457557885164,-12.644746289853913,2.777411956021589,-1.7711431616400501
18.677961587905884,-0.04628848657011986,0.22138427197933197,-7.700709342956543,0.03842102157599911,0.0025560855865478516,0.11205101013183594,3.937090329194653,-12.274219288987972,-0.5050761170254437,0.742483891940453,1.0,0.09863708189268085,-0.13660096745707023,4.538951632308757,3.3595292333156492,-11.877133026356615,-12.755436498030447,2.777411956021589,-1.7711431616400501
