time,x,y,z,yaw,ctrl_comp_time,rollout_comptime,y_ref,z_ref,yaw_ref,throttle,roll_rate,pitch_rate,yaw_rate,save_tube_pyH,save_tube_pyL,save_tube_pzH,save_tube_pzL,wy,wz
15.002970457077026,0.04196843132376671,3.969228744506836,-12.375720024108887,0.0008428610524301877,0.18864154815673828,0.1329033374786377,3.9655090910460276,-12.347673386258737,-0.15587493009375517,0.5815600124190504,-0.9980872581557771,0.03664282715721881,0.01710416948597987,3.9992861485883227,3.9324859118754696,-12.344575350533125,-12.358550475088101,-0.046103573254943124,-0.05246071373826788
15.472471475601196,0.04196843132376671,3.969228744506836,-12.375720024108887,0.0008428610524301877,0.1718435287475586,0.1329033374786377,3.9646023237972594,-12.338826032931163,-0.17587493009375518,0.5802473713794664,-1.0,0.09983499049691444,0.13798484223853172,4.010487432861709,3.9196769692018965,-12.33228938952079,-12.354565824787773,-0.046103573254943124,-0.05246071373826788
15.667085409164429,0.06489794701337814,3.9713563919067383,-12.440119743347168,3.684709061763824e-05,0.002668619155883789,0.11249399185180664,3.963471382083252,-12.328556380269184,-0.1958749300937552,0.5823114713610719,-0.9627817401737312,0.2935577081879362,0.4689924211192659,4.024438937212493,3.9036938745000795,-12.316584912343144,-12.351152950619376,-0.06614032949638873,-5.893671843940183
15.675995111465454,0.06595611572265625,3.971376895904541,-12.441579818725586,6.509482508202725e-05,0.0027632713317871094,0.11249399185180664,3.9620917312615274,-12.316864282049943,-0.21587493009375522,0.5810283431229678,-1.0,0.44549039573155536,0.6344962105596329,4.042026021794957,3.883602340596623,-12.296619192801758,-12.349157338401026,-0.06614032949638873,-5.893671843940183
15.683801889419556,0.06595611572265625,3.971376895904541,-12.441579818725586,6.509482508202725e-05,0.0025734901428222656,0.11249399185180664,3.9604388264466626,-12.303746525540776,-0.23587493009375524,0.5797091199285276,-1.0,0.5518432770120888,0.7172481052798164,4.064604983463011,3.857996946985877,-12.271138184779769,-12.34982967928298,-0.0524420214741961,-7.136965563352701
15.69297981262207,0.06683395802974701,3.9714465141296387,-12.44390869140625,0.00010568941831122635,0.002629995346069336,0.11249399185180664,3.9584882895328755,-12.28919682050846,-0.2558749300937552,0.5783494166512433,-1.0,0.6262902939084621,0.7586240526399083,4.094261439796276,3.824743108726518,-12.238276007592953,-12.355026352489501,-0.0524420214741961,-7.136965563352701
15.701094627380371,0.0672876238822937,3.9714648723602295,-12.445037841796875,0.00014744749337453197,0.002722024917602539,0.11249399185180664,3.956216086932707,-12.273205798162842,-0.27587493009375524,0.5770675667171303,-1.0,0.6784032057359235,0.7793120263199541,4.134203525613772,3.780584234824254,-12.19518755709672,-12.367576802164544,-0.0524420214741961,-7.136965563352701
15.711141109466553,0.06822527945041656,3.9714720249176025,-12.447183609008789,0.0002943277487559269,0.0025959014892578125,0.11249399185180664,3.953598707494061,-12.255761020019536,-0.29587493009375526,0.5761634321918979,-1.0,0.7148822440151464,0.7896560131599771,4.189335000992012,3.720568976003134,-12.137444920141323,-12.391887130730701,-0.0524420214741961,-7.136965563352701
15.721101522445679,0.06870952993631363,3.971461296081543,-12.448184967041016,0.00045871766853678906,0.0027756690979003906,0.11249399185180664,3.950613340064571,-12.236846996634691,-0.3158749300937553,0.5752411943541368,-1.0,0.7404175708106026,0.7948280065799885,4.267015571428122,3.6372912601555965,-12.058024949547,-12.434952551527159,-0.0524420214741961,-7.136965563352701
15.731002807617188,0.06920699775218964,3.9714465141296387,-12.44910717010498,0.0007061632438774267,0.001979827880859375,0.11249399185180664,3.947238050180898,-12.216445216134172,-0.3358749300937553,0.574626748659423,-1.0,0.7582922995674218,0.7974140032899942,4.3778638676998085,3.5200876668655603,-11.945677083333381,-12.507989616867398,-0.0524420214741961,-7.136965563352701
15.881527423858643,0.07826082408428192,3.9721858501434326,-12.443037986755371,0.0156362724066871,0.0019061565399169922,0.14130330085754395,3.943451955370942,-12.194534182430083,-0.3558749300937553,0.6070767249504081,-0.3099084271748628,0.7708046096971952,0.7987070016449972,4.5360383395558195,3.3547568858360344,-11.782630001352908,-12.628729628181826,-0.0524420214741961,-7.136965563352701
15.891180992126465,0.07899528741836548,3.9719009399414062,-12.438806533813477,0.018457233542861363,0.002902507781982422,0.14130330085754395,3.939235398568992,-12.171089462989311,-0.37587493009375533,0.6094101146158962,-0.2527861556821527,0.7795632267880367,0.7993535008224987,4.761273835041705,3.1215234864040893,-11.54256867628261,-12.823441671048318,-0.0651504424395099,-2.564840972526685
15.901089906692505,0.07931790500879288,3.971670627593994,-12.436410903930664,0.019934535517017668,0.002811431884765625,0.14130330085754395,3.9650822010318034,-12.343427607154279,-0.16587493009375517,0.6099619334852173,-0.25761324763347637,0.7856942587516257,0.7996767504112493,3.9992861485883227,3.9324859118754696,-12.344575350533125,-12.358550475088101,-0.0651504424395099,-2.564840972526685
15.91110372543335,0.07985921949148178,3.9710183143615723,-12.431065559387207,0.023021470738052177,0.002763032913208008,0.14130330085754395,3.964066405856287,-12.333868931481257,-0.1858749300937552,0.6122953776305817,-0.1948773576273677,0.789985981126138,0.7998383752056247,4.010487432861709,3.9196769692018965,-12.33228938952079,-12.354565824787773,-0.0651504424395099,-2.564840972526685
15.921143293380737,0.08006982505321503,3.9705870151519775,-12.428131103515625,0.02464240393847831,0.0026788711547851562,0.14130330085754395,3.9628141811957907,-12.32288826560139,-0.2058749300937552,0.6126635437995573,-0.20100502552211108,0.7929901867882967,0.7999191876028123,4.024438937212493,3.9036938745000795,-12.316584912343144,-12.351152950619376,-0.0651504424395099,-2.564840972526685
15.930967092514038,0.0799359679222107,3.9703261852264404,-12.42453670501709,0.026326599996929954,0.0021889209747314453,0.14130330085754395,3.9613009652244444,-12.310483932031373,-0.22587493009375523,0.6130115795567799,-0.21264925818678815,0.7950931307518077,0.7999595938014062,4.042026021794957,3.883602340596623,-12.296619192801758,-12.349157338401026,-0.0651504424395099,-2.564840972526685
15.941346883773804,0.07976069301366806,3.969980478286743,-12.420801162719727,0.028051933620620972,0.0030202865600585938,0.14130330085754395,3.9595022742613977,-12.296651180041225,-0.24587493009375525,0.6133375441724532,-0.22934709254182373,0.7965651915262654,0.7999797969007031,4.064604983463011,3.857996946985877,-12.271138184779769,-12.34982967928298,-0.0651504424395099,-2.564840972526685
15.951245546340942,0.07926099747419357,3.9690184593200684,-12.412890434265137,0.03170158457418615,0.002819061279296875,0.14130330085754395,3.957393880219014,-12.281382179630631,-0.26587493009375524,0.6152302279723179,-0.19398267665519797,0.7975956340683857,0.7999898984503516,4.094261439796276,3.824743108726518,-12.238276007592953,-12.355026352489501,-0.0651504424395099,-2.564840972526685
15.961135625839233,0.0789351537823677,3.9683988094329834,-12.408727645874023,0.03361693037574405,0.002639293670654297,0.14130330085754395,3.954951988497573,-12.26466602543601,-0.28587493009375525,0.6155322855040015,-0.22284041675903177,0.79831694384787,0.7999949492251758,4.134203525613772,3.780584234824254,-12.19518755709672,-12.367576802164544,-0.0651504424395099,-2.564840972526685
15.971442937850952,0.07855433970689774,3.967683792114258,-12.404424667358398,0.035597016206438944,0.0031931400299072266,0.14130330085754395,3.952153415791859,-12.246488750537079,-0.30587493009375527,0.6158383227256554,-0.2559766664258233,0.798821860693509,0.7999974746125879,4.189335000992012,3.720568976003134,-12.137444920141323,-12.391887130730701,-0.0651504424395099,-2.564840972526685
16.101450443267822,0.06185922399163246,3.9406116008758545,-12.311394691467285,0.07569850665761982,0.004591703414916992,0.11794757843017578,3.948975767282684,-12.226833350100389,-0.3258749300937553,0.6482783637650499,-0.1920689236289539,0.5078264811716628,0.7999987373062939,4.267015571428122,3.6372912601555965,-12.058024949547,-12.434952551527159,-0.2856950978052432,-2.224979148515045
16.1112322807312,0.06185922399163246,3.9406116008758545,-12.311394691467285,0.07569850665761982,0.002689838409423828,0.11794757843017578,3.9453976126959263,-12.205679814767366,-0.3458749300937553,0.6471957407396633,-0.30383586587537337,0.3505456585139609,0.799999368653147,4.3778638676998085,3.5200876668655603,-11.945677083333381,-12.507989616867398,-0.2856950978052432,-2.224979148515045
16.12126660346985,0.055896200239658356,3.931959390640259,-12.288464546203613,0.08495630312417743,0.00510859489440918,0.11794757843017578,3.9413986607228964,-12.183005173665464,-0.3658749300937553,0.6513603202435804,-0.2548464406542401,0.1877490521601896,0.7999996843265735,4.5360383395558195,3.3547568858360344,-11.782630001352908,-12.628729628181826,-0.2856950978052432,-2.224979148515045
16.134517431259155,0.055896200239658356,3.931959390640259,-12.288464546203613,0.08495630312417743,0.0048182010650634766,0.11794757843017578,3.9369599313086567,-12.158783546893563,-0.38587493009375534,0.6502919130159797,-0.37282569712637414,0.08789472101667739,0.6887949246497105,4.761273835041705,3.1215234864040893,-11.54256867628261,-12.823441671048318,-0.2856950978052432,-2.224979148515045
16.150298833847046,0.04628835991024971,3.918773651123047,-12.255949020385742,0.09862887901628364,0.0064313411712646484,0.11794757843017578,3.967006700895485,-12.362467461085767,-0.13428940729528568,0.6564886123320558,-0.28345562714467654,-0.11795258265708515,0.5308744596645576,3.991113044816208,3.94359572869079,-12.361488312700741,-12.369872032108058,-0.2856950978052432,-2.224979148515045
16.16501522064209,0.04628835991024971,3.918773651123047,-12.255949020385742,0.09862887901628364,0.00498509407043457,0.11794757843017578,3.9661806501189263,-12.35496802323452,-0.1542894072952857,0.6553302750483868,-0.40526672270632724,-0.318519736860432,0.12926560251400826,4.000026252809963,3.9332066443024836,-12.351983830633197,-12.365809077573644,-0.2856950978052432,-2.224979148515045
16.180419445037842,0.037410784512758255,3.906956911087036,-12.229988098144531,0.11094479055651282,0.004620075225830078,0.11794757843017578,3.965160357685774,-12.346041439953687,-0.17428940729528572,0.6588154374634879,-0.3522437740333918,-0.4629638158023024,-0.5730879718667901,4.011117454944272,3.920275139318032,-12.339637926536806,-12.361727779665438,-0.2856950978052432,-2.224979148515045
16.196125745773315,0.037410784512758255,3.906956911087036,-12.229988098144531,0.11094479055651282,0.0046083927154541016,0.11794757843017578,3.963921507063628,-12.335690921532173,-0.19428940729528574,0.6576875940679402,-0.48104227590787263,-0.5640746710616116,-0.686543985933395,4.024967098154149,3.9041724655245673,-12.323871289454619,-12.358216891760197,-0.29402385325075064,-1.8431161602604185
16.210776567459106,0.022947385907173157,3.887881278991699,-12.193024635314941,0.12955196874453265,0.005310535430908203,0.11794757843017578,3.962439580593527,-12.323916633967562,-0.21428940729528576,0.6624125255550282,-0.351429051341666,-0.6348522697431281,-0.7432719929666975,4.042461450758399,3.883963476693218,-12.303838541927924,-12.356125174265534,-0.29402385325075064,-1.8431161602604185
16.224143981933594,0.022947385907173157,3.887881278991699,-12.193024635314941,0.12955196874453265,0.005719184875488281,0.11794757843017578,3.9606900351856478,-12.31071567726151,-0.23428940729528577,0.6612859942382984,-0.486622365447666,-0.6843965888201897,-0.7716359964833488,4.064958222468851,3.858241358251276,-12.27828455455031,-12.35670502677532,-0.29402385325075064,-1.8431161602604185
16.364006757736206,-0.07755253463983536,3.771327257156372,-12.01016616821289,0.19919937598769039,0.0028069019317626953,0.12262392044067383,3.9586484793161434,-12.29608207363226,-0.25428940729528576,0.6694420543200444,0.7640814014059538,-0.7190776121741328,-0.7858179982416744,4.09454512950563,3.8248694149955935,-12.245340351369057,-12.361816549167088,-0.29402385325075064,-1.8431161602604185
16.37305498123169,-0.07755253463983536,3.771327257156372,-12.01016616821289,0.19919937598769039,0.0035238265991210938,0.12262392044067383,3.956290850782256,-12.280006765664107,-0.2742894072952858,0.668294443296163,0.6285816249755765,-0.743354328521893,-0.7929089991208372,4.1344335743761755,3.780587746200755,-12.2021560521908,-12.374294585657507,-0.40641174072022457,-2.179374397709395
16.381887674331665,-0.09959328174591064,3.7464358806610107,-11.976917266845703,0.20598725350209873,0.0025691986083984375,0.12262392044067383,3.953593594677402,-12.262477624380914,-0.2942894072952858,0.6705703153737465,0.8531122094604218,-0.760348029965325,-0.7964544995604187,4.189532533203513,3.7204397141548444,-12.14429639584055,-12.398553207773592,-0.40641174072022457,-2.179374397709395
16.391472339630127,-0.10711826384067535,3.7378053665161133,-11.965676307678223,0.2079610446963155,0.005819082260131836,0.12262392044067383,3.9505338410545163,-12.243479467199043,-0.3142894072952858,0.6706154048699025,0.8346828674117066,-0.7722436209757275,-0.7982272497802093,4.267210054403327,3.6370108012527647,-12.064727143979878,-12.441599336576028,-0.40641174072022457,-2.179374397709395
16.40489363670349,-0.10711826384067535,3.7378053665161133,-11.965676307678223,0.2079610446963155,0.005895376205444336,0.12262392044067383,3.9470895817544114,-12.222994085684283,-0.33428940729528583,0.6696430621115655,0.6877018526099399,-0.7805705346830093,-0.7991136248901047,4.378097736985907,3.519624486315593,-11.95218193788499,-12.514665931613544,-0.40641174072022457,-2.179374397709395
16.420401334762573,-0.13802608847618103,3.7015388011932373,-11.91995620727539,0.21442650658023657,0.006053924560546875,0.12262392044067383,3.9432398458861915,-12.201000283007861,-0.35428940729528585,0.6724889709473373,1.0,-0.7863993742781066,-0.7995568124450524,4.536371387486168,3.3540619400961686,-11.78887038085817,-12.635503973754254,-0.40641174072022457,-2.179374397709395
16.434800148010254,-0.13802608847618103,3.7015388011932373,-11.91995620727539,0.21442650658023657,0.0041849613189697266,0.12262392044067383,3.9666164485562225,-12.358896454103421,-0.1442894072952857,0.6714713199704754,0.8662389333210005,-0.7904795619946747,-0.7997784062225262,3.991113044816208,3.94359572869079,-12.361488312700741,-12.369872032108058,-0.40641174072022457,-2.179374397709395
16.445110321044922,-0.1547769457101822,3.6825473308563232,-11.896570205688477,0.21685293007408776,0.003101348876953125,0.12262392044067383,3.965696297131151,-12.350682853101123,-0.1642894072952857,0.6724516614777786,0.9124949707413212,-0.7933356933962724,-0.7998892031112631,4.000026252809963,3.9332066443024836,-12.351983830633197,-12.365809077573644,-0.40641174072022457,-2.179374397709395
16.451630115509033,-0.1547769457101822,3.6825473308563232,-11.896570205688477,0.21685293007408776,0.003270864486694336,0.12262392044067383,3.9645697818393573,-12.341044090607408,-0.18428940729528573,0.6714996110567732,0.7520536111174891,-0.7953349853773907,-0.7999446015556316,4.011117454944272,3.920275139318032,-12.339637926536806,-12.361727779665438,-0.40641174072022457,-2.179374397709395
16.461200952529907,-0.1816197633743286,3.653048515319824,-11.860785484313965,0.21889365309099462,0.0034737586975097656,0.12262392044067383,3.9632124637258075,-12.32998185809673,-0.20428940729528575,0.6734836693411411,0.8472849335809378,-0.7967344897641735,-0.7999723007778158,4.024967098154149,3.9041724655245673,-12.323871289454619,-12.358216891760197,-0.40641174072022457,-2.179374397709395
16.599013566970825,-0.35786688327789307,3.438882350921631,-11.626197814941406,0.2080633740929563,0.0037279129028320312,0.1284639835357666,3.961599790360063,-12.317494790662817,-0.22428940729528576,0.6905678774294737,-0.007162278258012189,-0.7977141428349214,-0.6183034286334546,4.042461450758399,3.883963476693218,-12.303838541927924,-12.356125174265534,-0.40641174072022457,-2.179374397709395
16.609352588653564,-0.35786688327789307,3.438882350921631,-11.626197814941406,0.2080633740929563,0.0033731460571289062,0.1284639835357666,3.9597072722506117,-12.303578450268075,-0.24428940729528578,0.6895253988578381,-0.18289338939232103,-0.7983998999844449,-0.7091517143167273,4.064958222468851,3.858241358251276,-12.27828455455031,-12.35670502677532,-0.026342096819440886,-1.3884430471226459
16.61722159385681,-0.35786688327789307,3.438882350921631,-11.626197814941406,0.2080633740929563,0.003046751022338867,0.1284639835357666,3.957510660288465,-12.288225318924155,-0.26428940729528577,0.6887297728490518,-0.36431286619349457,-0.7988799299891115,-0.7545758571583636,4.09454512950563,3.8248694149955935,-12.245340351369057,-12.361816549167088,-0.026342096819440886,-1.3884430471226459
16.62585949897766,-0.3790035843849182,3.4114444255828857,-11.59782600402832,0.204348634686069,0.0033736228942871094,0.1284639835357666,3.954986123679179,-12.271424801807072,-0.2842894072952858,0.689983200876165,-0.47437251744953923,-0.7992159509923781,-0.7772879285791818,4.1344335743761755,3.780587746200755,-12.2021560521908,-12.374294585657507,-0.026342096819440886,-1.3884430471226459
16.63282036781311,-0.3790035843849182,3.4114444255828857,-11.59782600402832,0.204348634686069,0.003036975860595703,0.1284639835357666,3.9521104278280457,-12.253163240277953,-0.3042894072952858,0.6891671069013596,-0.6617278585047615,-0.7994511656946647,-0.7886439642895909,4.189532533203513,3.7204397141548444,-12.14429639584055,-12.398553207773592,-0.026342096819440886,-1.3884430471226459
16.642213344573975,-0.41053828597068787,3.369748830795288,-11.555035591125488,0.19787008206271509,0.003370046615600586,0.1284639835357666,3.94886111165075,-12.233423934749267,-0.3242894072952858,0.6911665578976148,-0.7434065855880401,-0.7996158159862653,-0.7943219821447954,4.267210054403327,3.6370108012527647,-12.064727143979878,-12.441599336576028,-0.026342096819440886,-1.3884430471226459
16.650988578796387,-0.41053828597068787,3.369748830795288,-11.555035591125488,0.19787008206271509,0.003175973892211914,0.1284639835357666,3.945216663791168,-12.21218717730621,-0.34428940729528584,0.6903522236120821,-0.9368437549152426,-0.7997310711903858,-0.7971609910723977,4.378097736985907,3.519624486315593,-11.95218193788499,-12.514665931613544,-0.026342096819440886,-1.3884430471226459
16.66125226020813,-0.43142595887184143,3.34163761138916,-11.52642822265625,0.19295747761396106,0.0033164024353027344,0.1284639835357666,3.9411566972391086,-12.18943029396401,-0.36428940729528586,0.6911824204070887,-1.0,-0.7998117498332701,-0.7985804955361988,4.536371387486168,3.3540619400961686,-11.78887038085817,-12.635503973754254,-0.026342096819440886,-1.3884430471226459
16.67118763923645,-0.43142595887184143,3.34163761138916,-11.52642822265625,0.19295747761396106,0.003156900405883789,0.1284639835357666,3.9661806501189263,-12.35496802323452,-0.1542894072952857,0.6903873876969204,-1.0,-0.7998682248832891,-0.7992902477680994,3.991113044816208,3.94359572869079,-12.361488312700741,-12.369872032108058,-0.026342096819440886,-1.3884430471226459
16.68201494216919,-0.46371206641197205,3.2975218296051025,-11.483166694641113,0.18481348805005815,0.0025131702423095703,0.1284639835357666,3.965160357685774,-12.346041439953687,-0.17428940729528572,0.6919728577358053,-1.0,-0.7999077574183024,-0.7996451238840497,4.000026252809963,3.9332066443024836,-12.351983830633197,-12.365809077573644,0.11070563933481256,-1.7499033306855905
16.69318985939026,-0.46371206641197205,3.2975218296051025,-11.483166694641113,0.18481348805005815,0.005520820617675781,0.1284639835357666,3.963921507063628,-12.335690921532173,-0.19428940729528574,0.6911847454438017,-1.0,-0.7999354301928117,-0.7998225619420248,4.011117454944272,3.920275139318032,-12.339637926536806,-12.361727779665438,0.11070563933481256,-1.7499033306855905
16.70896077156067,-0.48655739426612854,3.2659037113189697,-11.453914642333984,0.1791047881772513,0.005544424057006836,0.1284639835357666,3.962439580593527,-12.323916633967562,-0.21428940729528576,0.6919217442370725,-1.0,-0.7999548011349681,-0.7999112809710125,4.024967098154149,3.9041724655245673,-12.323871289454619,-12.358216891760197,0.11070563933481256,-1.7499033306855905
16.87022852897644,-0.7034078240394592,2.940685987472534,-11.156588554382324,0.11480980029693451,0.003040313720703125,0.14594340324401855,3.9606900351856478,-12.31071567726151,-0.23428940729528577,0.6859298844010787,1.0,-0.7999683607944776,-0.7208878885856662,4.042461450758399,3.883963476693218,-12.303838541927924,-12.356125174265534,0.11070563933481256,-1.7499033306855905
16.87966537475586,-0.7034078240394592,2.940685987472534,-11.156588554382324,0.11480980029693451,0.0028755664825439453,0.14594340324401855,3.9586484793161434,-12.29608207363226,-0.25428940729528576,0.6852236142024838,1.0,-0.7999778525561344,-0.3780226287631905,4.064958222468851,3.858241358251276,-12.27828455455031,-12.35670502677532,0.1674482336713547,-1.6526394408693812
16.88913869857788,-0.7334110140800476,2.8893871307373047,-11.11067008972168,0.10494694835176159,0.003860950469970703,0.14594340324401855,3.956290850782256,-12.280006765664107,-0.2742894072952858,0.6860784884926339,1.0,-0.7999844967892941,-0.4033917453736495,4.09454512950563,3.8248694149955935,-12.245340351369057,-12.361816549167088,0.1674482336713547,-1.6526394408693812
16.89770197868347,-0.7334110140800476,2.8893871307373047,-11.11067008972168,0.10494694835176159,0.002630472183227539,0.14594340324401855,3.953593594677402,-12.262477624380914,-0.2942894072952858,0.6852662215143631,1.0,-0.7999891477525058,-0.40493523059313163,4.1344335743761755,3.780587746200755,-12.2021560521908,-12.374294585657507,0.1674482336713547,-1.6526394408693812
16.905893564224243,-0.7430817484855652,2.872065305709839,-11.09525203704834,0.1017028080855728,0.0037093162536621094,0.14594340324401855,3.9505338410545163,-12.243479467199043,-0.3142894072952858,0.6850240733289277,1.0,-0.7999924034267542,-0.4032757721211571,4.189532533203513,3.7204397141548444,-12.14429639584055,-12.398553207773592,0.1674482336713547,-1.6526394408693812
16.914120197296143,-0.7430817484855652,2.872065305709839,-11.09525203704834,0.1017028080855728,0.0025339126586914062,0.14594340324401855,3.9470895817544114,-12.222994085684283,-0.33428940729528583,0.6842517547439957,1.0,-0.799994682398728,-0.4031626256442463,4.267210054403327,3.6370108012527647,-12.064727143979878,-12.441599336576028,0.1674482336713547,-1.6526394408693812
16.92245364189148,-0.7619051337242126,2.837050437927246,-11.064273834228516,0.09545683048985519,0.003582000732421875,0.14594340324401855,3.9432398458861915,-12.201000283007861,-0.35428940729528585,0.6843832086671757,1.0,-0.7999962776791096,-0.3978128069043282,4.378097736985907,3.519624486315593,-11.95218193788499,-12.514665931613544,0.1674482336713547,-1.6526394408693812
16.931782484054565,-0.771050751209259,2.8193447589874268,-11.048718452453613,0.09253610105462307,0.00252532958984375,0.14594340324401855,3.9389648734586733,-12.177473920968298,-0.37428940729528587,0.6841171009135497,1.0,-0.7999973943753768,-0.394150462685978,4.536371387486168,3.3540619400961686,-11.78887038085817,-12.635503973754254,0.1674482336713547,-1.6526394408693812
16.941214323043823,-0.7889236211776733,2.783501625061035,-11.017916679382324,0.0870020648012287,0.0029175281524658203,0.14594340324401855,3.965696297131151,-12.350682853101123,-0.1642894072952857,0.6847473795417298,1.0,-0.7999981760627638,-0.39117066466954803,3.991113044816208,3.94359572869079,-12.361488312700741,-12.369872032108058,0.1674482336713547,-1.6526394408693812
16.951037645339966,-0.797653317451477,2.7653696537017822,-11.002645492553711,0.08424305262900919,0.002526521682739258,0.14594340324401855,3.9645697818393573,-12.341044090607408,-0.18428940729528573,0.6847336789256294,1.0,-0.7764593844443458,-0.3906627426035141,4.000026252809963,3.9332066443024836,-12.351983830633197,-12.365809077573644,0.1674482336713547,-1.6526394408693812
17.07918071746826,-0.914729654788971,2.4360501766204834,-10.728355407714844,0.034749768372000056,0.0021834373474121094,0.11801528930664062,3.9632124637258075,-12.32998185809673,-0.20428940729528575,0.7133199338218306,1.0,-0.1827905347680147,-0.5953313713017571,4.011117454944272,3.920275139318032,-12.339637926536806,-12.361727779665438,0.1674482336713547,-1.6526394408693812
17.086357355117798,-0.914729654788971,2.4360501766204834,-10.728355407714844,0.034749768372000056,0.0028753280639648438,0.11801528930664062,3.961599790360063,-12.317494790662817,-0.22428940729528576,0.7126956526431283,0.9620767889528486,-0.05577644395575623,-0.33493182016214845,4.024967098154149,3.9041724655245673,-12.323871289454619,-12.358216891760197,0.4342119267800112,-0.2042117539369488
17.093554496765137,-0.914729654788971,2.4360501766204834,-10.728355407714844,0.034749768372000056,0.0025954246520996094,0.11801528930664062,3.9597072722506117,-12.303578450268075,-0.24428940729528578,0.7120705187018639,0.9105417541957255,0.0024915268594947835,-0.1893860766009294,4.042461450758399,3.883963476693218,-12.303838541927924,-12.356125174265534,0.4342119267800112,-0.2042117539369488
17.10093355178833,-0.9239217042922974,2.3936541080474854,-10.6934814453125,0.028617352873478608,0.002325773239135742,0.11801528930664062,3.957510660288465,-12.288225318924155,-0.26428940729528577,0.7135098189101767,0.9343945143169803,0.09700281937562023,-0.12934612147270264,4.064958222468851,3.858241358251276,-12.27828455455031,-12.35670502677532,0.4342119267800112,-0.2042117539369488
17.111989974975586,-0.928167462348938,2.3723995685577393,-10.675921440124512,0.025452456121623404,0.002095460891723633,0.11801528930664062,3.954986123679179,-12.271424801807072,-0.2842894072952858,0.7139109616754615,0.9171117565471456,0.1677860373527977,-0.08211485475149646,4.09454512950563,3.8248694149955935,-12.245340351369057,-12.361816549167088,0.4342119267800112,-0.2042117539369488
17.12106490135193,-0.9359259009361267,2.329791307449341,-10.640609741210938,0.01874598300052043,0.004104137420654297,0.11801528930664062,3.9521104278280457,-12.253163240277953,-0.3042894072952858,0.7149691143611052,0.9300870113408908,0.2601865125773298,-0.05700948924921971,4.1344335743761755,3.780587746200755,-12.2021560521908,-12.374294585657507,0.4342119267800112,-0.2042117539369488
17.132808923721313,-0.9359259009361267,2.329791307449341,-10.640609741210938,0.01874598300052043,0.0035386085510253906,0.11801528930664062,3.94886111165075,-12.233423934749267,-0.3242894072952858,0.7143454105550836,0.8788184192667965,0.29510320432833553,-0.015932137523383252,4.189532533203513,3.7204397141548444,-12.14429639584055,-12.398553207773592,0.4342119267800112,-0.2042117539369488
17.14186978340149,-0.9426651000976562,2.287073850631714,-10.60511589050293,0.011511025789739358,0.0026674270629882812,0.11801528930664062,3.945216663791168,-12.21218717730621,-0.34428940729528584,0.7151940125081372,0.8865377595242538,0.3627122261842671,-0.0017597374373507094,4.267210054403327,3.6370108012527647,-12.064727143979878,-12.441599336576028,0.4342119267800112,-0.2042117539369488
17.15111017227173,-0.9456448554992676,2.2656846046447754,-10.587309837341309,0.007769472317001022,0.0022575855255126953,0.11801528930664062,3.9411566972391086,-12.18943029396401,-0.36428940729528586,0.7152977249214578,0.8624502582032252,0.4100891725193239,0.020507857439044305,4.378097736985907,3.519624486315593,-11.95218193788499,-12.514665931613544,0.4342119267800112,-0.2042117539369488
17.161219835281372,-0.9508160352706909,2.22286319732666,-10.551567077636719,0.00026976112565418875,0.002508878707885742,0.11801528930664062,3.936662121853498,-12.165127696414268,-0.3842894072952859,0.716136945113633,0.8591125924641589,0.4655589184548721,0.03602109352744785,4.536371387486168,3.3540619400961686,-11.78887038085817,-12.635503973754254,0.4342119267800112,-0.2042117539369488
17.17148232460022,-0.9530079960823059,2.20143985748291,-10.533638954162598,-0.0034274878343677415,0.0022611618041992188,0.11801528930664062,3.965160357685774,-12.346041439953687,-0.17428940729528572,0.716257874287546,0.8286069615354086,0.5021922537599482,0.057551515322443056,3.991113044816208,3.94359572869079,-12.361488312700741,-12.369872032108058,0.4342119267800112,-0.2042117539369488
17.181130409240723,-0.954938530921936,2.18001389503479,-10.515671730041504,-0.0070623174464361956,0.002132892608642578,0.11801528930664062,3.963921507063628,-12.335690921532173,-0.19428940729528574,0.716388962748172,0.7961519932654721,0.5307140972786438,0.07502235016921387,4.000026252809963,3.9332066443024836,-12.351983830633197,-12.365809077573644,0.39019660702877496,-0.7939975479829563
17.191404819488525,-0.9562997817993164,2.1580004692077637,-10.497526168823242,-0.010619535217294591,0.0026268959045410156,0.11801528930664062,3.962439580593527,-12.323916633967562,-0.21428940729528576,0.7165197590738007,0.7655851596555694,0.5549693591343339,0.08814424211699991,4.011117454944272,3.920275139318032,-12.339637926536806,-12.361727779665438,0.39019660702877496,-0.7939975479829563
17.307833194732666,-0.9562997817993164,2.1580004692077637,-10.497526168823242,-0.010619535217294591,0.0043833255767822266,0.1073760986328125,3.9606900351856478,-12.31071567726151,-0.23428940729528577,0.7113710766654444,0.174203069806882,0.5631468790939439,0.1003202263166416,4.024967098154149,3.9041724655245673,-12.323871289454619,-12.358216891760197,0.39019660702877496,-0.7939975479829563
17.321537256240845,-0.9389959573745728,1.787687063217163,-10.182039260864258,-0.04876153424230362,0.002248525619506836,0.1073760986328125,3.9586484793161434,-12.29608207363226,-0.25428940729528576,0.7240926325516845,0.2935314030330584,0.6342028153657607,0.1026628119340351,4.042461450758399,3.883963476693218,-12.303838541927924,-12.356125174265534,0.38066762663934567,-1.0787216104217134
17.33120346069336,-0.9348629713058472,1.7656742334365845,-10.162520408630371,-0.04964255203728768,0.002262592315673828,0.1073760986328125,3.956290850782256,-12.280006765664107,-0.2742894072952858,0.7243635740130921,0.24786115036331302,0.6622230598335593,0.12938515989940536,4.064958222468851,3.858241358251276,-12.27828455455031,-12.35670502677532,0.38066762663934567,-1.0787216104217134
17.341445207595825,-0.930540144443512,1.7437742948532104,-10.142988204956055,-0.05041523694518662,0.002938508987426758,0.1073760986328125,3.953593594677402,-12.262477624380914,-0.2942894072952858,0.7246380384118732,0.20072802802573303,0.6752572778574762,0.14864381495411294,4.09454512950563,3.8248694149955935,-12.245340351369057,-12.361816549167088,0.38066762663934567,-1.0787216104217134
17.35103940963745,-0.9260302186012268,1.7219913005828857,-10.123442649841309,-0.05108121658788672,0.0025742053985595703,0.1073760986328125,3.9505338410545163,-12.243479467199043,-0.3142894072952858,0.7249009452003428,0.1532570474099761,0.6819065685856567,0.1598647762941376,4.1344335743761755,3.780587746200755,-12.2021560521908,-12.374294585657507,0.38066762663934567,-1.0787216104217134
17.361379861831665,-0.9164097309112549,1.6787875890731812,-10.084309577941895,-0.05208945196986706,0.002364635467529297,0.1073760986328125,3.9470895817544114,-12.222994085684283,-0.33428940729528583,0.7259347810253187,0.10878770456354708,0.684581816511399,0.16879291045378406,4.189532533203513,3.7204397141548444,-12.14429639584055,-12.398553207773592,0.38066762663934567,-1.0787216104217134
17.371191263198853,-0.9113281965255737,1.65737783908844,-10.064732551574707,-0.05242096434635839,0.0022881031036376953,0.1073760986328125,3.9432398458861915,-12.201000283007861,-0.35428940729528585,0.7261555837406543,0.06578522936127762,0.684754301965455,0.17217714044279533,4.267210054403327,3.6370108012527647,-12.064727143979878,-12.441599336576028,0.38066762663934567,-1.0787216104217134
17.38109803199768,-0.9060698747634888,1.6361002922058105,-10.045149803161621,-0.0526387049602823,0.0020935535430908203,0.1073760986328125,3.9389648734586733,-12.177473920968298,-0.37428940729528587,0.7263752359293969,0.024866047744308395,0.6828154160083052,0.17266517009730273,4.378097736985907,3.519624486315593,-11.95218193788499,-12.514665931613544,0.45991166145016393,-0.8428169000750934
17.391312837600708,-0.9006381630897522,1.6149578094482422,-10.025561332702637,-0.05274585157448667,0.002780914306640625,0.1073760986328125,3.934246286675239,-12.152387976418948,-0.3942894072952859,0.726592835170512,-0.014091242783401181,0.6791073929027074,0.17129512910446892,4.536371387486168,3.3540619400961686,-11.78887038085817,-12.635503973754254,0.45991166145016393,-0.8428169000750934
17.401116609573364,-0.8892682790756226,1.5730875730514526,-9.986361503601074,-0.052654233817806435,0.002620220184326172,0.1073760986328125,3.9645697818393573,-12.341044090607408,-0.18428940729528573,0.7275819720042271,-0.0411556741849437,0.66973577211242,0.1714346718215759,3.991113044816208,3.94359572869079,-12.361488312700741,-12.369872032108058,0.45991166145016393,-0.8428169000750934
17.41130566596985,-0.8833372592926025,1.5523639917373657,-9.966753005981445,-0.05247179249790434,0.002499818801879883,0.1073760986328125,3.9632124637258075,-12.32998185809673,-0.20428940729528575,0.7277940010696456,-0.07545477321777316,0.6615294990242203,0.16866962123535928,4.000026252809963,3.9332066443024836,-12.351983830633197,-12.365809077573644,0.45991166145016393,-0.8428169000750934
17.421173572540283,-0.8772488236427307,1.531786322593689,-9.94714069366455,-0.05220794908632649,0.0028944015502929688,0.1073760986328125,3.961599790360063,-12.317494790662817,-0.22428940729528576,0.7280054629535426,-0.10811681407238022,0.6531186351573602,0.1641722863894651,4.011117454944272,3.920275139318032,-12.339637926536806,-12.361727779665438,0.45991166145016393,-0.8428169000750934
17.541048049926758,-0.7568598389625549,1.24038565158844,-9.640134811401367,-0.038579249594962825,0.0026857852935791016,0.10964250564575195,3.9597072722506117,-12.303578450268075,-0.24428940729528578,0.7327279468011366,-0.22213630177057647,0.5483090534606702,0.17548332801311048,4.024967098154149,3.9041724655245673,-12.323871289454619,-12.358216891760197,0.45991166145016393,-0.8428169000750934
17.551060438156128,-0.7478642463684082,1.2221733331680298,-9.619686126708984,-0.037338539967762555,0.0032095909118652344,0.10964250564575195,3.957510660288465,-12.288225318924155,-0.26428940729528577,0.7330014977792129,-0.23756268166319228,0.5046981078923308,0.13981989702774772,4.042461450758399,3.883963476693218,-12.303838541927924,-12.356125174265534,0.4623776163114374,-0.7309050959290051
17.56122660636902,-0.7387861609458923,1.2041120529174805,-9.59925365447998,-0.03607489435591994,0.002570629119873047,0.10964250564575195,3.954986123679179,-12.271424801807072,-0.2842894072952858,0.7332683191880237,-0.2529269690743913,0.47893068583048193,0.11390789427149631,4.064958222468851,3.858241358251276,-12.27828455455031,-12.35670502677532,0.4623776163114374,-0.7309050959290051
17.571399211883545,-0.7289272546768188,1.186851978302002,-9.578218460083008,-0.03479056439255408,0.002482891082763672,0.10964250564575195,3.9521104278280457,-12.253163240277953,-0.3042894072952858,0.7335834432454728,-0.2716314863015286,0.4604261397478969,0.09605457935336831,4.09454512950563,3.8248694149955935,-12.245340351369057,-12.361816549167088,0.4623776163114374,-0.7309050959290051
17.581087827682495,-0.7090150117874146,1.1527535915374756,-9.5362548828125,-0.031788996564747735,0.002317190170288086,0.10964250564575195,3.94886111165075,-12.233423934749267,-0.3242894072952858,0.734654369164945,-0.2682357220935909,0.43627782147379873,0.08244171282134352,4.1344335743761755,3.780587746200755,-12.2021560521908,-12.374294585657507,0.44907462066036313,-0.6811636681275327
17.591362953186035,-0.6989686489105225,1.1359151601791382,-9.515329360961914,-0.0303059956696035,0.002669811248779297,0.10964250564575195,3.945216663791168,-12.21218717730621,-0.34428940729528584,0.7349004548065184,-0.2859033054826075,0.41952162128225723,0.07267702271587638,4.189532533203513,3.7204397141548444,-12.14429639584055,-12.398553207773592,0.44907462066036313,-0.6811636681275327
17.601075172424316,-0.6787124276161194,1.102658748626709,-9.47359561920166,-0.02743740131319379,0.0024137496948242188,0.10964250564575195,3.9411566972391086,-12.18943029396401,-0.36428940729528586,0.7358653451325947,-0.27818075560936056,0.39868778842084535,0.06269497425013715,4.267210054403327,3.6370108012527647,-12.064727143979878,-12.441599336576028,0.44907462066036313,-0.6811636681275327
17.611332893371582,-0.6685094237327576,1.086239218711853,-9.452787399291992,-0.026064662987223583,0.0024874210357666016,0.10964250564575195,3.936662121853498,-12.165127696414268,-0.3842894072952859,0.7360688422540754,-0.29262378397905103,0.3848860615785871,0.05533349688211568,4.378097736985907,3.519624486315593,-11.95218193788499,-12.514665931613544,0.44907462066036313,-0.6811636681275327
17.6213276386261,-0.6582608222961426,1.0699573755264282,-9.432019233703613,-0.02473090021161302,0.003019571304321289,0.10964250564575195,3.9317153143107038,-12.139250943087271,-0.4042894072952859,0.7362602678233087,-0.30598713696010527,0.3738068768669087,0.047939073135751895,4.536371387486168,3.3540619400961686,-11.78887038085817,-12.635503973754254,0.44907462066036313,-0.6811636681275327
17.631192684173584,-0.6479697227478027,1.0538123846054077,-9.411291122436523,-0.02343582352787106,0.0023124217987060547,0.10964250564575195,3.963921507063628,-12.335690921532173,-0.19428940729528574,0.7364417996330874,-0.31846333502261914,0.3639847331545609,0.040926742497480836,3.991113044816208,3.94359572869079,-12.361488312700741,-12.369872032108058,0.44907462066036313,-0.6811636681275327
17.641305923461914,-0.6272643804550171,1.0219614505767822,-9.369952201843262,-0.020957879702363583,0.002597332000732422,0.10964250564575195,3.962439580593527,-12.323916633967562,-0.21428940729528576,0.7373056076131518,-0.3015587101440616,0.3495907933202501,0.03277188369731238,4.000026252809963,3.9332066443024836,-12.351983830633197,-12.365809077573644,0.44907462066036313,-0.6811636681275327
17.651126623153687,-0.6168593168258667,1.0062357187271118,-9.349339485168457,-0.019773293926117277,0.002329111099243164,0.10964250564575195,3.9606900351856478,-12.31071567726151,-0.23428940729528577,0.7374589557249911,-0.31141715063480446,0.33977466226970526,0.027786363252914684,4.011117454944272,3.920275139318032,-12.339637926536806,-12.361727779665438,0.44907462066036313,-0.6811636681275327
17.779708862304688,-0.6168593168258667,1.0062357187271118,-9.349339485168457,-0.019773293926117277,0.0023450851440429688,0.12056326866149902,3.9586484793161434,-12.29608207363226,-0.25428940729528576,0.7279932247791114,-0.6423355797691461,0.3367311816143006,0.023831332043507084,4.024967098154149,3.9041724655245673,-12.323871289454619,-12.358216891760197,0.44907462066036313,-0.6811636681275327
17.789013624191284,-0.42862439155578613,0.7634296417236328,-8.996042251586914,-0.0017603985080821422,0.002226114273071289,0.12056326866149902,3.956290850782256,-12.280006765664107,-0.2742894072952858,0.7389674012036686,-0.11108193735360433,0.25857518139172925,-0.06102274805055548,4.042461450758399,3.883963476693218,-12.303838541927924,-12.356125174265534,0.531522043889146,-1.1894179995507588
17.79590678215027,-0.42862439155578613,0.7634296417236328,-8.996042251586914,-0.0017603985080821422,0.0023856163024902344,0.12056326866149902,3.953593594677402,-12.262477624380914,-0.2942894072952858,0.7384251113205348,-0.14707522898338166,0.24584765892051064,-0.03730279136418707,4.064958222468851,3.858241358251276,-12.27828455455031,-12.35670502677532,0.531522043889146,-1.1894179995507588
17.801839351654053,-0.42862439155578613,0.7634296417236328,-8.996042251586914,-0.0017603985080821422,0.0024154186248779297,0.12056326866149902,3.9505338410545163,-12.243479467199043,-0.3142894072952858,0.7378789327825187,-0.18293813996611952,0.24257017276622816,-0.02843597023642362,4.09454512950563,3.8248694149955935,-12.245340351369057,-12.361816549167088,0.531522043889146,-1.1894179995507588
17.811243057250977,-0.39525729417800903,0.7245705723762512,-8.934240341186523,0.0008809390933968569,0.0024716854095458984,0.12056326866149902,3.9470895817544114,-12.222994085684283,-0.33428940729528583,0.7392642979029784,-0.10439529167871325,0.22813761450017228,-0.03105807864577905,4.1344335743761755,3.780587746200755,-12.2021560521908,-12.374294585657507,0.531522043889146,-1.1894179995507588
17.82108449935913,-0.39525729417800903,0.7245705723762512,-8.934240341186523,0.0008809390933968569,0.003025531768798828,0.12056326866149902,3.9432398458861915,-12.201000283007861,-0.35428940729528585,0.7387125783608436,-0.13998488378341067,0.22438046090049535,-0.027408597258777666,4.189532533203513,3.7204397141548444,-12.14429639584055,-12.398553207773592,0.531522043889146,-1.1894179995507588
17.831166982650757,-0.37343695759773254,0.6997729539871216,-8.892768859863281,0.0026092313133353057,0.0023565292358398438,0.12056326866149902,3.9389648734586733,-12.177473920968298,-0.37428940729528587,0.7393985514293019,-0.09972136277950727,0.21410118387836088,-0.030513711864671812,4.267210054403327,3.6370108012527647,-12.064727143979878,-12.441599336576028,0.531522043889146,-1.1894179995507588
17.84128737449646,-0.37343695759773254,0.6997729539871216,-8.892768859863281,0.0026092313133353057,0.0027756690979003906,0.12056326866149902,3.934246286675239,-12.152387976418948,-0.3942894072952859,0.7388417562752582,-0.13502383958116881,0.2114482726516833,-0.02973922035882247,4.378097736985907,3.519624486315593,-11.95218193788499,-12.514665931613544,0.531522043889146,-1.1894179995507588
17.85104727745056,-0.35166487097740173,0.6752840280532837,-8.851526260375977,0.004185852221296131,0.0020956993103027344,0.12056326866149902,3.92906725841941,-12.125712606915586,-0.4142894072952859,0.7395071523743676,-0.09625198485442721,0.20261764853619296,-0.03384576932830707,4.536371387486168,3.3540619400961686,-11.78887038085817,-12.635503973754254,0.531522043889146,-1.1894179995507588
17.8612699508667,-0.35166487097740173,0.6752840280532837,-8.851526260375977,0.004185852221296131,0.002544879913330078,0.12056326866149902,3.9632124637258075,-12.32998185809673,-0.20428940729528575,0.7389461041586505,-0.1312564842962865,0.20041167869750678,-0.03366159340048015,3.991113044816208,3.94359572869079,-12.361488312700741,-12.369872032108058,0.531522043889146,-1.1894179995507588
17.87131667137146,-0.31912925839424133,0.6390946507453918,-8.790078163146973,0.006286864674399477,0.0025184154510498047,0.12056326866149902,3.961599790360063,-12.317494790662817,-0.22428940729528576,0.7401910293863573,-0.0602250606845606,0.18990116073568516,-0.03880910261129498,4.000026252809963,3.9332066443024836,-12.351983830633197,-12.365809077573644,0.531522043889146,-1.1894179995507588
17.989598035812378,-0.16649697721004486,0.48282337188720703,-8.506284713745117,0.013059801998031799,0.002557039260864258,0.10705733299255371,3.9597072722506117,-12.303578450268075,-0.24428940729528578,0.7408480616848316,0.10286901934704129,0.15578763044716148,-0.04815371880847001,4.011117454944272,3.920275139318032,-12.339637926536806,-12.361727779665438,0.4350683739775495,-1.013357156217508
17.996572256088257,-0.16649697721004486,0.48282337188720703,-8.506284713745117,0.013059801998031799,0.0023927688598632812,0.10705733299255371,3.957510660288465,-12.288225318924155,-0.26428940729528577,0.7402772492484111,0.07041990700941192,0.14821658085600123,-0.0430940001063569,4.024967098154149,3.9041724655245673,-12.323871289454619,-12.358216891760197,0.4350683739775495,-1.013357156217508
18.002262115478516,-0.16649697721004486,0.48282337188720703,-8.506284713745117,0.013059801998031799,0.002928495407104492,0.10705733299255371,3.954986123679179,-12.271424801807072,-0.2842894072952858,0.7397050852564677,0.03811075281480203,0.1464189387030828,-0.04235922083773769,4.042461450758399,3.883963476693218,-12.303838541927924,-12.356125174265534,0.4350683739775495,-1.013357156217508
18.011343717575073,-0.14458100497722626,0.46223923563957214,-8.466010093688965,0.013788871182311004,0.0024957656860351562,0.10705733299255371,3.9521104278280457,-12.253163240277953,-0.3042894072952858,0.7403073828735854,0.05884220878627333,0.14161157784684117,-0.04395789441369817,4.064958222468851,3.858241358251276,-12.27828455455031,-12.35670502677532,0.4350683739775495,-1.013357156217508
18.021127939224243,-0.13369828462600708,0.4520019590854645,-8.445955276489258,0.014121700359723464,0.0024738311767578125,0.10705733299255371,3.94886111165075,-12.233423934749267,-0.3242894072952858,0.7403172913878074,0.053403096971249286,0.13830789041163621,-0.04416982946924233,4.09454512950563,3.8248694149955935,-12.245340351369057,-12.361816549167088,0.4350683739775495,-1.013357156217508
18.031217575073242,-0.1120852530002594,0.43163445591926575,-8.40600299835205,0.014727895809363897,0.0023326873779296875,0.10705733299255371,3.945216663791168,-12.21218717730621,-0.34428940729528584,0.740878802635009,0.07392354096238829,0.13292234934297323,-0.04490276636395136,4.1344335743761755,3.780587746200755,-12.2021560521908,-12.374294585657507,0.4350683739775495,-1.013357156217508
18.041240692138672,-0.10135574638843536,0.42150363326072693,-8.386104583740234,0.015000467737264541,0.002769947052001953,0.10705733299255371,3.9411566972391086,-12.18943029396401,-0.36428940729528586,0.7408668438132405,0.06734641359029891,0.12957043748344896,-0.04461493202603043,4.189532533203513,3.7204397141548444,-12.14429639584055,-12.398553207773592,0.4350683739775495,-1.013357156217508
18.051146030426025,-0.08005216717720032,0.4013465642929077,-8.34645938873291,0.015484308160438963,0.0030319690704345703,0.10705733299255371,3.936662121853498,-12.165127696414268,-0.3842894072952859,0.7414200756052687,0.08362723777643352,0.124789442415008,-0.04491006587018049,4.267210054403327,3.6370108012527647,-12.064727143979878,-12.441599336576028,0.4350683739775495,-1.013357156217508
18.061278820037842,-0.0694800317287445,0.39131292700767517,-8.32671070098877,0.015697349091160693,0.0023512840270996094,0.10705733299255371,3.9317153143107038,-12.139250943087271,-0.4042894072952859,0.7414052660376449,0.07516084357378075,0.12199337641591648,-0.0445350741782173,4.378097736985907,3.519624486315593,-11.95218193788499,-12.514665931613544,0.4350683739775495,-1.013357156217508
18.07120990753174,-0.058960091322660446,0.3813141882419586,-8.307010650634766,0.01589314206309477,0.002377748489379883,0.10705733299255371,3.9263002850131974,-12.111768809332386,-0.4242894072952859,0.7413876539764365,0.06627116365505059,0.119732544462416,-0.0447216480144862,4.536371387486168,3.3540619400961686,-11.78887038085817,-12.635503973754254,0.4350683739775495,-1.013357156217508
18.0810604095459,-0.048269305378198624,0.37117302417755127,-8.287161827087402,0.016072315120342955,0.002241849899291992,0.10705733299255371,3.964085319599024,-12.411278059606088,-0.1623014089353932,0.7413719618751631,0.058240756798011495,0.11779519625125287,-0.04519315460414939,4.0042474533553305,3.9252393287820384,-12.407559102681502,-12.425132068308068,0.36649569274563254,-1.010840288858449
18.091238737106323,-0.02706572599709034,0.3510016202926636,-8.2476167678833,0.016300770424488194,0.002619028091430664,0.10705733299255371,3.962636436600154,-12.400083079056705,-0.1823014089353932,0.7419085799884554,0.07190047250135664,0.11459659890035262,-0.04569287267065458,4.016542782163188,3.9102253000353233,-12.39196317557348,-12.419751011180642,0.36649569274563254,-1.010840288858449
18.101109266281128,-0.016552792862057686,0.34097179770469666,-8.22791862487793,0.016391836796481426,0.002509593963623047,0.10705733299255371,3.9609897114913992,-12.3874765158839,-0.20230140893539322,0.7418843694405376,0.06267899995751636,0.1126565902893366,-0.045429934716717676,4.032137925883004,3.8915408212859726,-12.37252324885358,-12.41538918554004,0.36649569274563254,-1.010840288858449
18.22151517868042,-0.016552792862057686,0.34097179770469666,-8.22791862487793,0.016391836796481426,0.0025305747985839844,0.11085653305053711,3.9591200208069735,-12.373457661396525,-0.22230140893539324,0.7363032728812202,-0.11968106922581262,0.11308421144205433,-0.045767074518099055,4.0521715036532875,3.867997110837864,-12.3481714148223,-12.413116165430234,0.36649569274563254,-1.010840288858449
18.230965614318848,0.1393497735261917,0.18780936300754547,-7.917712688446045,0.015875080846374498,0.0020372867584228516,0.11085653305053711,3.9570022897755246,-12.358022711578172,-0.24230140893539326,0.7444446613006973,0.1503785266027325,0.0875062636558537,-0.0512426804968387,4.078388482972006,3.837798958501588,-12.317328645918307,-12.414506468741443,0.36260444968796446,-1.2302437720428643
18.24135422706604,0.14805804193019867,0.17883676290512085,-7.898524761199951,0.015746084319279336,0.002681255340576172,0.11085653305053711,3.9546116705564183,-12.341164759925007,-0.2623014089353933,0.7444272032851268,0.13745655176958596,0.08127164280815032,-0.042013395250505674,4.113470445764665,3.7982148150927615,-12.27760536769519,-12.421938959944352,0.36260444968796446,-1.2302437720428643
18.251161098480225,0.16534587740898132,0.16099005937576294,-7.860280990600586,0.015465525852438645,0.003301858901977539,0.11085653305053711,3.9519237209761977,-12.322873800247265,-0.2823014089353933,0.7449592676857081,0.1401427397097864,0.07514189953020874,-0.03699147542447067,4.161529539204356,3.745083198719637,-12.225313224326994,-12.439085080226947,0.36260444968796446,-1.2302437720428643
18.261373043060303,0.173924520611763,0.1521173119544983,-7.8412251472473145,0.015310736420161286,0.0024847984313964844,0.11085653305053711,3.9489145832287016,-12.303136739406149,-0.3023014089353933,0.7449342970012142,0.127516167339536,0.07155187298513425,-0.03421475946607092,4.228798799084467,3.6721227289802525,-12.154646158684194,-12.47172778296798,0.36260444968796446,-1.2302437720428643
18.271326065063477,0.1824573129415512,0.143280491232872,-7.8222126960754395,0.015148633585773844,0.002923727035522461,0.11085653305053711,3.9455611620098323,-12.281937419926539,-0.32230140893539333,0.7448915850850124,0.11487825881108074,0.06852294248322807,-0.03280108978006691,4.324464171829464,3.570100461917702,-12.056329938915171,-12.52911204252382,0.36260444968796446,-1.2302437720428643
18.281047344207764,0.19094498455524445,0.13447865843772888,-7.803246021270752,0.014982444147682628,0.0020999908447265625,0.11085653305053711,3.941841301567318,-12.259256652395653,-0.34230140893539335,0.7448392783251677,0.10187715847704602,0.06573402454060921,-0.032022517343156455,4.461295082105213,3.42620167772295,-11.915574660200761,-12.625992407511447,0.32264631423121504,-1.0440398504837236
18.29121971130371,0.20778262615203857,0.11698252707719803,-7.765446186065674,0.014631466569359524,0.002285480499267578,0.11085653305053711,3.937733961156894,-12.235072257528815,-0.36230140893539337,0.7452883717441169,0.10166921019495473,0.061127169586081574,-0.03102002554137869,4.6559619285381135,3.2237127376472703,-11.709712249233284,-12.784995570827075,0.32264631423121504,-1.0440398504837236
18.301238775253296,0.21613165736198425,0.10828971117734909,-7.746613502502441,0.014446460876205783,0.002309083938598633,0.11085653305053711,3.9332193884090247,-12.209359117755751,-0.3823014089353934,0.7452277216295397,0.08649423886389468,0.05852312315112882,-0.030243029786402885,4.9344656039787305,2.936591912683785,-11.40757698370313,-13.037239943851635,0.32264631423121504,-1.0440398504837236
18.31135082244873,0.22443364560604095,0.09963471442461014,-7.727823734283447,0.01425798310910767,0.002569913864135742,0.11085653305053711,3.963384041099256,-12.405857093377062,-0.1723014089353932,0.7451654428774824,0.07086122797802084,0.056360302030944796,-0.02979903829407205,4.0042474533553305,3.9252393287820384,-12.407559102681502,-12.425132068308068,0.32264631423121504,-1.0440398504837236
18.321186304092407,0.23268824815750122,0.09101836383342743,-7.709076881408691,0.014064616242890876,0.003527402877807617,0.11085653305053711,3.9618393735844886,-12.393956217196811,-0.19230140893539321,0.7451028846937828,0.0548251627278029,0.05434129950055293,-0.0294944499396688,4.016542782163188,3.9102253000353233,-12.39196317557348,-12.419751011180642,0.32264631423121504,-1.0440398504837236
18.440174102783203,0.3414633572101593,-0.03589091822504997,-7.434062480926514,0.010465885790204861,0.0023834705352783203,0.10812592506408691,3.9600843072455763,-12.380643790126266,-0.21230140893539323,0.7467346784699047,0.03265511172017438,0.026249403417516578,-0.021980031727863177,4.032137925883004,3.8915408212859726,-12.37252324885358,-12.41538918554004,0.32264631423121504,-1.0440398504837236
18.448593616485596,0.3414633572101593,-0.03589091822504997,-7.434062480926514,0.010465885790204861,0.002997875213623047,0.10812592506408691,3.9580937207367977,-12.365917557329876,-0.23230140893539325,0.7461780645277253,0.007226455796923298,0.022365465029277404,-0.01978038432450579,4.0521715036532875,3.867997110837864,-12.3481714148223,-12.413116165430234,0.29347592971004605,-0.9778785181209402
18.457553386688232,0.35435426235198975,-0.051376644521951675,-7.397651672363281,0.009967695080928873,0.002493143081665039,0.10812592506408691,3.955842630428714,-12.349772163819773,-0.25230140893539327,0.7466402882702685,0.0002018697853968937,0.017498879838309618,-0.018009772699326056,4.078388482972006,3.837798958501588,-12.317328645918307,-12.414506468741443,0.29347592971004605,-0.9778785181209402
18.46522283554077,0.360284686088562,-0.058757733553647995,-7.37932825088501,0.009735263443101702,0.0024154186248779297,0.10812592506408691,3.953306368961998,-12.332199152276974,-0.2723014089353933,0.7466090797380281,-0.01730228930463136,0.014297066385875419,-0.01669582496867287,4.113470445764665,3.7982148150927615,-12.27760536769519,-12.421938959944352,0.29347592971004605,-0.9778785181209402
18.47170376777649,0.360284686088562,-0.058757733553647995,-7.37932825088501,0.009735263443101702,0.002835988998413086,0.10812592506408691,3.9504607640323615,-12.31318697082609,-0.2923014089353933,0.746052612227182,-0.04235697326196569,0.013882788270214736,-0.01614758093953815,4.161529539204356,3.745083198719637,-12.225313224326994,-12.439085080226947,0.29347592971004605,-0.9778785181209402
18.481019258499146,0.3720797598361969,-0.07339981943368912,-7.342804431915283,0.009274459835932496,0.002033233642578125,0.10812592506408691,3.9472823168735847,-12.2927209907195,-0.3123014089353933,0.7465390846316078,-0.05238540164620474,0.008751984891874183,-0.015066306388220922,4.228798799084467,3.6721227289802525,-12.154646158684194,-12.47172778296798,0.2838551937739097,-0.9941989925200684
18.491381883621216,0.38378533720970154,-0.08790258318185806,-7.30644416809082,0.008816311283503638,0.0024526119232177734,0.10812592506408691,3.943748379914083,-12.27078353385611,-0.33230140893539334,0.7469957774076189,-0.062085278534617705,0.0034384970442326644,-0.013602221882653469,4.324464171829464,3.570100461917702,-12.056329938915171,-12.52911204252382,0.2838551937739097,-0.9941989925200684
18.501121520996094,0.38960039615631104,-0.09508977085351944,-7.288326263427734,0.008584874864263202,0.002627134323120117,0.10812592506408691,3.9398373330926937,-12.247353910030185,-0.35230140893539336,0.7469414774494564,-0.07888853722060868,0.0007544534596522555,-0.012358296734937692,4.461295082105213,3.42620167772295,-11.915574660200761,-12.625992407511447,0.2838551937739097,-0.9941989925200684
18.51142382621765,0.39538928866386414,-0.10223311185836792,-7.2702460289001465,0.008353639361551028,0.002448558807373047,0.10812592506408691,3.9355287583312597,-12.222408463777386,-0.3723014089353934,0.7468869305568372,-0.09520776073791726,-0.0013693558123628647,-0.011315549006959406,4.6559619285381135,3.2237127376472703,-11.709712249233284,-12.784995570827075,0.2838551937739097,-0.9941989925200684
18.52108407020569,0.40115150809288025,-0.1093321293592453,-7.252206325531006,0.008119113746596414,0.0031082630157470703,0.10812592506408691,3.930803611675042,-12.195920630658078,-0.3923014089353934,0.7468308255049377,-0.1108056478540961,-0.0032260238084030495,-0.010386150440109265,4.9344656039787305,2.936591912683785,-11.40757698370313,-13.037239943851635,0.2838551937739097,-0.9941989925200684
18.531191110610962,0.40688633918762207,-0.11638642102479935,-7.234206199645996,0.007883881802329643,0.002192974090576172,0.10812592506408691,3.962636436600154,-12.400083079056705,-0.1823014089353932,0.7467733316241795,-0.12575337971479522,-0.004896916991024996,-0.009518699416076852,4.0042474533553305,3.9252393287820384,-12.407559102681502,-12.425132068308068,0.2838551937739097,-0.9941989925200684
18.541247367858887,0.4125930964946747,-0.12339548021554947,-7.216246128082275,0.00764905949682914,0.002642393112182617,0.10812592506408691,3.9609897114913992,-12.3874765158839,-0.20230140893539322,0.746713444560805,-0.14007284415026952,-0.006403826016014884,-0.008686722198237774,4.016542782163188,3.9102253000353233,-12.39196317557348,-12.419751011180642,0.2838551937739097,-0.9941989925200684
18.551281213760376,0.42392903566360474,-0.13727961480617523,-7.180442810058594,0.00718474736532506,0.0022478103637695312,0.10812592506408691,3.9591200208069735,-12.373457661396525,-0.22230140893539324,0.747142613969321,-0.1426818438509026,-0.008874156359757239,-0.007663114302086129,4.032137925883004,3.8915408212859726,-12.37252324885358,-12.41538918554004,0.2838551937739097,-0.9941989925200684
18.676900148391724,0.42392903566360474,-0.13727961480617523,-7.180442810058594,0.00718474736532506,0.003133058547973633,0.11337852478027344,3.9570022897755246,-12.358022711578172,-0.24230140893539326,0.7421239493926143,-0.27164526750140716,-0.00826590434862216,-0.006944577532833247,4.0521715036532875,3.867997110837864,-12.3481714148223,-12.413116165430234,0.2838551937739097,-0.9941989925200684
18.686561107635498,0.5032517313957214,-0.23656658828258514,-6.8899312019348145,0.004356275031181252,0.003345489501953125,0.11337852478027344,3.9546116705564183,-12.341164759925007,-0.2623014089353933,0.7497697452128976,-0.058004084166461634,-0.02349144324143902,-0.0047395065804878254,4.078388482972006,3.837798958501588,-12.317328645918307,-12.414506468741443,0.29652862644565353,-1.219049677754148
18.694295167922974,0.5032517313957214,-0.23656658828258514,-6.8899312019348145,0.004356275031181252,0.0024094581604003906,0.11337852478027344,3.9519237209761977,-12.322873800247265,-0.2823014089353933,0.7492214626648084,-0.07994552287757312,-0.02472190830174375,-0.0013744607623014415,4.113470445764665,3.7982148150927615,-12.27760536769519,-12.421938959944352,0.29652862644565353,-1.219049677754148
18.70127820968628,0.5170585513114929,-0.25362086296081543,-6.836150169372559,0.00396145460015896,0.00235748291015625,0.11337852478027344,3.9489145832287016,-12.303136739406149,-0.3023014089353933,0.75015691659185,-0.04726281363462867,-0.02714077673847946,0.0012019617388023334,4.161529539204356,3.745083198719637,-12.225313224326994,-12.439085080226947,0.29652862644565353,-1.219049677754148
18.711275577545166,0.5215156674385071,-0.2590118944644928,-6.818018913269043,0.0038527672554093395,0.0026013851165771484,0.11337852478027344,3.9455611620098323,-12.281937419926539,-0.32230140893539333,0.7501228119814236,-0.051051683891839006,-0.028249983505709002,0.002655800743901801,4.228798799084467,3.6721227289802525,-12.154646158684194,-12.47172778296798,0.29652862644565353,-1.219049677754148
