time,x,y,z,yaw,ctrl_comp_time,rollout_comptime,y_ref,z_ref,yaw_ref,throttle,roll_rate,pitch_rate,yaw_rate,save_tube_pyH,save_tube_pyL,save_tube_pzH,save_tube_pzL,wy,wz
15.011255502700806,0.016117876395583153,3.969914436340332,-12.329875946044922,0.0005777368745817357,0.17060256004333496,0.13053655624389648,3.9552813080286224,-12.305355616405683,-0.2826353418669121,0.5921313205507196,-1.0,0.017431837957837294,0.020414166261993313,3.9909459279364317,3.92360354033435,-12.29346183866205,-12.324048117803294,2.6692995259645964,0.15900999776073035
15.449102401733398,0.016117876395583153,3.969914436340332,-12.329875946044922,0.0005777368745817357,0.15621685981750488,0.13053655624389648,3.950894005096656,-12.29737783496022,-0.3026353418669121,0.5909485041899234,-1.0,0.04517534812619824,0.08991618536856422,3.9991347772047727,3.90717561071509,-12.279204139964241,-12.323923859117313,2.6692995259645964,0.15900999776073035
15.711582660675049,0.04887933284044266,3.952312469482422,-12.302868843078613,-0.0009002092173533149,0.0027883052825927734,0.11525678634643555,3.945957131587262,-12.287811782032257,-0.3226353418669121,0.5925729559310855,-0.9589922869322431,0.1520189479966328,0.32617585636452223,4.009993095528529,3.886997721900478,-12.260796837785074,-12.324792457807492,1.701126816012186,-7.1399485117502355
15.84929895401001,0.04887933284044266,3.952312469482422,-12.302868843078613,-0.0009002092173533149,0.002507925033569336,0.127608060836792,3.9404527718525992,-12.276635492186116,-0.34263534186691214,0.5916726009063654,-1.0,0.34641326359764296,0.5630879281822612,4.024561205868381,3.861992724837545,-12.237317111659396,-12.327535691727286,1.6897791870150907,-7.55368083041167
15.856750726699829,0.050448015332221985,3.9530718326568604,-12.295989036560059,0.0019549554462352098,0.0023899078369140625,0.127608060836792,3.9343641332414956,-12.26382414326922,-0.36263534186691215,0.6077865856457546,-0.791120205723534,0.4824892845183501,0.6815439640911307,4.044414033203747,3.8305509436712244,-12.207492249861156,-12.333379473710309,1.6897791870150907,-7.55368083041167
15.86336064338684,0.050448015332221985,3.9530718326568604,-12.295989036560059,0.0019549554462352098,0.002638578414916992,0.127608060836792,3.927675715312342,-12.249350106319318,-0.38263534186691217,0.6066208969436224,-0.8880249948585849,0.577742499162845,0.7407719820455654,4.071920854360201,3.790270766468507,-12.169523721694457,-12.344069869693424,1.6897791870150907,-7.55368083041167
15.871212005615234,0.04951613396406174,3.9533421993255615,-12.294163703918457,0.002413528680161675,0.002433300018310547,0.127608060836792,3.9203734765583684,-12.233183004743195,-0.4026353418669122,0.6071031837051448,-0.9414692572545905,0.6444197494139915,0.7703859910227826,4.110639777390214,3.737564501895236,-12.120398011526106,-12.362562373815253,1.6897791870150907,-7.55368083041167
15.880607604980469,0.047674983739852905,3.953831911087036,-12.290145874023438,0.003410332313334749,0.0024919509887695312,0.127608060836792,3.9124449981756935,-12.215289782573818,-0.4226353418669122,0.6092678565821262,-0.9453363307342421,0.6910938245897941,0.7851929955113914,4.165886726094639,3.6670897253033528,-12.055612748699062,-12.393295905989916,1.6897791870150907,-7.55368083041167
15.890113830566406,0.04676419869065285,3.954040288925171,-12.287994384765625,0.003970424295827196,0.002508878707885742,0.127608060836792,3.903879644421032,-12.195634781588767,-0.4426353418669122,0.609758938677958,-0.9979555429819522,0.7237656772128559,0.7925964977556959,4.245411998940313,3.5710730440501663,-11.968096349205641,-12.443273315666605,1.6897791870150907,-7.55368083041167
15.900048971176147,0.045858386904001236,3.954219102859497,-12.285725593566895,0.004583660427187747,0.0024645328521728516,0.127608060836792,3.8946687191236378,-12.17417982705016,-0.46263534186691224,0.6101302875341468,-1.0,0.7466359740489991,0.7962982488778478,4.359982042577877,3.4387286409567484,-11.846462205400316,-12.52380735503778,1.6897791870150907,-7.55368083041167
15.91026782989502,0.044056858867406845,3.9544665813446045,-12.280869483947754,0.005853189959990443,0.004790544509887695,0.127608060836792,3.884805617934761,-12.150884321805258,-0.48263534186691226,0.6118561834908699,-1.0,0.7626451818342993,0.798149124438924,4.5236204769759025,3.2560175580369686,-11.672448184554344,-12.65308136039278,1.6897791870150907,-7.55368083041167
15.921229362487793,0.04315856844186783,3.954526424407959,-12.278288841247559,0.0064589553048166465,0.0032820701599121094,0.127608060836792,3.874285975917537,-12.125705348467537,-0.5026353418669123,0.612102590666462,-1.0,0.7738516272840095,0.7990745622194622,4.7577958975319286,3.001460194322566,-11.418016976273474,-12.859049101054163,1.6897791870150907,-7.55368083041167
15.936506271362305,0.04315856844186783,3.954526424407959,-12.278288841247559,0.0064589553048166465,0.003609180450439453,0.127608060836792,3.9531551939599314,-12.301563999540774,-0.2926353418669121,0.6109374956762211,-1.0,0.7816961390988066,0.799537281109731,3.9909459279364317,3.92360354033435,-12.29346183866205,-12.324048117803294,1.7798836427469698,-2.618887451980937
15.946563482284546,0.041358061134815216,3.954498052597046,-12.272868156433105,0.007564466522217594,0.0025801658630371094,0.127608060836792,3.948495408714504,-12.29279464779628,-0.3126353418669121,0.6126052994465759,-1.0,0.7871872973691647,0.7997686405548654,3.9991347772047727,3.90717561071509,-12.279204139964241,-12.323923859117313,1.7798836427469698,-2.618887451980937
15.954433917999268,0.040450744330883026,3.954402208328247,-12.270025253295898,0.008065806764549877,0.0032050609588623047,0.127608060836792,3.943276965352964,-12.282426401693336,-0.3326353418669121,0.6128684109633036,-1.0,0.7910311081584153,0.7998843202774326,4.009993095528529,3.886997721900478,-12.260796837785074,-12.324792457807492,1.7798836427469698,-2.618887451980937
15.962079763412476,0.040450744330883026,3.954402208328247,-12.270025253295898,0.008065806764549877,0.0027017593383789062,0.127608060836792,3.9374824884374866,-12.270435861785726,-0.35263534186691214,0.611706832456282,-1.0,0.7937217757108908,0.7999421601387162,4.024561205868381,3.861992724837545,-12.237317111659396,-12.327535691727286,1.7798836427469698,-2.618887451980937
16.10073184967041,0.02544707991182804,3.943913698196411,-12.179621696472168,0.01642432826722795,0.002429962158203125,0.1287229061126709,3.9310958104143543,-12.256796795693935,-0.37263534186691216,0.6525729658182667,0.5862536218319478,0.5794008936289554,0.799971080069358,4.044414033203747,3.8305509436712244,-12.207492249861156,-12.333379473710309,1.7798836427469698,-2.618887451980937
16.110448122024536,0.02544707991182804,3.943913698196411,-12.179621696472168,0.01642432826722795,0.004549741744995117,0.1287229061126709,3.924102139642726,-12.241480192670675,-0.3926353418669122,0.651572540426108,0.4613670550585658,0.3369253868337748,0.799985540034679,4.071920854360201,3.790270766468507,-12.169523721694457,-12.344069869693424,2.002739772455878,-1.1247849541470778
16.121352434158325,0.02265777438879013,3.9377593994140625,-12.159123420715332,0.017815133448669945,0.0030736923217773438,0.1287229061126709,3.916488225698997,-12.224454327344485,-0.4126353418669122,0.6557581686326365,0.646090883545233,0.15139694002521534,0.7999927700173396,4.110639777390214,3.737564501895236,-12.120398011526106,-12.362562373815253,2.002739772455878,-1.1247849541470778
16.132798194885254,0.02265777438879013,3.9377593994140625,-12.159123420715332,0.017815133448669945,0.0021157264709472656,0.1287229061126709,3.908242521495241,-12.20568483243612,-0.4326353418669122,0.65477555070731,0.5145722276967906,0.0878646066717333,0.5340677395180966,4.165886726094639,3.6670897253033528,-12.055612748699062,-12.393295905989916,2.0354010341203335,-1.0222056920584794
16.14006996154785,0.020342309027910233,3.932931661605835,-12.144926071166992,0.01875310250281431,0.0027666091918945312,0.1287229061126709,3.899355341767314,-12.185134780219045,-0.45263534186691223,0.6572754496643923,0.5979491985254426,-0.1165234921590328,0.37879763053303994,4.245411998940313,3.5710730440501663,-11.968096349205641,-12.443273315666605,2.0354010341203335,-1.0222056920584794
16.149988651275635,0.019036371260881424,3.930281162261963,-12.137680053710938,0.019318548383628703,0.0025386810302734375,0.1287229061126709,3.8898190175064373,-12.16276477247356,-0.47263534186691225,0.657823814037317,0.5719460851094662,-0.2837885629903279,0.01872261753217573,4.359982042577877,3.4387286409567484,-11.846462205400316,-12.52380735503778,2.0354010341203335,-1.0222056920584794
16.160052061080933,0.016098178923130035,3.924426555633545,-12.122915267944336,0.021158744463292384,0.0026254653930664062,0.1287229061126709,3.8796280459272494,-12.138533038663814,-0.49263534186691227,0.6595789286086557,0.6431704744741242,-0.4386519940932296,-0.47301440189095506,4.5236204769759025,3.2560175580369686,-11.672448184554344,-12.65308136039278,2.0354010341203335,-1.0222056920584794
16.170022010803223,0.014455081894993782,3.9212191104888916,-12.115403175354004,0.02263722075001401,0.002128124237060547,0.1287229061126709,3.8687792355853445,-12.112395542048414,-0.5126353418669123,0.6599341045530486,0.5937203043077091,-0.5470563958652607,-0.6365072009454776,4.7577958975319286,3.001460194322566,-11.418016976273474,-12.859049101054163,2.0354010341203335,-1.0222056920584794
16.180352210998535,0.012691573239862919,3.9178197383880615,-12.107806205749512,0.024519120432840602,0.0027229785919189453,0.1287229061126709,3.957918309272887,-12.32221006960751,-0.26214445946513015,0.6602732295288604,0.5333757796141025,-0.6229394771056824,-0.7182536004727388,3.983441253387862,3.9356003317818207,-12.31496815061989,-12.335182517367787,2.0354010341203335,-1.0222056920584794
16.19006061553955,0.00879066251218319,3.910433769226074,-12.0924654006958,0.029471292821810324,0.002486705780029297,0.1287229061126709,3.9543342068467613,-12.315322795314263,-0.28214445946513017,0.6616749137098858,0.5430492780446257,-0.6760576339739777,-0.7591268002363695,3.9899539872927208,3.922426593028641,-12.303729232663855,-12.33419048947663,2.0354010341203335,-1.0222056920584794
16.200032234191895,0.0066480496898293495,3.9064409732818604,-12.08468246459961,0.03247527500024752,0.0023431777954101562,0.1287229061126709,3.9502279559462967,-12.306879517815869,-0.3021444594651302,0.6618301189486909,0.46316942486479196,-0.7132403437817844,-0.7795634001181847,3.9984809660337643,3.9062141824265617,-12.289024173022664,-12.333569376400288,2.0354010341203335,-1.0222056920584794
16.210153818130493,0.004373571369796991,3.902242660522461,-12.076837539672852,0.035785743045407076,0.004164695739746094,0.1287229061126709,3.9455802931019455,-12.296861255787805,-0.3221444594651302,0.6618795513433848,0.3789220324476048,-0.739268240647249,-0.7897817000590924,4.009712171859567,3.886233767714769,-12.270184966703543,-12.333952153811616,2.0354010341203335,-1.0222056920584794
16.35917067527771,0.004373571369796991,3.902242660522461,-12.076837539672852,0.035785743045407076,0.002360105514526367,0.1384272575378418,3.940372907569683,-12.285246119041668,-0.3421444594651302,0.675894622664776,-1.0,-0.7574877684530743,-0.7948908500295462,4.024696789785528,3.8613985465622354,-12.246284739325136,-12.336224815622112,2.0354010341203335,-1.0222056920584794
16.368975400924683,-0.06597023457288742,3.772213935852051,-11.897926330566406,0.10774222488329191,0.0036847591400146484,0.1384272575378418,3.934588612889272,-12.272009349123529,-0.36214445946513024,0.695026113674153,0.19966793099416957,-0.770241437917152,-0.7974454250147731,4.0450223188547225,3.8300854800601454,-12.216043393821021,-12.341620798918017,1.0730644005774828,-3.005772155332207
16.37756657600403,-0.06597023457288742,3.772213935852051,-11.897926330566406,0.10774222488329191,0.0035200119018554688,0.1384272575378418,3.9282115164332367,-12.257123369360485,-0.38214445946513026,0.6936535911221822,0.003814316864829692,-0.7791690065420065,-0.7987227125073866,4.073076081783842,3.789874124306247,-12.177643447717047,-12.351905237366468,1.0730644005774828,-3.005772155332207
16.386485815048218,-0.08239558339118958,3.743389368057251,-11.86707878112793,0.11458329026508504,0.0031702518463134766,0.1384272575378418,3.9212271864614934,-12.240557844187762,-0.4021444594651303,0.6955785934611081,0.021650477725886574,-0.7854183045794045,-0.7993613562536933,4.112444151776114,3.7371480403149726,-12.128037215198901,-12.37006788856678,1.0730644005774828,-3.005772155332207
16.395408391952515,-0.08239558339118958,3.743389368057251,-11.86707878112793,0.11458329026508504,0.0034236907958984375,0.1384272575378418,3.913622816211784,-12.222279747563086,-0.4221444594651303,0.6949013052113122,-0.1880362567655275,-0.7897928132055831,-0.7996806781268467,4.168484746462201,3.6665217313370553,-12.062674926197149,-12.400595142758274,1.0730644005774828,-3.005772155332207
16.404244899749756,-0.08794437348842621,3.7334930896759033,-11.856745719909668,0.1166307014045071,0.004471302032470703,0.1384272575378418,3.905387384572583,-12.202253440250887,-0.4421444594651303,0.694956301547933,-0.3193757963672198,-0.7928549692439082,-0.7998403390634234,4.249008943406493,3.5701602522277476,-11.974396727856126,-12.450578167107235,1.0730644005774828,-3.005772155332207
16.41458511352539,-0.08794437348842621,3.7334930896759033,-11.856745719909668,0.1166307014045071,0.0030465126037597656,0.1384272575378418,3.8965118129028298,-12.180440755736297,-0.46214445946513033,0.6943557329780743,-0.5368789217249477,-0.7949984784707358,-0.7999201695317117,4.364861529995616,3.4371986771575758,-11.85166951190605,-12.531476241595717,1.0730644005774828,-3.005772155332207
16.42295813560486,-0.09913885593414307,3.7132561206817627,-11.83603286743164,0.12044464508261027,0.003787517547607422,0.1384272575378418,3.88698911758158,-12.15680109450782,-0.48214445946513035,0.6948317541078293,-0.5776452382747153,-0.7964989349295151,-0.7999600847658559,4.530179226170348,3.253484186351613,-11.676006750043774,-12.661697103905226,1.0730644005774828,-3.005772155332207
16.433467864990234,-0.09913885593414307,3.7132561206817627,-11.83603286743164,0.12044464508261027,0.0027523040771484375,0.1384272575378418,3.9393939455112936,-12.292766824655722,-0.2710571736707212,0.6942341617742215,-0.8024285375322808,-0.7975492544506606,-0.799980042382928,3.9696032625323117,3.9125255044706764,-12.283564828114475,-12.308340043660179,1.745597698600454,-2.6613821236514505
16.44153356552124,-0.11044704914093018,3.6924288272857666,-11.815281867980957,0.12384447730651829,0.0029230117797851562,0.1384272575378418,3.9356661774384465,-12.285236096650582,-0.2910571736707212,0.6946046221452479,-0.840912472823939,-0.7982844781154624,-0.799990021191464,3.977151734712511,3.8980390196704016,-12.270826404166161,-12.307564409985403,1.745597698600454,-2.6613821236514505
16.450120210647583,-0.12183766812086105,3.671011447906494,-11.794597625732422,0.12674172096507597,0.0030961036682128906,0.1384272575378418,3.931406126278356,-12.276144532115104,-0.3110571736707212,0.6949060810464969,-0.8765761250517357,-0.7987991346808238,-0.7999950105957321,3.987012949664804,3.880194837287585,-12.254329116909554,-12.307444128839593,1.745597698600454,-2.6613821236514505
16.46009373664856,-0.12755070626735687,3.660078525543213,-11.784239768981934,0.12802106762417526,0.0032613277435302734,0.1384272575378418,3.9265948472136367,-12.265471775823293,-0.33105717367072124,0.6947570929870709,-1.0,-0.7991593942765767,-0.7999975052978661,4.000033761670707,3.858107310271832,-12.233289039168438,-12.308725338120901,1.745597698600454,-2.6613821236514505
16.470032453536987,-0.13986842334270477,3.6359989643096924,-11.76286506652832,0.1303334890620285,0.002592802047729492,0.1384272575378418,3.9212144277271,-12.253194579140123,-0.35105717367072126,0.6949611054371926,-1.0,-0.7994115759936037,-0.799998752648933,4.017499050380163,3.8304546587178203,-12.206619506794143,-12.312451088065147,1.745597698600454,-2.6613821236514505
16.611077308654785,-0.24020728468894958,3.4058258533477783,-11.578498840332031,0.14148951532415038,0.0033118724822998047,0.13017582893371582,3.915248158321988,-12.239286844965637,-0.3710571736707213,0.6842027893996159,1.0,-0.5278851742608222,-0.031798078335770405,4.041348215389499,3.7952628185913646,-12.172830403186701,-12.320062137121875,1.745597698600454,-2.6613821236514505
16.62223243713379,-0.24020728468894958,3.4058258533477783,-11.578498840332031,0.14148951532415038,0.003908395767211914,0.13017582893371582,3.9086807010109372,-12.223719682051941,-0.3910571736707213,0.6842749305609797,1.0,-0.4178114250587657,-0.33512631092766887,4.074493315359385,3.749587641942051,-12.129558785312538,-12.333866425239357,1.5041240072845845,-3.047116724241734
16.631449222564697,-0.25661700963974,3.3584418296813965,-11.543904304504395,0.14252684102147398,0.0032253265380859375,0.13017582893371582,3.9014982550955684,-12.206461468513774,-0.4110571736707213,0.6844521591811362,1.0,-0.3500361372009697,-0.4160492936902752,4.121310511226493,3.6890237880777406,-12.073089498648743,-12.357518576795911,1.5041240072845845,-3.047116724241734
16.64027237892151,-0.26188161969184875,3.342280387878418,-11.532333374023438,0.14289927128187635,0.0037436485290527344,0.13017582893371582,3.8936887197744157,-12.187477924328318,-0.4310571736707213,0.6841706691974637,1.0,-0.3057415881374827,-0.4258464066345148,4.188274612873553,3.6070705053955368,-11.997766884700864,-12.396608329146563,1.5041240072845845,-3.047116724241734
16.650039672851562,-0.267037570476532,3.325922966003418,-11.520711898803711,0.14334266144547847,0.0030851364135742188,0.13017582893371582,3.8852418531339503,-12.166732192596522,-0.45105717367072135,0.6838763210684413,1.0,-0.2656280898567769,-0.4082987555885727,4.2846423671830305,3.4944486650361393,-11.894546042168864,-12.460109425277974,1.5041240072845845,-3.047116724241734
16.660090923309326,-0.27207931876182556,3.309360980987549,-11.509042739868164,0.14375265583924185,0.003069162368774414,0.13017582893371582,3.876149427095617,-12.14418492931629,-0.47105717367072136,0.683613397917372,1.0,-0.2258998943073595,-0.37970328393507036,4.422765187614635,3.338788345348826,-11.74883281678068,-12.562539795074416,1.5041240072845845,-3.047116724241734
16.671026706695557,-0.27207931876182556,3.309360980987549,-11.509042739868164,0.14375265583924185,0.0043544769287109375,0.13017582893371582,3.866405377910948,-12.119794401397593,-0.4910571736707214,0.6832234127172496,1.0,-0.20579915588082706,-0.35730454983190657,4.619692964301592,3.1230253273368493,-11.53762484430681,-12.726820700161381,1.5041240072845845,-3.047116724241734
16.68284034729004,-0.281803160905838,3.2756118774414062,-11.485539436340332,0.14400682908403462,0.0030486583709716797,0.13017582893371582,3.9375953771914562,-12.289195407075786,-0.2810571736707212,0.6833635243493745,1.0,-0.1587642462956271,-0.3229321893325899,3.9696032625323117,3.9125255044706764,-12.283564828114475,-12.308340043660179,1.5041240072845845,-3.047116724241734
16.690641164779663,-0.281803160905838,3.2756118774414062,-11.485539436340332,0.14400682908403462,0.003753185272216797,0.13017582893371582,3.9336038934761945,-12.28088662287458,-0.3010571736707212,0.6829902192739339,1.0,-0.13515679747731876,-0.2983247624943018,3.977151734712511,3.8980390196704016,-12.270826404166161,-12.307564409985403,1.5041240072845845,-3.047116724241734
16.70019841194153,-0.2954472601413727,3.22343111038208,-11.449884414672852,0.14223231383688265,0.0030083656311035156,0.13017582893371582,3.92907053597127,-12.271007188644676,-0.32105717367072123,0.6838628585429777,1.0,-0.07850186898236344,-0.2594822235909657,3.987012949664804,3.880194837287585,-12.254329116909554,-12.307444128839593,1.5041240072845845,-3.047116724241734
16.71021580696106,-0.2954472601413727,3.22343111038208,-11.449884414672852,0.14223231383688265,0.0038378238677978516,0.13017582893371582,3.9239768545489926,-12.25953529742965,-0.34105717367072125,0.6835014743578667,1.0,-0.05043682487964636,-0.23437265425882925,4.000033761670707,3.858107310271832,-12.233289039168438,-12.308725338120901,1.5041240072845845,-3.047116724241734
16.72015953063965,-0.3075503408908844,3.168823719024658,-11.413021087646484,0.1382928193942788,0.0029473304748535156,0.13017582893371582,3.918305516990433,-12.246446270154292,-0.36105717367072127,0.6846846642069773,1.0,-0.0002637060280159644,-0.2025837118587449,4.017499050380163,3.8304546587178203,-12.206619506794143,-12.312451088065147,1.5041240072845845,-3.047116724241734
16.86973476409912,-0.3497803211212158,2.825788974761963,-11.189779281616211,0.09736502421646026,0.004195213317871094,0.13765168190002441,3.9120404786507184,-12.231712605275952,-0.3810571736707213,0.7144181428672228,0.40038886971724796,0.16816268842165763,-0.15071130003946243,4.041348215389499,3.7952628185913646,-12.172830403186701,-12.320062137121875,1.5068461067024348,-2.587858353882174
16.88197684288025,-0.3497803211212158,2.825788974761963,-11.189779281616211,0.09736502421646026,0.005069255828857422,0.13765168190002441,3.9051671496521174,-12.215304037722332,-0.4010571736707213,0.7130523836581617,0.12168076411119677,0.24169547919341133,-0.10225366230606449,4.074493315359385,3.749587641942051,-12.129558785312538,-12.333866425239357,1.5068461067024348,-2.587858353882174
16.893208265304565,-0.3508145809173584,2.75885009765625,-11.147008895874023,0.08984518115435258,0.0032896995544433594,0.13765168190002441,3.897672559134545,-12.197187606923718,-0.4210571736707213,0.7147666873584921,0.1774905101041504,0.3035040119541138,-0.07874450030684114,4.121310511226493,3.6890237880777406,-12.073089498648743,-12.357518576795911,1.5068461067024348,-2.587858353882174
16.900978803634644,-0.3508145809173584,2.75885009765625,-11.147008895874023,0.08984518115435258,0.0033063888549804688,0.13765168190002441,3.8895455161095853,-12.177327733723422,-0.44105717367072134,0.7147121718878235,0.10741698178431336,0.3355306610755621,-0.08912375892562731,4.188274612873553,3.6070705053955368,-11.997766884700864,-12.396608329146563,1.5068461067024348,-2.587858353882174
16.910186052322388,-0.35096475481987,2.7138028144836426,-11.118383407592773,0.08488162040880015,0.004298210144042969,0.13765168190002441,3.8807767664817314,-12.155686305927551,-0.46105717367072135,0.7155277021740821,0.14910489981857555,0.3697130490270052,-0.09534075469699034,4.2846423671830305,3.4944486650361393,-11.894546042168864,-12.460109425277974,1.5068461067024348,-2.587858353882174
16.920162439346313,-0.3503600060939789,2.6456775665283203,-11.075202941894531,0.0772773528796162,0.0020296573638916016,0.13765168190002441,3.8713591458192216,-12.132222772234098,-0.48105717367072137,0.7160834643452663,0.2544086041306233,0.41089882467540817,-0.10070194273151185,4.422765187614635,3.338788345348826,-11.74883281678068,-12.562539795074416,1.5068461067024348,-2.587858353882174
16.930484771728516,-0.3503600060939789,2.6456775665283203,-11.075202941894531,0.0772773528796162,0.002584695816040039,0.13765168190002441,3.8612877274764283,-12.106894244261891,-0.5010571736707213,0.7160976789848609,0.18628256623250805,0.43412119370103325,-0.11439306344081311,4.619692964301592,3.1230253273368493,-11.53762484430681,-12.726820700161381,2.6366576577129957,-1.9368702665722237
16.940001487731934,-0.3499266505241394,2.622831106185913,-11.060791015625,0.07459019897988059,0.002910614013671875,0.13765168190002441,3.9356661774384465,-12.285236096650582,-0.2910571736707212,0.716149012449161,0.18475119155979924,0.45370518219751504,-0.12557975996106258,3.9696032625323117,3.9125255044706764,-12.283564828114475,-12.308340043660179,2.6366576577129957,-1.9368702665722237
16.950116395950317,-0.349377304315567,2.5999205112457275,-11.046428680419922,0.0718123450270009,0.002514362335205078,0.13765168190002441,3.931406126278356,-12.276144532115104,-0.3110571736707212,0.7161796757007219,0.18771438451699396,0.47021008217304033,-0.13517188958454865,3.977151734712511,3.8980390196704016,-12.270826404166161,-12.307564409985403,2.6366576577129957,-1.9368702665722237
16.9604434967041,-0.34793394804000854,2.553917407989502,-11.017701148986816,0.0660640379835372,0.0043506622314453125,0.13765168190002441,3.9265948472136367,-12.265471775823293,-0.33105717367072124,0.7161685722740136,0.2714573644712457,0.48722443195943244,-0.14456668572960252,3.987012949664804,3.880194837287585,-12.254329116909554,-12.307444128839593,2.6366576577129957,-1.9368702665722237
17.101436376571655,-0.31345951557159424,2.145482301712036,-10.76545238494873,0.018630167124964042,0.002588987350463867,0.12998652458190918,3.9212144277271,-12.253194579140123,-0.35105717367072126,0.6934792103567134,1.0,0.4940900014175366,-0.19606889356969634,4.000033761670707,3.858107310271832,-12.233289039168438,-12.308725338120901,2.6366576577129957,-1.9368702665722237
17.11140751838684,-0.31345951557159424,2.145482301712036,-10.76545238494873,0.018630167124964042,0.0034189224243164062,0.12998652458190918,3.915248158321988,-12.239286844965637,-0.3710571736707213,0.6930997922514391,1.0,0.5053009843614619,-0.20184547769539915,4.017499050380163,3.8304546587178203,-12.206619506794143,-12.312451088065147,2.607583991263989,-2.9372032503866694
17.12021827697754,-0.30240336060523987,2.0703396797180176,-10.71889877319336,0.011571545222885657,0.002114534378051758,0.12998652458190918,3.9086807010109372,-12.223719682051941,-0.3910571736707213,0.6927102972854872,1.0,0.5070337270922812,-0.21448668391554965,4.041348215389499,3.7952628185913646,-12.172830403186701,-12.320062137121875,2.607583991263989,-2.9372032503866694
17.13167953491211,-0.2985895872116089,2.045294761657715,-10.703438758850098,0.009265157004232694,0.0023345947265625,0.12998652458190918,3.9014982550955684,-12.206461468513774,-0.4110571736707213,0.6923247799394725,1.0,0.5074615790963481,-0.2243710341564298,4.074493315359385,3.749587641942051,-12.129558785312538,-12.333866425239357,2.63993565077364,-2.9550967143812086
17.139928579330444,-0.29471632838249207,2.0202527046203613,-10.688005447387695,0.006976441347322018,0.0030226707458496094,0.12998652458190918,3.8936887197744157,-12.187477924328318,-0.4310571736707213,0.6919458650812307,1.0,0.5067466821342606,-0.23257131684888407,4.121310511226493,3.6890237880777406,-12.073089498648743,-12.357518576795911,2.63993565077364,-2.9550967143812086
17.150094509124756,-0.29076728224754333,1.9952113628387451,-10.672654151916504,0.004692582683402377,0.002275228500366211,0.12998652458190918,3.8852418531339503,-12.166732192596522,-0.45105717367072135,0.6916096591872491,1.0,0.5049600279151273,-0.23947745921418614,4.188274612873553,3.6070705053955368,-11.997766884700864,-12.396608329146563,2.63993565077364,-2.9550967143812086
17.1602623462677,-0.2827132046222687,1.9451489448547363,-10.641995429992676,0.00014850046700094766,0.002505064010620117,0.12998652458190918,3.876149427095617,-12.14418492931629,-0.47105717367072136,0.6914738885646368,1.0,0.4983558341048208,-0.24633499326729794,4.2846423671830305,3.4944486650361393,-11.894546042168864,-12.460109425277974,2.63993565077364,-2.9550967143812086
17.170116662979126,-0.27861469984054565,1.9201319217681885,-10.626675605773926,-0.0021156735170459184,0.002160310745239258,0.12998652458190918,3.866405377910948,-12.119794401397593,-0.4910571736707214,0.6912884569597618,1.0,0.49196902448811713,-0.25001993113102455,4.422765187614635,3.338788345348826,-11.74883281678068,-12.562539795074416,2.63993565077364,-2.9550967143812086
17.1803138256073,-0.27447283267974854,1.8951276540756226,-10.611356735229492,-0.0043696517937150126,0.0032689571380615234,0.12998652458190918,3.856005951816792,-12.093516592630884,-0.5110571736707213,0.691136097626894,1.0,0.4847338408516458,-0.2512891046758504,4.619692964301592,3.1230253273368493,-11.53762484430681,-12.726820700161381,2.63993565077364,-2.9550967143812086
17.190058946609497,-0.27029070258140564,1.8701393604278564,-10.596034049987793,-0.006610679533688782,0.0035524368286132812,0.12998652458190918,3.9336038934761945,-12.28088662287458,-0.3010571736707212,0.6910111608724894,1.0,0.4763056410891212,-0.25042845575029843,3.9696032625323117,3.9125255044706764,-12.283564828114475,-12.308340043660179,2.63993565077364,-2.9550967143812086
17.20020580291748,-0.2618172764778137,1.8202226161956787,-10.565484046936035,-0.011048904424567754,0.0027167797088623047,0.12998652458190918,3.92907053597127,-12.271007188644676,-0.32105717367072123,0.6911862276811757,1.0,0.4604566170207846,-0.24559659089930314,3.977151734712511,3.8980390196704016,-12.270826404166161,-12.307564409985403,2.63993565077364,-2.9550967143812086
17.32326912879944,-0.18256083130836487,1.4444267749786377,-10.332160949707031,-0.04026918916789193,0.0030753612518310547,0.11458039283752441,3.9239768545489926,-12.25953529742965,-0.34105717367072125,0.7021190808706052,1.0,0.33324541996422796,-0.14539519219223368,3.987012949664804,3.880194837287585,-12.254329116909554,-12.307444128839593,2.63993565077364,-2.9550967143812086
17.334689140319824,-0.18256083130836487,1.4444267749786377,-10.332160949707031,-0.04026918916789193,0.0019791126251220703,0.11458039283752441,3.918305516990433,-12.246446270154292,-0.36105717367072127,0.7017443861687597,1.0,0.2756638373670349,-0.09495176400062558,4.000033761670707,3.858107310271832,-12.233289039168438,-12.308725338120901,3.0629250921379922,-0.9715653400763484
17.34112524986267,-0.17190681397914886,1.3955727815628052,-10.300821304321289,-0.043802050617184785,0.002564668655395508,0.11458039283752441,3.9120404786507184,-12.231712605275952,-0.3810571736707213,0.7024528082689473,1.0,0.22845008134626976,-0.05282834503364289,4.017499050380163,3.8304546587178203,-12.206619506794143,-12.312451088065147,3.0629250921379922,-0.9715653400763484
17.35011577606201,-0.16661785542964935,1.3713091611862183,-10.285171508789062,-0.04553889605303139,0.002340555191040039,0.11458039283752441,3.9051671496521174,-12.215304037722332,-0.4010571736707213,0.7026490350350737,1.0,0.19665570893184345,-0.025655394771604306,4.041348215389499,3.7952628185913646,-12.172830403186701,-12.320062137121875,3.0629250921379922,-0.9715653400763484
17.36015033721924,-0.1555774062871933,1.322564721107483,-10.251737594604492,-0.04891185494964704,0.0025794506072998047,0.11458039283752441,3.897672559134545,-12.197187606923718,-0.4210571736707213,0.7035313291396,0.9476219194698036,0.1629982237954199,0.002099442254166974,4.074493315359385,3.749587641942051,-12.129558785312538,-12.333866425239357,3.0629250921379922,-0.9715653400763484
17.37005090713501,-0.15011100471019745,1.2983818054199219,-10.235025405883789,-0.050532199015900815,0.0020618438720703125,0.11458039283752441,3.8895455161095853,-12.177327733723422,-0.44105717367072134,0.7037510051012267,0.8650746956359033,0.13949526412804594,0.017061928388457968,4.121310511226493,3.6890237880777406,-12.073089498648743,-12.357518576795911,3.0629250921379922,-0.9715653400763484
17.38021230697632,-0.14468342065811157,1.2743312120437622,-10.218320846557617,-0.05211261368047706,0.0031278133392333984,0.11458039283752441,3.8807767664817314,-12.155686305927551,-0.46105717367072135,0.7039514405959723,0.7818429630388042,0.12148396364082287,0.02550824657599832,4.188274612873553,3.6070705053955368,-11.997766884700864,-12.396608329146563,3.0629250921379922,-0.9715653400763484
17.390092372894287,-0.1392967700958252,1.2504173517227173,-10.201624870300293,-0.053655183332796154,0.002635478973388672,0.11458039283752441,3.8713591458192216,-12.132222772234098,-0.48105717367072137,0.7041557253211786,0.6978547132304032,0.10675590731519674,0.03129699685225009,4.2846423671830305,3.4944486650361393,-11.894546042168864,-12.460109425277974,3.0629250921379922,-0.9715653400763484
17.400201082229614,-0.12865310907363892,1.2030187845230103,-10.168376922607422,-0.05663614958981438,0.0024001598358154297,0.11458039283752441,3.8612877274764283,-12.106894244261891,-0.5010571736707213,0.7049441556092355,0.5899207687472494,0.08811296473341389,0.04077639809074302,4.422765187614635,3.338788345348826,-11.74883281678068,-12.562539795074416,3.0629250921379922,-0.9715653400763484
17.410022735595703,-0.12339886277914047,1.179542899131775,-10.151762962341309,-0.05807337438525309,0.0022766590118408203,0.11458039283752441,3.850559965690106,-12.079655606382053,-0.5210571736707214,0.705182877584626,0.5030049748097867,0.07524876591518613,0.0460205501365096,4.619692964301592,3.1230253273368493,-11.53762484430681,-12.726820700161381,3.0629250921379922,-0.9715653400763484
17.420201301574707,-0.11819132417440414,1.156221866607666,-10.135153770446777,-0.05947642686219369,0.0022573471069335938,0.11458039283752441,3.931406126278356,-12.276144532115104,-0.3110571736707212,0.7054432098559391,0.4168089651565706,0.06526044280093056,0.05015458115289191,3.9696032625323117,3.9125255044706764,-12.283564828114475,-12.308340043660179,3.0629250921379922,-0.9715653400763484
17.548972606658936,-0.03892075642943382,0.8097238540649414,-9.869178771972656,-0.07760676190182815,0.0021965503692626953,0.11717915534973145,3.9265948472136367,-12.265471775823293,-0.33105717367072124,0.7152688732198562,0.5538139758144296,0.011578438327910272,0.0942568916742752,3.977151734712511,3.8980390196704016,-12.270826404166161,-12.307564409985403,3.1687861910530217,-1.178114411317725
17.554901599884033,-0.03892075642943382,0.8097238540649414,-9.869178771972656,-0.07760676190182815,0.00203704833984375,0.11717915534973145,3.9212144277271,-12.253194579140123,-0.35105717367072126,0.7148734529433416,0.5127737198535272,-0.006809357086483717,0.10511974154155732,3.987012949664804,3.880194837287585,-12.254329116909554,-12.307444128839593,3.1687861910530217,-1.178114411317725
17.56367778778076,-0.03434056416153908,0.789779782295227,-9.852477073669434,-0.07848764021789337,0.002321958541870117,0.11717915534973145,3.915248158321988,-12.239286844965637,-0.3710571736707213,0.715420894840498,0.443068458814948,-0.015573452821975045,0.10687083196950403,4.000033761670707,3.858107310271832,-12.233289039168438,-12.308725338120901,3.1687861910530217,-1.178114411317725
17.570019960403442,-0.03434056416153908,0.789779782295227,-9.852477073669434,-0.07848764021789337,0.002289295196533203,0.11717915534973145,3.9086807010109372,-12.223719682051941,-0.3910571736707213,0.7150258347468137,0.4027176491272835,-0.018553772627565558,0.10617564503531372,4.017499050380163,3.8304546587178203,-12.206619506794143,-12.312451088065147,3.1687861910530217,-1.178114411317725
17.580254316329956,-0.020969035103917122,0.7311816215515137,-9.802197456359863,-0.08093622417132493,0.0024635791778564453,0.11717915534973145,3.9014982550955684,-12.206461468513774,-0.4110571736707213,0.7175540290039424,0.2703922023522062,-0.02746352374638591,0.11007120611527925,4.041348215389499,3.7952628185913646,-12.172830403186701,-12.320062137121875,3.1687861910530217,-1.178114411317725
17.589991807937622,-0.016631588339805603,0.7120559811592102,-9.785374641418457,-0.0816943246529849,0.0027709007263183594,0.11717915534973145,3.8936887197744157,-12.187477924328318,-0.4310571736707213,0.7181217321242708,0.19739346414153092,-0.03304017099854912,0.11266204555794188,4.074493315359385,3.749587641942051,-12.129558785312538,-12.333866425239357,3.1687861910530217,-1.178114411317725
17.60028624534607,-0.01235431618988514,0.6931383609771729,-9.768582344055176,-0.0824371432470973,0.0023529529571533203,0.11717915534973145,3.8852418531339503,-12.166732192596522,-0.45105717367072135,0.7186762850801823,0.12273882057440777,-0.03726354599886489,0.11481376033227061,4.121310511226493,3.6890237880777406,-12.073089498648743,-12.357518576795911,3.1687861910530217,-1.178114411317725
17.610214471817017,-0.0025584674440324306,0.6562519669532776,-9.734338760375977,-0.08387011887532636,0.0029129981994628906,0.11717915534973145,3.876149427095617,-12.14418492931629,-0.47105717367072136,0.720224580030054,0.007531080991884931,-0.04130351133790727,0.1170952297850133,4.188274612873553,3.6070705053955368,-11.997766884700864,-12.396608329146563,3.1687861910530217,-1.178114411317725
17.62024712562561,0.0022247745655477047,0.6381239295005798,-9.717187881469727,-0.08455466278288185,0.002128124237060547,0.11717915534973145,3.866405377910948,-12.119794401397593,-0.4910571736707214,0.7207987536457442,-0.0709121150992541,-0.04359790493410666,0.1192751431715882,4.2846423671830305,3.4944486650361393,-11.894546042168864,-12.460109425277974,3.1687861910530217,-1.178114411317725
17.63029932975769,0.006932379212230444,0.6202095746994019,-9.700020790100098,-0.08521678271545308,0.002415180206298828,0.11717915534973145,3.856005951816792,-12.093516592630884,-0.5110571736707213,0.7213716121910617,-0.14925632404280964,-0.04516064330055848,0.12116881276863865,4.422765187614635,3.338788345348826,-11.74883281678068,-12.562539795074416,3.0988902190880463,-0.4721345024936048
17.64037561416626,0.01611216738820076,0.5850214958190918,-9.665628433227539,-0.08647046041233283,0.00275421142578125,0.11717915534973145,3.8449498454834052,-12.065305317303192,-0.5310571736707214,0.7229307500465119,-0.2657084522840817,-0.046978115836585635,0.12304304974099124,4.619692964301592,3.1230253273368493,-11.53762484430681,-12.726820700161381,3.0988902190880463,-0.4721345024936048
17.766292333602905,0.01611216738820076,0.5850214958190918,-9.665628433227539,-0.08647046041233283,0.002118349075317383,0.11767101287841797,3.92907053597127,-12.271007188644676,-0.32105717367072123,0.7122867994070717,-0.4721623930722576,-0.04711193873530006,0.12458647892497314,3.9696032625323117,3.9125255044706764,-12.283564828114475,-12.308340043660179,3.0988902190880463,-0.4721345024936048
17.77473783493042,0.07641930878162384,0.3394891023635864,-9.388272285461426,-0.09249298542062448,0.002830982208251953,0.11767101287841797,3.9239768545489926,-12.25953529742965,-0.34105717367072125,0.7334042741477546,-1.0,-0.06058771260956961,0.12812236192943507,3.977151734712511,3.8980390196704016,-12.270826404166161,-12.307564409985403,3.2049284385745676,-0.9761198147214518
17.78288745880127,0.07944144308567047,0.32628095149993896,-9.37074089050293,-0.09262001910261042,0.003131389617919922,0.11767101287841797,3.918305516990433,-12.246446270154292,-0.36105717367072127,0.7332819827543015,-1.0,-0.06637428311258947,0.12428006192378065,3.987012949664804,3.880194837287585,-12.254329116909554,-12.307444128839593,3.2049284385745676,-0.9761198147214518
17.790516138076782,0.07944144308567047,0.32628095149993896,-9.37074089050293,-0.09262001910261042,0.004324197769165039,0.11767101287841797,3.9120404786507184,-12.231712605275952,-0.3810571736707213,0.7320862693025275,-1.0,-0.0674320266014075,0.1257051059247304,4.000033761670707,3.858107310271832,-12.233289039168438,-12.308725338120901,3.2049284385745676,-0.9761198147214518
17.800534963607788,0.08818726986646652,0.2878688871860504,-9.318135261535645,-0.09285338436696505,0.003040313720703125,0.11767101287841797,3.9051671496521174,-12.215304037722332,-0.4010571736707213,0.7346578741828993,-1.0,-0.0714192575304564,0.12549854094023513,4.017499050380163,3.8304546587178203,-12.206619506794143,-12.312451088065147,3.2049284385745676,-0.9761198147214518
17.809986352920532,0.0909964069724083,0.27546414732933044,-9.30057430267334,-0.09288512971768421,0.002660989761352539,0.11767101287841797,3.897672559134545,-12.197187606923718,-0.4210571736707213,0.7346437978988406,-1.0,-0.07350626024299989,0.12688750494676276,4.041348215389499,3.7952628185913646,-12.172830403186701,-12.320062137121875,3.2049284385745676,-0.9761198147214518
17.82033920288086,0.09375221282243729,0.2632593810558319,-9.282999992370605,-0.0928937996391327,0.00353240966796875,0.11767101287841797,3.8895455161095853,-12.177327733723422,-0.44105717367072134,0.7345787947153528,-1.0,-0.07532048946478265,0.12792250683604595,4.074493315359385,3.749587641942051,-12.129558785312538,-12.333866425239357,3.2049284385745676,-0.9761198147214518
17.832051515579224,0.09645453095436096,0.25125452876091003,-9.265419006347656,-0.0928811339680311,0.0031197071075439453,0.11767101287841797,3.8807767664817314,-12.155686305927551,-0.46105717367072135,0.7344823626042194,-1.0,-0.07704036050645804,0.12866521606288298,4.121310511226493,3.6890237880777406,-12.073089498648743,-12.357518576795911,3.0727765316942017,-0.44580334773540053
17.839945554733276,0.10171611607074738,0.22784143686294556,-9.230245590209961,-0.09278762874821747,0.0033080577850341797,0.11767101287841797,3.8713591458192216,-12.132222772234098,-0.48105717367072137,0.7353850222390811,-1.0,-0.08007865516701133,0.12852764235458614,4.188274612873553,3.6070705053955368,-11.997766884700864,-12.396608329146563,3.0727765316942017,-0.44580334773540053
17.850179433822632,0.10420103371143341,0.21789060533046722,-9.212191581726074,-0.09270686242112242,0.003133535385131836,0.11767101287841797,3.8612877274764283,-12.106894244261891,-0.5010571736707213,0.7352335492220454,-1.0,-0.08218905277558163,0.12931864682185315,4.2846423671830305,3.4944486650361393,-11.894546042168864,-12.460109425277974,3.0727765316942017,-0.44580334773540053
17.86013150215149,0.1066337302327156,0.20809969305992126,-9.194149017333984,-0.09258875626598975,0.0032858848571777344,0.11767101287841797,3.850559965690106,-12.079655606382053,-0.5210571736707214,0.735080914564964,-1.0,-0.08414839451471413,0.129930776666211,4.422765187614635,3.338788345348826,-11.74883281678068,-12.562539795074416,3.0727765316942017,-0.44580334773540053
17.870145082473755,0.10901409387588501,0.198465958237648,-9.176121711730957,-0.0924533822991481,0.0029578208923339844,0.11767101287841797,3.839175833292825,-12.050459633038432,-0.5410571736707214,0.7349199449039682,-1.0,-0.08597571029610439,0.13041009298121278,4.619692964301592,3.1230253273368493,-11.53762484430681,-12.726820700161381,3.0727765316942017,-0.44580334773540053
17.880223512649536,0.10901409387588501,0.198465958237648,-9.176121711730957,-0.0924533822991481,0.005264997482299805,0.11767101287841797,3.9265948472136367,-12.265471775823293,-0.33105717367072124,0.7338029669740698,-1.0,-0.08636858664951504,0.1316537330164986,3.9696032625323117,3.9125255044706764,-12.283564828114475,-12.308340043660179,3.0727765316942017,-0.44580334773540053
18.03565216064453,0.14077454805374146,0.04105883836746216,-8.816234588623047,-0.084910562935695,0.0021300315856933594,0.14025330543518066,3.9212144277271,-12.253194579140123,-0.35105717367072126,0.7310472625180536,1.0,-0.11824653197902285,0.09284505271770986,3.977151734712511,3.8980390196704016,-12.270826404166161,-12.307564409985403,3.0727765316942017,-0.44580334773540053
18.044825792312622,0.14077454805374146,0.04105883836746216,-8.816234588623047,-0.084910562935695,0.002164602279663086,0.14025330543518066,3.915248158321988,-12.239286844965637,-0.3710571736707213,0.7300537975280277,1.0,-0.11720560300069138,0.1068033382534086,3.987012949664804,3.880194837287585,-12.254329116909554,-12.307444128839593,2.979742939119434,-1.2307861604372445
18.051730632781982,0.14259427785873413,0.022624541074037552,-8.76211166381836,-0.08300542176315193,0.00214385986328125,0.14025330543518066,3.9086807010109372,-12.223719682051941,-0.3910571736707213,0.7314891001845234,1.0,-0.12379760747909985,0.12232324952044976,4.000033761670707,3.858107310271832,-12.233289039168438,-12.308725338120901,2.979742939119434,-1.2307861604372445
18.0601909160614,0.14259427785873413,0.022624541074037552,-8.76211166381836,-0.08300542176315193,0.0049970149993896484,0.14025330543518066,3.9014982550955684,-12.206461468513774,-0.4110571736707213,0.7304993514912924,1.0,-0.12649056030514563,0.12850537727996966,4.017499050380163,3.8304546587178203,-12.206619506794143,-12.312451088065147,2.979742939119434,-1.2307861604372445
18.072622776031494,0.14259427785873413,0.022624541074037552,-8.76211166381836,-0.08300542176315193,0.004736185073852539,0.14025330543518066,3.8936887197744157,-12.187477924328318,-0.4310571736707213,0.7295098463174556,1.0,-0.12755740612128777,0.1309112653299725,4.041348215389499,3.7952628185913646,-12.172830403186701,-12.320062137121875,2.979742939119434,-1.2307861604372445
18.083311319351196,0.14361247420310974,0.010475460439920425,-8.726285934448242,-0.08165053829565878,0.0024263858795166016,0.14025330543518066,3.8852418531339503,-12.166732192596522,-0.45105717367072135,0.7299357730618853,1.0,-0.132208116048269,0.1379544009272059,4.074493315359385,3.749587641942051,-12.129558785312538,-12.333866425239357,2.979742939119434,-1.2307861604372445
18.09036159515381,0.14483708143234253,-0.007643359713256359,-8.672913551330566,-0.07952714003029872,0.0033173561096191406,0.14025330543518066,3.876149427095617,-12.14418492931629,-0.47105717367072136,0.7308088533002067,1.0,-0.13695208857160782,0.14504109668152232,4.121310511226493,3.6890237880777406,-12.073089498648743,-12.357518576795911,2.979742939119434,-1.2307861604372445
18.100118398666382,0.14483708143234253,-0.007643359713256359,-8.672913551330566,-0.07952714003029872,0.0022268295288085938,0.14025330543518066,3.866405377910948,-12.119794401397593,-0.4910571736707214,0.7298243659428236,1.0,-0.1387965675776613,0.14805366085732655,4.188274612873553,3.6070705053955368,-11.997766884700864,-12.396608329146563,2.979742939119434,-1.2307861604372445
18.110082387924194,0.14732235670089722,-0.016687806695699692,-8.636533737182617,-0.07803645069193003,0.0023756027221679688,0.14025330543518066,3.856005951816792,-12.093516592630884,-0.5110571736707213,0.730242239121238,1.0,-0.13711062706671587,0.14720095745310152,4.2846423671830305,3.4944486650361393,-11.894546042168864,-12.460109425277974,2.979742939119434,-1.2307861604372445
18.12021231651306,0.14732235670089722,-0.016687806695699692,-8.636533737182617,-0.07803645069193003,0.0021584033966064453,0.14025330543518066,3.8449498454834052,-12.065305317303192,-0.5310571736707214,0.729259890846621,1.0,-0.13663087213247163,0.14705430924679716,4.422765187614635,3.338788345348826,-11.74883281678068,-12.562539795074416,2.979742939119434,-1.2307861604372445
18.2436945438385,0.1587650626897812,-0.08546704798936844,-8.369494438171387,-0.06578619717904571,0.003229856491088867,0.1123650074005127,3.833238340909432,-12.035112341140845,-0.5510571736707214,0.7308940903690502,0.12507991544800245,-0.08297833159164819,0.06836132223938661,4.619692964301592,3.1230253273368493,-11.53762484430681,-12.726820700161381,2.698527227529896,-1.7282077401878193
18.2509446144104,0.1587650626897812,-0.08546704798936844,-8.369494438171387,-0.06578619717904571,0.0022110939025878906,0.1123650074005127,3.9239768545489926,-12.25953529742965,-0.34105717367072125,0.7300059715515821,0.14675320346063092,-0.0760683766545961,0.09348533363390801,3.9696032625323117,3.9125255044706764,-12.283564828114475,-12.308340043660179,2.698527227529896,-1.7282077401878193
18.26008439064026,0.15898972749710083,-0.09485863894224167,-8.333905220031738,-0.06406761887272487,0.0024862289428710938,0.1123650074005127,3.918305516990433,-12.246446270154292,-0.36105717367072127,0.730870465083733,-0.0009299682835801626,-0.07064135375786994,0.1009115864264292,3.977151734712511,3.8980390196704016,-12.270826404166161,-12.307564409985403,2.698527227529896,-1.7282077401878193
18.269968032836914,0.15909814834594727,-0.10396703332662582,-8.298542022705078,-0.06235209599981436,0.002156496047973633,0.1123650074005127,3.9120404786507184,-12.231712605275952,-0.3810571736707213,0.7317608806117604,-0.15620401980977272,-0.06334737342680773,0.10258917426944873,3.987012949664804,3.880194837287585,-12.254329116909554,-12.307444128839593,2.698527227529896,-1.7282077401878193
18.28036069869995,0.1591084897518158,-0.10840867459774017,-8.280891418457031,-0.06149527666216886,0.0033829212188720703,0.1123650074005127,3.9051671496521174,-12.215304037722332,-0.4010571736707213,0.7317736577021176,-0.22223791303617357,-0.05848132220087645,0.1023326180145641,4.000033761670707,3.858107310271832,-12.233289039168438,-12.308725338120901,2.698527227529896,-1.7282077401878193
18.289960384368896,0.15905383229255676,-0.11702512949705124,-8.245659828186035,-0.059799826328782925,0.002225637435913086,0.1123650074005127,3.897672559134545,-12.197187606923718,-0.4210571736707213,0.7325897289014128,-0.38278731961023094,-0.05056812383609962,0.09912223640073548,4.017499050380163,3.8304546587178203,-12.206619506794143,-12.312451088065147,2.698527227529896,-1.7282077401878193
18.30033802986145,0.1589910387992859,-0.12118750065565109,-8.228086471557617,-0.05895458309109702,0.002691984176635742,0.1123650074005127,3.8895455161095853,-12.177327733723422,-0.44105717367072134,0.7325242704610947,-0.44215623379830205,-0.045652787041198524,0.09523309386141655,4.041348215389499,3.7952628185913646,-12.172830403186701,-12.320062137121875,2.698527227529896,-1.7282077401878193
18.31010150909424,0.1589062511920929,-0.12524522840976715,-8.210602760314941,-0.05810341362847171,0.002591848373413086,0.1123650074005127,3.8807767664817314,-12.155686305927551,-0.46105717367072135,0.7324562143043548,-0.4945727132185791,-0.04171470496573737,0.09123563290179293,4.074493315359385,3.749587641942051,-12.129558785312538,-12.333866425239357,2.698527227529896,-1.7282077401878193
18.320239543914795,0.15880046784877777,-0.12919461727142334,-8.193143844604492,-0.05724520790649422,0.0021734237670898438,0.1123650074005127,3.8713591458192216,-12.132222772234098,-0.48105717367072137,0.7324073530858777,-0.5390352988253304,-0.038461354964255345,0.0874542078076923,4.121310511226493,3.6890237880777406,-12.073089498648743,-12.357518576795911,2.698527227529896,-1.7282077401878193
18.330124855041504,0.1585291475057602,-0.13675673305988312,-8.15829086303711,-0.05549978371386021,0.002351999282836914,0.1123650074005127,3.8612877274764283,-12.106894244261891,-0.5010571736707213,0.7332522412453674,-0.6456364817522331,-0.03413758774733027,0.08360652382930729,4.188274612873553,3.6070705053955368,-11.997766884700864,-12.396608329146563,2.8747107880489287,-1.0601814693337326
18.340224027633667,0.15837907791137695,-0.14036524295806885,-8.140892028808594,-0.054616610871365996,0.0026373863220214844,0.1123650074005127,3.850559965690106,-12.079655606382053,-0.5210571736707214,0.7332373091292128,-0.6684474006011354,-0.03202488373153661,0.07904280475168049,4.2846423671830305,3.4944486650361393,-11.894546042168864,-12.460109425277974,2.8747107880489287,-1.0601814693337326
18.350181341171265,0.15821082890033722,-0.14385643601417542,-8.123512268066406,-0.05372748370799659,0.002231597900390625,0.1123650074005127,3.839175833292825,-12.050459633038432,-0.5410571736707214,0.7332236302901209,-0.6834204410909923,-0.030414753742029798,0.07565421455726752,4.422765187614635,3.338788345348826,-11.74883281678068,-12.562539795074416,2.8747107880489287,-1.0601814693337326
18.3603253364563,0.15802504122257233,-0.14722910523414612,-8.106208801269531,-0.052832925789822675,0.003374338150024414,0.1123650074005127,3.8271379537084353,-12.019257113228914,-0.5602271252357994,0.7332096000134206,-0.6907234545890941,-0.029187211944192177,0.07299250690670034,4.619692964301592,3.1230253273368493,-11.53762484430681,-12.726820700161381,2.8747107880489287,-1.0601814693337326
18.487438917160034,0.1503145694732666,-0.18475991487503052,-7.80576229095459,-0.03748776748426949,0.002012491226196289,0.11753988265991211,3.9212144277271,-12.253194579140123,-0.35105717367072126,0.7404876891916635,0.6707214084174857,-0.03439789179720538,0.05729426060309906,3.9696032625323117,3.9125255044706764,-12.283564828114475,-12.308340043660179,2.8747107880489287,-1.0601814693337326
18.495697259902954,0.1503145694732666,-0.18475991487503052,-7.80576229095459,-0.03748776748426949,0.0023555755615234375,0.11753988265991211,3.915248158321988,-12.239286844965637,-0.3710571736707213,0.7396252512239803,0.7458444687010434,-0.03186734746766783,0.044856132006926744,3.977151734712511,3.8980390196704016,-12.270826404166161,-12.307564409985403,2.8204839594048923,-0.6055204157817868
18.503156661987305,0.14984315633773804,-0.1849219650030136,-7.787639141082764,-0.036642899405585974,0.0023145675659179688,0.11753988265991211,3.9086807010109372,-12.223719682051941,-0.3910571736707213,0.7395921267531929,0.8207393890293391,-0.031789011096458895,0.03925108571054365,3.987012949664804,3.880194837287585,-12.254329116909554,-12.307444128839593,2.8204839594048923,-0.6055204157817868
18.510672330856323,0.14935778081417084,-0.1850336343050003,-7.769625186920166,-0.03580110580899935,0.00426030158996582,0.11753988265991211,3.9014982550955684,-12.206461468513774,-0.4110571736707213,0.7395451705121956,0.9001843826308235,-0.03195439806719743,0.035601039813928065,4.000033761670707,3.858107310271832,-12.233289039168438,-12.308725338120901,2.8204839594048923,-0.6055204157817868
18.520482063293457,0.14935778081417084,-0.1850336343050003,-7.769625186920166,-0.03580110580899935,0.002196073532104492,0.11753988265991211,3.8936887197744157,-12.187477924328318,-0.4310571736707213,0.7386781249560603,0.9833726497630683,-0.03182867316876042,0.03263060667818982,4.017499050380163,3.8304546587178203,-12.206619506794143,-12.312451088065147,2.8204839594048923,-0.6055204157817868
18.530654191970825,0.14781935513019562,-0.1850961297750473,-7.715848445892334,-0.033302286281702106,0.0024862289428710938,0.11753988265991211,3.8852418531339503,-12.166732192596522,-0.45105717367072135,0.7399921737729024,1.0,-0.03238352100540372,0.02990448964719469,4.041348215389499,3.7952628185913646,-12.172830403186701,-12.320062137121875,2.807530650588895,-0.7231634418132625
18.540035009384155,0.14727920293807983,-0.1850357949733734,-7.698035717010498,-0.03248860429546365,0.0023565292358398438,0.11753988265991211,3.876149427095617,-12.14418492931629,-0.47105717367072136,0.7397299286137816,1.0,-0.03264904957947292,0.02815386680095951,4.074493315359385,3.749587641942051,-12.129558785312538,-12.333866425239357,2.807530650588895,-0.7231634418132625
18.550225257873535,0.1467256397008896,-0.18493901193141937,-7.680283546447754,-0.03168652234413117,0.0024559497833251953,0.11753988265991211,3.866405377910948,-12.119794401397593,-0.4910571736707214,0.7394755620908151,1.0,-0.03283931774114608,0.026992264819634945,4.121310511226493,3.6890237880777406,-12.073089498648743,-12.357518576795911,2.807530650588895,-0.7231634418132625
18.560096263885498,0.14615650475025177,-0.1848132610321045,-7.662651062011719,-0.03089746312934121,0.002256631851196289,0.11753988265991211,3.856005951816792,-12.093516592630884,-0.5110571736707213,0.7392331059737384,1.0,-0.032927081737061756,0.025908179411413435,4.188274612873553,3.6070705053955368,-11.997766884700864,-12.396608329146563,2.807530650588895,-0.7231634418132625
18.57024621963501,0.1455749124288559,-0.18465225398540497,-7.645071506500244,-0.030126916071721313,0.0024178028106689453,0.11753988265991211,3.8449498454834052,-12.065305317303192,-0.5310571736707214,0.7389981062367594,1.0,-0.0329232532048076,0.024764414565948863,4.2846423671830305,3.4944486650361393,-11.894546042168864,-12.460109425277974,2.807530650588895,-0.7231634418132625
18.580429077148438,0.14498110115528107,-0.18445506691932678,-7.627542972564697,-0.029371052597818567,0.004056692123413086,0.11753988265991211,3.833238340909432,-12.035112341140845,-0.5510571736707214,0.7387582246684853,1.0,-0.03280849430702512,0.023507683641143143,4.422765187614635,3.338788345348826,-11.74883281678068,-12.562539795074416,2.807530650588895,-0.7231634418132625
18.58996558189392,0.14375832676887512,-0.18394413590431213,-7.59263801574707,-0.02790317249468225,0.002065420150756836,0.11753988265991211,3.8208618490343165,-12.00289271307697,-0.5676206955794033,0.7391427710757331,1.0,-0.032225684798452864,0.020989675582616253,4.619692964301592,3.1230253273368493,-11.53762484430681,-12.726820700161381,2.807530650588895,-0.7231634418132625
18.71850275993347,0.14375832676887512,-0.18394413590431213,-7.59263801574707,-0.02790317249468225,0.002543210983276367,0.1188352108001709,3.918305516990433,-12.246446270154292,-0.36105717367072127,0.7316054016068739,1.0,-0.032209001337907,0.02064669919698157,3.9696032625323117,3.9125255044706764,-12.283564828114475,-12.308340043660179,2.807530650588895,-0.7231634418132625
18.729123830795288,0.12394455075263977,-0.15731467306613922,-7.290539264678955,-0.017407449476513147,0.0023593902587890625,0.1188352108001709,3.9120404786507184,-12.231712605275952,-0.3810571736707213,0.7435016945426915,-0.7887249225685684,-0.020162212980305943,-0.012510392549176469,3.977151734712511,3.8980390196704016,-12.270826404166161,-12.307564409985403,2.637719897585552,-1.6335305829757913
18.735469818115234,0.12394455075263977,-0.15731467306613922,-7.290539264678955,-0.017407449476513147,0.002225637435913086,0.1188352108001709,3.9051671496521174,-12.215304037722332,-0.4010571736707213,0.742740154286318,-0.7217025554661733,-0.024729041314422797,0.005433979775679141,3.987012949664804,3.880194837287585,-12.254329116909554,-12.307444128839593,2.637719897585552,-1.6335305829757913
18.742459058761597,0.12309326231479645,-0.15471048653125763,-7.274035930633545,-0.01696578815372224,0.002944469451904297,0.1188352108001709,3.897672559134545,-12.197187606923718,-0.4210571736707213,0.7427731162908093,-0.782865675389983,-0.02372108564232524,0.014133317458363857,4.000033761670707,3.858107310271832,-12.233289039168438,-12.308725338120901,2.637719897585552,-1.6335305829757913
18.750427722930908,0.12309326231479645,-0.15471048653125763,-7.274035930633545,-0.01696578815372224,0.0021903514862060547,0.1188352108001709,3.8895455161095853,-12.177327733723422,-0.44105717367072134,0.7420043849395171,-0.71097774654776,-0.023029919972264404,0.018587238879119335,4.017499050380163,3.8304546587178203,-12.206619506794143,-12.312451088065147,2.637719897585552,-1.6335305829757913
18.760173559188843,0.12139295786619186,-0.14913931488990784,-7.241119384765625,-0.01611682433462651,0.002768278121948242,0.1188352108001709,3.8807767664817314,-12.155686305927551,-0.46105717367072135,0.742888678735839,-0.9044094784001562,-0.020665287601891964,0.019229994715897328,4.041348215389499,3.7952628185913646,-12.172830403186701,-12.320062137121875,2.637719897585552,-1.6335305829757913
18.77013659477234,0.11970476061105728,-0.1430613249540329,-7.208292484283447,-0.015311786494329155,0.002138376235961914,0.1188352108001709,3.8713591458192216,-12.132222772234098,-0.48105717367072137,0.7436823169089707,-1.0,-0.017779998266846276,0.019665072836454363,4.074493315359385,3.749587641942051,-12.129558785312538,-12.333866425239357,2.637719897585552,-1.6335305829757913
18.780203819274902,0.11886277049779892,-0.1398061066865921,-7.1919097900390625,-0.01492542261578042,0.002597808837890625,0.1188352108001709,3.8612877274764283,-12.106894244261891,-0.5010571736707213,0.743577672462985,-1.0,-0.016109850256426365,0.01943902954187486,4.121310511226493,3.6890237880777406,-12.073089498648743,-12.357518576795911,2.637719897585552,-1.6335305829757913
18.790077924728394,0.11802254617214203,-0.1363978385925293,-7.1755547523498535,-0.01454262985815484,0.002270221710205078,0.1188352108001709,3.850559965690106,-12.079655606382053,-0.5210571736707214,0.7434856506234127,-1.0,-0.014701320901221806,0.018860785304363505,4.188274612873553,3.6070705053955368,-11.997766884700864,-12.396608329146563,2.637719897585552,-1.6335305829757913
18.800209522247314,0.11718443781137466,-0.13283348083496094,-7.159224033355713,-0.014164370406367033,0.002424001693725586,0.1188352108001709,3.839175833292825,-12.050459633038432,-0.5410571736707214,0.743417953301954,-1.0,-0.013399268340269005,0.01823206100446926,4.2846423671830305,3.4944486650361393,-11.894546042168864,-12.460109425277974,2.637719897585552,-1.6335305829757913
18.810166358947754,0.11551541835069656,-0.12522968649864197,-7.126737594604492,-0.01341521309480899,0.0026314258575439453,0.1188352108001709,3.8271379537084353,-12.019257113228914,-0.5602271252357994,0.7441013226206478,-1.0,-0.011095694158270327,0.017686908814463272,4.422765187614635,3.338788345348826,-11.74883281678068,-12.562539795074416,2.637719897585552,-1.6335305829757913
