time,x,y,z,yaw,ctrl_comp_time,rollout_comptime,y_ref,z_ref,yaw_ref,throttle,roll_rate,pitch_rate,yaw_rate,save_tube_pyH,save_tube_pyL,save_tube_pzH,save_tube_pzL,wy,wz
15.003643274307251,0.005497942212969065,4.2968645095825195,-12.42519760131836,0.002044150687355639,0.18116140365600586,0.10528898239135742,4.279938501790039,-12.393810360344808,-0.36996007982218765,0.5896739324569464,-0.9811375906830788,0.009119132716690698,0.019763611746675895,4.3147885210066566,4.250366083016813,-12.364784507651743,-12.43025105455794,4.807371109775848,-0.5991010973191261
15.538783550262451,0.005497942212969065,4.2968645095825195,-12.42519760131836,0.002044150687355639,0.16898322105407715,0.07244729995727539,4.2740934631949,-12.385192504092787,-0.38996007982218767,0.5900681388481217,-1.0,0.02197405041907941,0.06793168672519903,4.325193116542886,4.229030097768541,-12.341014687901716,-12.438390141508714,4.807371109775848,-0.5991010973191261
15.694011688232422,-0.0627012625336647,4.224653244018555,-12.433046340942383,0.0009149913026078038,0.0019049644470214844,0.07446479797363281,4.2674707729554555,-12.374960336453798,-0.4099600798221877,0.5917141606039975,-0.7778078405930386,0.045608267837233936,0.19506277023758442,4.3400227109601,4.201739103849139,-12.310728168622674,-12.449829932122814,3.4268639267764396,-5.914354382159162
15.702634334564209,-0.06279876083135605,4.2235636711120605,-12.433402061462402,0.0008536483458541494,0.0027551651000976562,0.07446479797363281,4.260045098909581,-12.363099559917382,-0.4299600798221877,0.5904181093951061,-0.8903342821698655,0.1736958742663632,0.49753138511879225,4.361050120193488,4.166669663773438,-12.272424326509034,-12.466044684390168,3.4268639267764396,-5.914354382159162
15.712005376815796,-0.06288358569145203,4.222475051879883,-12.433762550354004,0.0007904229419229969,0.0019991397857666016,0.07446479797363281,4.251791145657534,-12.349593628692174,-0.4499600798221877,0.589120713842842,-1.0,0.36158711198645427,0.6487656925593962,4.39096376774624,4.12108269982284,-12.223870813855362,-12.489235908493232,3.4268639267764396,-5.914354382159162
15.722462177276611,-0.06296110898256302,4.221394062042236,-12.434125900268555,0.000730781159162891,0.0025551319122314453,0.07446479797363281,4.242683761949103,-12.33442372809213,-0.46996007982218774,0.5878231115794177,-1.0,0.49311097839051804,0.7243828462796981,4.433809612536129,4.0608817793971115,-12.161743897190176,-12.52269198195193,3.4268639267764396,-5.914354382159162
15.732473373413086,-0.06309576332569122,4.219263076782227,-12.434804916381836,0.0006579813147459534,0.002735137939453125,0.07446479797363281,4.232698049465802,-12.31756875896757,-0.48996007982218776,0.5872574400863877,-1.0,0.5851776848733626,0.7621914231398489,4.495558258823808,3.980046221315901,-12.081147181584726,-12.571269389116091,3.0803605558807607,-7.360147326399379
15.834332466125488,-0.06309576332569122,4.219263076782227,-12.434804916381836,0.0006579813147459534,0.002513885498046875,0.09189391136169434,4.221809472755279,-12.29900532723935,-0.5099600798221877,0.5913554557878428,-1.0,0.6496243794113539,0.7810957115699243,4.58493175034571,3.8698045204633673,-11.974792660701764,-12.642211645068802,3.0803605558807607,-7.360147326399379
15.844228744506836,-0.061962105333805084,4.2118611335754395,-12.43324089050293,0.00024967893050981127,0.0022552013397216797,0.09189391136169434,4.20999397007366,-12.278707738582517,-0.5299600798221877,0.6042822101118529,-0.8000072528653464,0.6947370655879477,0.790547855784962,4.714121622156383,3.7179165167838044,-11.832064536356539,-12.746085460273145,3.2225588383227532,-5.981515144443337
15.85292387008667,-0.06158703565597534,4.211582660675049,-12.431594848632812,0.0003862052176022701,0.002828359603881836,0.09189391136169434,4.197228064890649,-12.25664799829397,-0.5499600798221878,0.6055595071003295,-0.8359381019201527,0.7263159459115633,0.7952739278924811,4.898606448773079,3.508856069545845,-11.638597579217203,-12.897202374415949,3.2225588383227532,-5.981515144443337
15.86196255683899,-0.061422497034072876,4.211409091949463,-12.430538177490234,0.0004992008438230444,0.0019614696502685547,0.09189391136169434,4.183488977811917,-12.232795816366808,-0.5699600798221878,0.6055319038373143,-0.9123092967977364,0.7484211621380944,0.7976369639462405,5.16036975140596,3.220593373601113,-11.360644051757689,-13.129251838392731,3.2225588383227532,-5.981515144443337
15.874284267425537,-0.061279188841581345,4.211209297180176,-12.429326057434082,0.00063701183240783,0.0027811527252197266,0.09189391136169434,4.168754738673605,-12.207118617782275,-0.5899557661610062,0.6054844766642382,-0.9900206795798272,0.7638948134966661,0.7988184819731204,5.532869963001996,2.819625218418428,-10.95334984790433,-13.487025090026098,3.2225588383227532,-5.981515144443337
15.881954669952393,-0.06115918606519699,4.210981369018555,-12.427961349487305,0.0007981490978938022,0.003227710723876953,0.09189391136169434,4.2840760320522975,-12.416325475094036,-0.3413765616709154,0.605410357733527,-1.0,0.7747263694476663,0.7994092409865604,4.30184260015506,4.27050273696163,-12.402972734214366,-12.434809531309115,3.2225588383227532,-5.981515144443337
15.892181396484375,-0.060997579246759415,4.210426330566406,-12.42480754852295,0.0011600182319516095,0.0025305747985839844,0.09189391136169434,4.279342406469382,-12.410001400493378,-0.3613765616709154,0.6064999596324978,-1.0,0.7823084586133664,0.7997046204932802,4.307682758566653,4.255917873312426,-12.387052541724985,-12.43967261638413,3.2225588383227532,-5.981515144443337
15.902206659317017,-0.060960426926612854,4.210091590881348,-12.423027992248535,0.0013295782629628716,0.0046100616455078125,0.09189391136169434,4.273867470888002,-12.402079343331632,-0.38137656167091544,0.6062996148570869,-1.0,0.7876159210293565,0.79985231024664,4.3163651423170775,4.237033203571868,-12.366006666363166,-12.446474854262162,3.2225588383227532,-5.981515144443337
15.914334297180176,-0.060960426926612854,4.210091590881348,-12.423027992248535,0.0013295782629628716,0.00437164306640625,0.09189391136169434,4.267626033620074,-12.39254823154151,-0.40137656167091545,0.6048680824698054,-1.0,0.7913311447205496,0.7999261551233202,4.328841369643472,4.212846920847741,-12.338990977171061,-12.456040417280603,3.2225588383227532,-5.981515144443337
16.02319598197937,-0.062015924602746964,4.203561305999756,-12.374466896057129,0.003108035752115018,0.003635883331298828,0.09084057807922363,4.260592785740071,-12.381394783593686,-0.4213765616709155,0.6303066292584423,-0.11958631207192005,0.6273044502389885,0.7999630775616601,4.346557174154278,4.181862764919886,-12.304767082167585,-12.46958335140409,3.2225588383227532,-5.981515144443337
16.03307056427002,-0.062015924602746964,4.203561305999756,-12.374466896057129,0.003108035752115018,0.004615068435668945,0.09084057807922363,4.252742406025212,-12.368603480619782,-0.4413765616709155,0.6288608220485875,-0.2555344277488476,0.3759798822961253,0.7999815387808301,4.371707409480624,4.141835225544278,-12.261499002148875,-12.488910841794391,3.6744963428373176,-3.731558096664184
16.048404216766357,-0.06350397318601608,4.200052738189697,-12.358464241027832,0.0036519345631522704,0.0034570693969726562,0.09084057807922363,4.2440496676426,-12.354156543475053,-0.4613765616709155,0.6338946152424901,-0.12188932771255934,0.16056074079830582,0.7999907693904151,4.407612133319513,4.089393670096747,-12.206449957956519,-12.516726374707476,3.6744963428373176,-3.731558096664184
16.05657196044922,-0.06350397318601608,4.200052738189697,-12.358464241027832,0.0036519345631522704,0.0025920867919921875,0.09084057807922363,4.234489546343623,-12.338033914816421,-0.4813765616709155,0.6323891531401608,-0.26455914295822147,0.05087747090688161,0.7999953846952076,4.45922355623505,4.019535609713532,-12.135564212273758,-12.557047854820592,3.6744963428373176,-3.731558096664184
16.064406633377075,-0.06380379945039749,4.199202060699463,-12.354602813720703,0.003912775380153333,0.004781246185302734,0.09084057807922363,4.22403732992359,-12.32021324625964,-0.5013765616709155,0.6323955641794287,-0.3413180721483373,-0.02258744500742753,0.7999976923476039,4.533798175077188,3.9249547835873235,-12.042856755328703,-12.615817888749792,3.6744963428373176,-3.731558096664184
16.078006982803345,-0.06380379945039749,4.199202060699463,-12.354602813720703,0.003912775380153333,0.0036439895629882812,0.09084057807922363,4.212668728702866,-12.300669890667457,-0.5213765616709155,0.6308593585336264,-0.49099922180697886,-0.057221980362161855,0.799998846173802,4.6417911494921205,3.795147002458749,-11.919433862922332,-12.701883206455776,3.6744963428373176,-3.731558096664184
16.093008756637573,-0.06603626906871796,4.194475173950195,-12.337763786315918,0.007507731285360697,0.003727436065673828,0.09084057807922363,4.200359986784588,-12.279376899608831,-0.5413765616709155,0.6354915090911247,-0.3964489633733337,-0.15156629858495893,0.7941547610270778,4.7971110699284765,3.616155602410347,-11.75279918829299,-12.827688559118249,3.6744963428373176,-3.731558096664184
16.211669206619263,-0.06603626906871796,4.194475173950195,-12.337763786315918,0.007507731285360697,0.0033025741577148438,0.10468935966491699,4.187087993843499,-12.256305026017293,-0.5613765616709155,0.6328696103720709,-1.0,-0.198621069798999,0.665510277479895,5.017708256393759,3.369983369218082,-11.522120275871274,-13.014010205493058,3.6744963428373176,-3.731558096664184
16.224467277526855,-0.09537141770124435,4.15367317199707,-12.250852584838867,0.06385883434730988,0.002838134765625,0.10468935966491699,4.284076032052282,-12.41632547509405,-0.3413765616709154,0.6582476598850777,-0.33393440353178194,-0.37903474885929933,0.22095575659955488,4.301842600155046,4.270502736961617,-12.402972734214378,-12.434809531309126,3.4225980459632663,-4.086332446552841
16.23337483406067,-0.09537141770124435,4.15367317199707,-12.250852584838867,0.06385883434730988,0.0034627914428710938,0.10468935966491699,4.279342406469358,-12.4100014004934,-0.3613765616709154,0.6569550080402026,-0.5251758785819137,-0.5053243242015095,-0.5388622734885032,4.307682758566631,4.255917873312406,-12.387052541725005,-12.439672616384145,3.7642660396300003,-3.6570050752142302
16.242953300476074,-0.10133274644613266,4.146036148071289,-12.2378511428833,0.07313094276646409,0.0025992393493652344,0.10468935966491699,4.273867470887967,-12.402079343331662,-0.38137656167091544,0.6591113900695753,-0.6078434441737688,-0.5937270269410567,-0.6694311367442517,4.3163651423170455,4.237033203571839,-12.366006666363193,-12.446474854262187,3.7642660396300003,-3.6570050752142302
16.25211477279663,-0.10133274644613266,4.146036148071289,-12.2378511428833,0.07313094276646409,0.002716541290283203,0.10468935966491699,4.267626033620027,-12.39254823154155,-0.40137656167091545,0.657830702215421,-0.8077429074209606,-0.6556089188587397,-0.7347155683721259,4.328841369643426,4.212846920847702,-12.338990977171097,-12.456040417280638,3.7642660396300003,-3.6570050752142302
16.26209807395935,-0.11096321046352386,4.133401393890381,-12.217439651489258,0.08743216407873905,0.0035970211029052734,0.10468935966491699,4.26059278574001,-12.381394783593738,-0.4213765616709155,0.6614900004920441,-0.8219854064866076,-0.6989262432011178,-0.7673577841860629,4.346557174154215,4.181862764919837,-12.304767082167631,-12.469583351404138,3.7642660396300003,-3.6570050752142302
16.274247884750366,-0.11096321046352386,4.133401393890381,-12.217439651489258,0.08743216407873905,0.0033600330352783203,0.10468935966491699,4.252742406025134,-12.368603480619846,-0.4413765616709155,0.6602249938152555,-1.0,-0.7292483702407825,-0.7836788920930317,4.371707409480538,4.141835225544221,-12.261499002148934,-12.488910841794452,3.7642660396300003,-3.6570050752142302
16.378325939178467,-0.17007780075073242,4.05444860458374,-12.122776985168457,0.1610729270857355,0.0025348663330078125,0.09462904930114746,4.244049667642503,-12.354156543475131,-0.4613765616709155,0.6723499733593739,0.38801942417198254,-0.7504738591685478,-0.7918394460465158,4.407612133319397,4.089393670096684,-12.20644995795659,-12.51672637470755,3.7642660396300003,-3.6570050752142302
16.388364791870117,-0.17007780075073242,4.05444860458374,-12.122776985168457,0.1610729270857355,0.0034570693969726562,0.09462904930114746,4.234489546343504,-12.338033914816515,-0.4813765616709155,0.67106029370716,0.1761094619828869,-0.7653317014179835,-0.7959197230232579,4.459223556234892,4.019535609713471,-12.135564212273849,-12.557047854820677,3.4705173195612398,-4.457715181725747
16.39729905128479,-0.18557895720005035,4.031235694885254,-12.09915828704834,0.17755564620986752,0.0034084320068359375,0.09462904930114746,4.224037329923448,-12.320213246259751,-0.5013765616709155,0.674688575295524,0.3658452389481812,-0.7757321909925884,-0.7979598615116289,4.533798175076968,3.92495478358728,-12.04285675532882,-12.615817888749882,3.4705173195612398,-4.457715181725747
16.40503191947937,-0.18557895720005035,4.031235694885254,-12.09915828704834,0.17755564620986752,0.0034780502319335938,0.09462904930114746,4.212668728702699,-12.300669890667589,-0.5213765616709155,0.6733670460390637,0.14429163479202156,-0.7830125336948119,-0.7989799307558145,4.6417911494918,3.7951470024587564,-11.919433862922498,-12.701883206455852,3.4705173195612398,-4.457715181725747
16.412630081176758,-0.18557895720005035,4.031235694885254,-12.09915828704834,0.17755564620986752,0.0026471614837646484,0.09462904930114746,4.200359986784393,-12.279376899608984,-0.5413765616709155,0.672046958309561,-0.08140862511229696,-0.7881087735863683,-0.7994899653779073,4.797111069927979,3.6161556024104784,-11.752799188293263,-12.827688559118258,3.4705173195612398,-4.457715181725747
16.423086643218994,-0.19602173566818237,4.014739036560059,-12.082978248596191,0.18801593556912138,0.0043468475341796875,0.09462904930114746,4.187087993843273,-12.256305026017467,-0.5613765616709155,0.6740379506136057,-0.029334378790515814,-0.7916761415104578,-0.7997449826889537,5.017708256392905,3.3699833692185117,-11.522120275871842,-13.014010205492811,3.4705173195612398,-4.457715181725747
16.432069540023804,-0.19602173566818237,4.014739036560059,-12.082978248596191,0.18801593556912138,0.0032529830932617188,0.09462904930114746,4.281800315939519,-12.413362579054574,-0.3513765616709154,0.6726944493856123,-0.26451788578496327,-0.7941732990573205,-0.7998724913444768,4.301842600155046,4.270502736961617,-12.402972734214378,-12.434809531309126,3.131442520454637,-4.9490457829430685
16.442224740982056,-0.21450276672840118,3.987952947616577,-12.058049201965332,0.20257293784103345,0.0033566951751708984,0.09462904930114746,4.276699172944443,-12.40624076031269,-0.37137656167091543,0.6762920246507251,-0.09165026725911307,-0.7959213093401244,-0.7999362456722384,4.307682758566631,4.255917873312406,-12.387052541725005,-12.439672616384145,3.131442520454637,-4.9490457829430685
16.53487253189087,-0.21450276672840118,3.987952947616577,-12.058049201965332,0.20257293784103345,0.003175973892211914,0.08400321006774902,4.270844145245564,-12.397515697225867,-0.39137656167091545,0.6766337254538249,-1.0,-0.7971449165380871,-0.7999681228361192,4.3163651423170455,4.237033203571839,-12.366006666363193,-12.446474854262187,3.131442520454637,-4.9490457829430685
16.545108556747437,-0.2964951694011688,3.848081588745117,-11.942000389099121,0.25612501475853594,0.0024764537811279297,0.08400321006774902,4.264209969537027,-12.387175216785883,-0.41137656167091546,0.6969867319516813,0.30166407192376443,-0.581349160423776,-0.36413645738258926,4.328841369643426,4.212846920847702,-12.338990977171097,-12.456040417280638,3.1471727932685267,-5.000016150705548
16.553030490875244,-0.3023838698863983,3.8358030319213867,-11.932541847229004,0.2596633480410114,0.0032987594604492188,0.08400321006774902,4.2567713175123805,-12.37520492197169,-0.4313765616709155,0.6975551011428246,0.15107787831218022,-0.4920818885238726,-0.5820682286912946,4.346557174154215,4.181862764919837,-12.304767082167631,-12.469583351404138,3.1471727932685267,-5.000016150705548
16.562153339385986,-0.3091098666191101,3.8231635093688965,-11.923541069030762,0.26310154517061113,0.0032532215118408203,0.08400321006774902,4.248502901708041,-12.36158816633207,-0.4513765616709155,0.6981072822217803,-0.004422663400131199,-0.4539512494319005,-0.6910341143456473,4.371707409480538,4.141835225544221,-12.261499002148934,-12.488910841794452,3.1471727932685267,-5.000016150705548
16.57216167449951,-0.31573623418807983,3.810316801071167,-11.914445877075195,0.2664397278891857,0.003337383270263672,0.08400321006774902,4.239379582974181,-12.346306033547261,-0.4713765616709155,0.6986769034758982,-0.16536402964918562,-0.43023094518417837,-0.7455170571728237,4.407612133319397,4.089393670096684,-12.20644995795659,-12.51672637470755,3.1471727932685267,-5.000016150705548
16.582165479660034,-0.3286776542663574,3.783998489379883,-11.895988464355469,0.272923052840206,0.0036351680755615234,0.08400321006774902,4.2293764793321245,-12.32933732203935,-0.49137656167091553,0.7006600556478767,-0.2011813053156788,-0.3926740360492609,-0.7727585285864118,4.459223556234892,4.019535609713471,-12.135564212273849,-12.557047854820677,3.1471727932685267,-5.000016150705548
16.592166423797607,-0.3349841237068176,3.7705206871032715,-11.886642456054688,0.2759785301365826,0.003320455551147461,0.08400321006774902,4.218469075975279,-12.310658534689175,-0.5113765616709155,0.7011340812078516,-0.3627267964044778,-0.3586579980363458,-0.7717697880981294,4.533798175076968,3.92495478358728,-12.04285675532882,-12.615817888749882,3.1471727932685267,-5.000016150705548
16.60219693183899,-0.34117522835731506,3.7568273544311523,-11.877238273620605,0.27876175100367034,0.003259420394897461,0.08400321006774902,4.20663333616923,-12.29024387370576,-0.5313765616709155,0.7016151800719864,-0.5296906441325367,-0.3243970559198582,-0.7224664231711675,4.6417911494918,3.7951470024587564,-11.919433862922498,-12.701883206455852,3.1471727932685267,-5.000016150705548
16.70009136199951,-0.34117522835731506,3.7568273544311523,-11.877238273620605,0.27876175100367034,0.002989530563354492,0.08825135231018066,4.19384581280571,-12.268065240682327,-0.5513765616709155,0.6973127282276896,-1.0,-0.30524034784979825,-0.6877205754022313,4.797111069927979,3.6161556024104784,-11.752799188293263,-12.827688559118258,3.1471727932685267,-5.000016150705548
16.71013331413269,-0.41636669635772705,3.535923719406128,-11.733723640441895,0.2920653790167203,0.0029442310333251953,0.08825135231018066,4.180083760364925,-12.24409224186112,-0.5713765616709156,0.7146207281690549,0.8374811535752846,0.030847674251560556,0.6621968405132694,5.017708256392905,3.3699833692185117,-11.522120275871842,-13.014010205492811,3.5405894870444077,-4.903887144008946
16.717018604278564,-0.41636669635772705,3.535923719406128,-11.733723640441895,0.2920653790167203,0.0034637451171875,0.08825135231018066,4.279342406469358,-12.4100014004934,-0.3613765616709154,0.7138456197941039,0.7554064937945075,0.016096940177697056,0.15625097047009062,4.301842600155046,4.270502736961617,-12.402972734214378,-12.434809531309126,3.5405894870444077,-4.903887144008946
16.726276397705078,-0.42094072699546814,3.517761468887329,-11.722417831420898,0.2919330320245438,0.003099679946899414,0.08825135231018066,4.273867470887967,-12.402079343331662,-0.38137656167091544,0.7143519502529199,0.8412157360643047,0.009045948232790972,-0.12601756271751807,4.307682758566631,4.255917873312406,-12.387052541725005,-12.439672616384145,3.5405894870444077,-4.903887144008946
16.735731601715088,-0.42535799741744995,3.499408006668091,-11.711071014404297,0.29172208967361934,0.003512859344482422,0.08825135231018066,4.267626033620027,-12.39254823154155,-0.40137656167091545,0.7148556494763707,0.9273936758806569,0.014488767121762417,-0.26044742197814974,4.3163651423170455,4.237033203571839,-12.366006666363193,-12.446474854262187,4.0477172836060475,-4.539050269773481
16.744959831237793,-0.4337145984172821,3.4621150493621826,-11.68825912475586,0.2911919659269217,0.002566814422607422,0.08825135231018066,4.26059278574001,-12.381394783593738,-0.4213765616709155,0.7165321517187554,1.0,0.03308387499109591,-0.3157980120637665,4.328841369643426,4.212846920847702,-12.338990977171097,-12.456040417280638,4.0477172836060475,-4.539050269773481
16.752880096435547,-0.437642902135849,3.4431538581848145,-11.676838874816895,0.2908743742988534,0.0035123825073242188,0.08825135231018066,4.252742406025134,-12.368603480619846,-0.4413765616709155,0.7168241208149325,1.0,0.052073529235731116,-0.33925450522559913,4.346557174154215,4.181862764919837,-12.304767082167631,-12.469583351404138,4.0477172836060475,-4.539050269773481
16.762219429016113,-0.4413977563381195,3.4239697456359863,-11.665410995483398,0.29040846231701944,0.00279998779296875,0.08825135231018066,4.244049667642503,-12.354156543475131,-0.4613765616709155,0.7171436875733389,1.0,0.07003098484550452,-0.347295896765313,4.371707409480538,4.141835225544221,-12.261499002148934,-12.488910841794452,4.0477172836060475,-4.539050269773481
16.86700201034546,-0.4413977563381195,3.4239697456359863,-11.665410995483398,0.29040846231701944,0.003327608108520508,0.0923759937286377,4.234489546343504,-12.338033914816515,-0.4813765616709155,0.7173353910711233,0.6703336339107722,0.08026735789743471,-0.3528034733895379,4.407612133319397,4.089393670096684,-12.20644995795659,-12.51672637470755,4.0477172836060475,-4.539050269773481
16.877468824386597,-0.4745790958404541,3.105854034423828,-11.49234390258789,0.26465848157481664,0.0029091835021972656,0.0923759937286377,4.224037329923448,-12.320213246259751,-0.5013765616709155,0.7311874715723555,1.0,0.1235545030330841,-0.306499662930979,4.459223556234892,4.019535609713471,-12.135564212273849,-12.557047854820677,3.6690177098004644,-5.242564748954383
16.885420322418213,-0.4745790958404541,3.105854034423828,-11.49234390258789,0.26465848157481664,0.003412008285522461,0.0923759937286377,4.212668728702699,-12.300669890667589,-0.5213765616709155,0.7309806618670303,1.0,0.14812913774753445,-0.31322482241416666,4.533798175076968,3.92495478358728,-12.04285675532882,-12.615817888749882,3.6690177098004644,-5.242564748954383
16.893707990646362,-0.4745790958404541,3.105854034423828,-11.49234390258789,0.26465848157481664,0.0033652782440185547,0.0923759937286377,4.200359986784393,-12.279376899608984,-0.5413765616709155,0.7307652168962988,1.0,0.1643999188938946,-0.32055441109161725,4.6417911494918,3.7951470024587564,-11.919433862922498,-12.701883206455852,3.6690177098004644,-5.242564748954383
16.903151035308838,-0.47680211067199707,3.036834239959717,-11.457298278808594,0.25745866631970427,0.00351715087890625,0.0923759937286377,4.187087993843273,-12.256305026017467,-0.5613765616709155,0.7324657104495393,1.0,0.17991850902206913,-0.3249285571973755,4.797111069927979,3.6161556024104784,-11.752799188293263,-12.827688559118258,3.6690177098004644,-5.242564748954383
16.912067651748657,-0.47726675868034363,3.0135269165039062,-11.44560432434082,0.2549819954335799,0.0031020641326904297,0.0923759937286377,4.172830397200188,-12.231422732065047,-0.5813765616709156,0.7329285250221426,1.0,0.19184598819541132,-0.329218581985604,5.017708256392905,3.3699833692185117,-11.522120275871842,-13.014010205492811,3.6690177098004644,-5.242564748954383
16.922569513320923,-0.47759488224983215,2.9900729656219482,-11.433907508850098,0.2524590664587745,0.003411531448364258,0.0923759937286377,4.276699172944443,-12.40624076031269,-0.37137656167091543,0.7333864538637864,1.0,0.2015555472158153,-0.3329851124539099,4.301842600155046,4.270502736961617,-12.402972734214378,-12.434809531309126,3.6690177098004644,-5.242564748954383
16.93281388282776,-0.4770573675632477,2.9652812480926514,-11.422933578491211,0.2498757287031931,0.0035223960876464844,0.0923759937286377,4.270844145245564,-12.397515697225867,-0.39137656167091545,0.7338063159191047,1.0,0.21020181066107857,-0.33614672673693174,4.307682758566631,4.255917873312406,-12.387052541725005,-12.439672616384145,4.476458779838925,-4.291495236355625
17.037294626235962,-0.4770573675632477,2.9652812480926514,-11.422933578491211,0.2498757287031931,0.003582477569580078,0.09498000144958496,4.264209969537027,-12.387175216785883,-0.41137656167091546,0.7158803842770305,1.0,0.2155291346329736,-0.33921169185433436,4.3163651423170455,4.237033203571839,-12.366006666363193,-12.446474854262187,4.476458779838925,-4.291495236355625
17.046852827072144,-0.45534250140190125,2.581134557723999,-11.258414268493652,0.20521691790775623,0.002317667007446289,0.09498000144958496,4.2567713175123805,-12.37520492197169,-0.4313765616709155,0.7175770569620975,1.0,0.2372421763382128,-0.3458193065554352,4.328841369643426,4.212846920847702,-12.338990977171097,-12.456040417280638,4.3024013033403685,-4.662899900216538
17.053664684295654,-0.45534250140190125,2.581134557723999,-11.258414268493652,0.20521691790775623,0.0036840438842773438,0.09498000144958496,4.248502901708041,-12.36158816633207,-0.4513765616709155,0.7175080494713793,1.0,0.25190634177651483,-0.35419571855907,4.346557174154215,4.181862764919837,-12.304767082167631,-12.469583351404138,4.3024013033403685,-4.662899900216538
17.06249761581421,-0.44825512170791626,2.5265884399414062,-11.235755920410156,0.1989183511164764,0.0026581287384033203,0.09498000144958496,4.239379582974181,-12.346306033547261,-0.4713765616709155,0.7174298777821227,1.0,0.2659633713833922,-0.362876198974091,4.371707409480538,4.141835225544221,-12.261499002148934,-12.488910841794452,4.3024013033403685,-4.662899900216538
17.072388172149658,-0.44461938738822937,2.4992661476135254,-11.224468231201172,0.1957839625995672,0.0032782554626464844,0.09498000144958496,4.2293764793321245,-12.32933732203935,-0.49137656167091553,0.717410849637206,1.0,0.27788862601592845,-0.3713205036883437,4.407612133319397,4.089393670096684,-12.20644995795659,-12.51672637470755,4.3024013033403685,-4.662899900216538
17.082185983657837,-0.4409247636795044,2.4719173908233643,-11.21320629119873,0.19264768629667092,0.005708456039428711,0.09498000144958496,4.218469075975279,-12.310658534689175,-0.5113765616709155,0.7174667005798497,1.0,0.2883718895278182,-0.37921393325927133,4.459223556234892,4.019535609713471,-12.135564212273849,-12.557047854820677,4.3024013033403685,-4.662899900216538
17.096612453460693,-0.4409247636795044,2.4719173908233643,-11.21320629119873,0.19264768629667092,0.0049364566802978516,0.09498000144958496,4.20663333616923,-12.29024387370576,-0.5313765616709155,0.7174720002556098,1.0,0.29607016935401664,-0.3858726639430997,4.533798175076968,3.92495478358728,-12.04285675532882,-12.615817888749882,4.3024013033403685,-4.662899900216538
17.111515283584595,-0.42560234665870667,2.362356662750244,-11.16836929321289,0.17993267455874795,0.004373788833618164,0.09498000144958496,4.19384581280571,-12.268065240682327,-0.5513765616709155,0.718096413366189,1.0,0.30780809679774723,-0.3939206749331492,4.6417911494918,3.7951470024587564,-11.919433862922498,-12.701883206455852,4.3024013033403685,-4.662899900216538
17.211561679840088,-0.42560234665870667,2.362356662750244,-11.16836929321289,0.17993267455874795,0.002396106719970703,0.08595061302185059,4.180083760364925,-12.24409224186112,-0.5713765616709156,0.6929867593966728,1.0,0.3160576351461941,-0.4008401263331976,4.797111069927979,3.6161556024104784,-11.752799188293263,-12.827688559118258,4.3024013033403685,-4.662899900216538
17.223711013793945,-0.3724421560764313,2.0329954624176025,-11.035768508911133,0.14009326196162242,0.0031783580780029297,0.08595061302185059,4.165325247040999,-12.21829219861754,-0.5911815717642082,0.6937251100402728,1.0,0.3271552404002354,-0.41875330590800497,5.017708256392905,3.3699833692185117,-11.522120275871842,-13.014010205492811,4.476428672970905,-4.451558059234993
17.231916189193726,-0.3724421560764313,2.0329954624176025,-11.035768508911133,0.14009326196162242,0.0053598880767822266,0.08595061302185059,4.273867470887967,-12.402079343331662,-0.38137656167091544,0.6932726734609187,1.0,0.3365612821978559,-0.4317666708277976,4.301842600155046,4.270502736961617,-12.402972734214378,-12.434809531309126,4.6628622439546,-3.8832846443971336
17.244140148162842,-0.357077956199646,1.9507274627685547,-11.003142356872559,0.13015442471688032,0.0027000904083251953,0.08595061302185059,4.267626033620027,-12.39254823154155,-0.40137656167091545,0.6934156662443345,1.0,0.3430400694807626,-0.4415258285300185,4.307682758566631,4.255917873312406,-12.387052541725005,-12.439672616384145,4.6628622439546,-3.8832846443971336
17.252057790756226,-0.34678664803504944,1.8961766958236694,-10.981414794921875,0.12354238175713633,0.0031321048736572266,0.08595061302185059,4.26059278574001,-12.381394783593738,-0.4213765616709155,0.6936322038907414,1.0,0.34670790772846966,-0.44789735409357057,4.3163651423170455,4.237033203571839,-12.366006666363193,-12.446474854262187,4.6628622439546,-3.8832846443971336
17.262428283691406,-0.34678664803504944,1.8961766958236694,-10.981414794921875,0.12354238175713633,0.0050525665283203125,0.08595061302185059,4.252742406025134,-12.368603480619846,-0.4413765616709155,0.6932077249729278,0.9590605979624084,0.3498656078160281,-0.4525294885621704,4.328841369643426,4.212846920847702,-12.338990977171097,-12.456040417280638,4.6628622439546,-3.8832846443971336
17.272189617156982,-0.34678664803504944,1.8961766958236694,-10.981414794921875,0.12354238175713633,0.0032758712768554688,0.08595061302185059,4.244049667642503,-12.354156543475131,-0.4613765616709155,0.6927747653842816,0.8440651553817358,0.3523210134745548,-0.455668952477193,4.346557174154215,4.181862764919837,-12.304767082167631,-12.469583351404138,4.6628622439546,-3.8832846443971336
17.282023191452026,-0.3313485383987427,1.8148802518844604,-10.948801040649414,0.11362991685713297,0.0052242279052734375,0.08595061302185059,4.234489546343504,-12.338033914816515,-0.4813765616709155,0.6938674310179112,0.7778878721234852,0.3497174468254632,-0.4542259508429253,4.371707409480538,4.141835225544221,-12.261499002148934,-12.488910841794452,4.6628622439546,-3.8832846443971336
17.293164014816284,-0.3313485383987427,1.8148802518844604,-10.948801040649414,0.11362991685713297,0.003042936325073242,0.08595061302185059,4.224037329923448,-12.320213246259751,-0.5013765616709155,0.6934419841440693,0.666140261470343,0.3476987446586333,-0.45058569154072153,4.407612133319397,4.089393670096684,-12.20644995795659,-12.51672637470755,4.6628622439546,-3.8832846443971336
17.30207061767578,-0.321053683757782,1.7610721588134766,-10.926959991455078,0.10701117378279207,0.0034644603729248047,0.08595061302185059,4.212668728702699,-12.300669890667589,-0.5213765616709155,0.6942659259156126,0.5795760076628123,0.34183350662039985,-0.44337661670386685,4.459223556234892,4.019535609713471,-12.135564212273849,-12.557047854820677,4.6628622439546,-3.8832846443971336
17.410656929016113,-0.245796799659729,1.3848236799240112,-10.76415729522705,0.06069325258453008,0.0021305084228515625,0.09526324272155762,4.200359986784393,-12.279376899608984,-0.5413765616709155,0.6792260353493494,1.0,0.2983150068531663,-0.4195837466048282,4.533798175076968,3.92495478358728,-12.04285675532882,-12.615817888749882,4.6628622439546,-3.8832846443971336
17.4186692237854,-0.245796799659729,1.3848236799240112,-10.76415729522705,0.06069325258453008,0.0023849010467529297,0.09526324272155762,4.187087993843273,-12.256305026017467,-0.5613765616709155,0.6784188196288665,1.0,0.26742934334100216,-0.3876860370553118,4.6417911494918,3.7951470024587564,-11.919433862922498,-12.701883206455852,4.610255202682032,-2.805183988955053
17.426905155181885,-0.2405550628900528,1.358849287033081,-10.752376556396484,0.057378430270012465,0.002418994903564453,0.09526324272155762,4.172830397200188,-12.231422732065047,-0.5813765616709156,0.6782549607494774,1.0,0.2424850530747218,-0.3580029303694407,4.797111069927979,3.6161556024104784,-11.752799188293263,-12.827688559118258,4.610255202682032,-2.805183988955053
17.4353928565979,-0.23016270995140076,1.307309865951538,-10.728740692138672,0.050747009714593665,0.002557516098022461,0.09526324272155762,4.157563063002853,-12.204697715545374,-0.5991301596968528,0.6787638566765909,1.0,0.21667741515881264,-0.3268759627233894,5.017708256392905,3.3699833692185117,-11.522120275871842,-13.014010205492811,4.585380261007673,-2.5581757644583774
17.443055868148804,-0.22506199777126312,1.2817554473876953,-10.716453552246094,0.047430763832970124,0.002186298370361328,0.09526324272155762,4.200860699203661,-12.415335026028485,-0.35422997518148774,0.6786551391972624,0.9480124372707257,0.19422522546781376,-0.29792953475227574,4.229106937573013,4.177616414814638,-12.392949975248687,-12.445188391792538,4.585380261007673,-2.5581757644583774
17.452088356018066,-0.21999399363994598,1.2563402652740479,-10.704150199890137,0.04411105696063377,0.002440929412841797,0.09526324272155762,4.195321241098026,-12.406677586288854,-0.37422997518148776,0.6785599118278942,0.8953877175313497,0.17419629711081858,-0.27290776224221397,4.237663904438599,4.1586993315604595,-12.371262533669114,-12.451147266608357,4.585380261007673,-2.5581757644583774
17.462199211120605,-0.2149600088596344,1.231065273284912,-10.691826820373535,0.04079663343792914,0.0021448135375976562,0.09526324272155762,4.189043778225549,-12.396425828229285,-0.3942299751814878,0.6785054370426283,0.8431656948771384,0.15591921095585626,-0.250333188271777,4.250043357241848,4.1345093730801485,-12.34365545925027,-12.45984799569409,4.585380261007673,-2.5581757644583774
17.47233510017395,-0.20996126532554626,1.205931305885315,-10.679505348205566,0.03749251886743166,0.002690553665161133,0.09526324272155762,4.182002599983151,-12.38456722884186,-0.4142299751814878,0.6784899616115831,0.7903239727610476,0.13894230326660484,-0.2292064168218091,4.267691379603161,4.103549146328023,-12.308907087383064,-12.472489420046934,4.585380261007673,-2.5581757644583774
17.482011318206787,-0.2000793069601059,1.1561030149459839,-10.654768943786621,0.030935356409920595,0.002733945846557617,0.09526324272155762,4.1741719628404566,-12.371087021858196,-0.4342299751814878,0.6793714549282219,0.7374275192325697,0.11899955685311304,-0.2051804126793141,4.292800325780186,4.063574816474861,-12.265207634624627,-12.490854040376504,4.585380261007673,-2.5581757644583774
17.492199420928955,-0.19519565999507904,1.1314048767089844,-10.64234733581543,0.027689027038173036,0.002476215362548828,0.09526324272155762,4.16552619693932,-12.355968174057754,-0.45422997518148783,0.679449318228945,0.6779332939281849,0.10173034672044473,-0.18211171744205015,4.32868275365225,4.011222385398654,-12.209860639157856,-12.517606524311367,4.585380261007673,-2.5581757644583774
17.502119541168213,-0.19035151600837708,1.1068532466888428,-10.629887580871582,0.024468397552025622,0.0024383068084716797,0.09526324272155762,4.156039814237323,-12.339191366583316,-0.47422997518148785,0.6795468235925076,0.6174835949447914,0.08621081077709085,-0.1602922476008299,4.380275584144886,3.9415037470632757,-12.138870429285499,-12.556706195510833,4.585380261007673,-2.5581757644583774
17.512179374694824,-0.1855478584766388,1.0824499130249023,-10.617386817932129,0.021277086174630488,0.002081155776977539,0.09526324272155762,4.145687617953424,-12.320734981329341,-0.49422997518148787,0.6796628764665793,0.5565467020041953,0.07199068773076556,-0.13956959299650656,4.454824826966391,3.847122179431791,-12.046322021316133,-12.614027103467892,4.585380261007673,-2.5581757644583774
17.595265865325928,-0.1855478584766388,1.0824499130249023,-10.617386817932129,0.021277086174630488,0.001878499984741211,0.07506394386291504,4.134444813072106,-12.30057509245691,-0.5142299751814878,0.6777865416602756,1.0,0.06202766048832811,-0.12290507353273022,4.562785620699963,3.717572524385206,-11.923401141778992,-12.698337979185737,4.585380261007673,-2.5581757644583774
17.60323429107666,-0.13302379846572876,0.8054507374763489,-10.465766906738281,-0.014249471696051914,0.0029518604278564453,0.07506394386291504,4.12228711766111,-12.278685463077172,-0.5342299751814878,0.6888628101545546,0.7921782688588781,0.017774017294120224,-0.05043576827933154,4.718102871466586,3.538860770942805,-11.75766924390527,-12.822027206885867,4.437225075545742,-1.9158163300083197
17.6129629611969,-0.13302379846572876,0.8054507374763489,-10.465766906738281,-0.014249471696051914,0.0019714832305908203,0.07506394386291504,4.10919087475722,-12.255037547133256,-0.5542299751814879,0.6880600944185377,0.7683470973899711,-0.0066910836303279275,-0.012992016467735587,4.938670859784537,3.293044671667579,-11.526578629973196,-13.007587700222341,4.437225075545742,-1.9158163300083197
17.622354745864868,-0.12524855136871338,0.7623423337936401,-10.440139770507812,-0.019651113521624748,0.0025436878204345703,0.07506394386291504,4.095133164574444,-12.229600496498836,-0.5742299751814879,0.6893885356978304,0.710382185453682,-0.025900736752127524,0.017983002876913064,5.25191904571272,2.952648161678241,-11.187610793581483,-13.297478568985754,4.437225075545742,-1.9158163300083197
17.632051944732666,-0.11762802302837372,0.7198821306228638,-10.414244651794434,-0.024901030170870184,0.002553701400756836,0.07506394386291504,4.19818161799953,-12.411204900138737,-0.36422997518148775,0.6907570240544585,0.6529416825356836,-0.0413485690257639,0.043417963786506295,4.229106937573013,4.177616414814638,-12.392949975248687,-12.445188391792538,4.200192696004218,-1.0614450271205738
17.642189502716064,-0.11388017237186432,0.6988978385925293,-10.401196479797363,-0.02746314849085545,0.0024652481079101562,0.07506394386291504,4.192276365160999,-12.401751727472181,-0.38422997518148777,0.6910445023808387,0.614435796119772,-0.052587125025928376,0.06253605232774131,4.237663904438599,4.1586993315604595,-12.371262533669114,-12.451147266608357,4.200192696004218,-1.0614450271205738
17.652254819869995,-0.11017461866140366,0.6780800223350525,-10.388083457946777,-0.02997658988964591,0.0024144649505615234,0.07506394386291504,4.185620262965592,-12.390698253715001,-0.4042299751814878,0.6913121348604985,0.575510512408399,-0.061107588394400884,0.07749617168687699,4.250043357241848,4.1345093730801485,-12.34365545925027,-12.45984799569409,4.200192696004218,-1.0614450271205738
17.662158489227295,-0.10651186853647232,0.6574310064315796,-10.374910354614258,-0.032440484601250555,0.0021016597747802734,0.07506394386291504,4.178187571127523,-12.37803083750057,-0.4242299751814878,0.6915679500837717,0.5363843025296642,-0.06766870792499301,0.08947165469036987,4.267691379603161,4.103549146328023,-12.308907087383064,-12.472489420046934,4.200192696004218,-1.0614450271205738
17.6723690032959,-0.09931621700525284,0.6166492104530334,-10.34843921661377,-0.0372076924096591,0.002397298812866211,0.07506394386291504,4.169952569525452,-12.363733581734614,-0.4442299751814878,0.6928469255197205,0.4654414388928445,-0.07343530831194917,0.10058253972793746,4.292800325780186,4.063574816474861,-12.265207634624627,-12.490854040376504,4.200192696004218,-1.0614450271205738
17.682365655899048,-0.09578383713960648,0.5965210795402527,-10.33511734008789,-0.03950629244811779,0.0028600692749023438,0.07506394386291504,4.160889665604081,-12.347788312398167,-0.46422997518148784,0.6930963565211964,0.4255877262823605,-0.07760884457917032,0.10948470969338296,4.32868275365225,4.011222385398654,-12.209860639157856,-12.517606524311367,4.200192696004218,-1.0614450271205738
17.69234848022461,-0.09348936378955841,0.577251136302948,-10.321950912475586,-0.04174647818507771,0.002328634262084961,0.07506394386291504,4.150973503199092,-12.330174562392013,-0.48422997518148786,0.6933445924606049,0.38388016137113434,-0.08175802362197372,0.11703177285016088,4.380275584144886,3.9415037470632757,-12.138870429285499,-12.556706195510833,4.200192696004218,-1.0614450271205738
17.70210552215576,-0.09121271222829819,0.5581486225128174,-10.308724403381348,-0.043932983389342664,0.002460956573486328,0.07506394386291504,4.140179072542585,-12.310869560482367,-0.5042299751814878,0.693603595631421,0.3442002633115405,-0.08554995174712844,0.12360126081331854,4.454824826966391,3.847122179431791,-12.046322021316133,-12.614027103467892,4.200192696004218,-1.0614450271205738
17.712304830551147,-0.0867154449224472,0.520455539226532,-10.282116889953613,-0.04812636615726418,0.0021910667419433594,0.07506394386291504,4.128481821204695,-12.28984822539557,-0.5242299751814878,0.694920496757096,0.2680703061840666,-0.08979954990881653,0.13038307918160494,4.562785620699963,3.717572524385206,-11.923401141778992,-12.698337979185737,4.200192696004218,-1.0614450271205738
17.722580194473267,-0.0844961404800415,0.5018695592880249,-10.268733978271484,-0.05013500279051421,0.002606630325317383,0.07506394386291504,4.115857765726058,-12.26708316509777,-0.5442299751814879,0.6952124270792408,0.23332626961089564,-0.09297917109854333,0.1362201296278441,4.718102871466586,3.538860770942805,-11.75766924390527,-12.822027206885867,4.200192696004218,-1.0614450271205738
17.803550720214844,-0.0844961404800415,0.5018695592880249,-10.268733978271484,-0.05013500279051421,0.0023157596588134766,0.07178401947021484,4.10228360369548,-12.24254468128362,-0.5642299751814879,0.6880730288322292,1.0,-0.09467085284014189,0.14029607797029453,4.938670859784537,3.293044671667579,-11.526578629973196,-13.007587700222341,3.9944887955967534,-0.9544724417899035
17.81219458580017,-0.061506517231464386,0.30946552753448486,-10.117664337158203,-0.06826524991750044,0.0020890235900878906,0.07178401947021484,4.087736826027351,-12.21620077908631,-0.5830414015448239,0.6992109015763082,0.6475401282541897,-0.09761261704118293,0.1283908365981113,5.25191904571272,2.952648161678241,-11.187610793581483,-13.297478568985754,3.9944887955967534,-0.9544724417899035
17.822516918182373,-0.05953811854124069,0.29437530040740967,-10.102845191955566,-0.06955784310162663,0.002439260482788086,0.07178401947021484,4.195321241098026,-12.406677586288854,-0.37422997518148776,0.6995942347697282,0.6358832271612196,-0.09971342233105858,0.1345619064294451,4.229106937573013,4.177616414814638,-12.392949975248687,-12.445188391792538,3.9944887955967534,-0.9544724417899035
17.831996202468872,-0.05565600097179413,0.2646994888782501,-10.07307243347168,-0.07194364746348961,0.002905130386352539,0.07178401947021484,4.189043778225549,-12.396425828229285,-0.3942299751814878,0.7011747380187575,0.5914687286775392,-0.10141100083475423,0.13809164421561568,4.237663904438599,4.1586993315604595,-12.371262533669114,-12.451147266608357,3.806875982342887,-0.7579972410306146
17.84220242500305,-0.05375409498810768,0.25011366605758667,-10.058119773864746,-0.07305601277067017,0.002184629440307617,0.07178401947021484,4.182002599983151,-12.38456722884186,-0.4142299751814878,0.7015731994732973,0.584906338682591,-0.10248313709600425,0.14097369161722276,4.250043357241848,4.1345093730801485,-12.34365545925027,-12.45984799569409,3.806875982342887,-0.7579972410306146
17.852163314819336,-0.051878515630960464,0.2356976568698883,-10.043123245239258,-0.07412113963601125,0.002196788787841797,0.07178401947021484,4.1741719628404566,-12.371087021858196,-0.4342299751814878,0.7019596847664692,0.5788467710157001,-0.10308025988729058,0.142349509228915,4.267691379603161,4.103549146328023,-12.308907087383064,-12.472489420046934,3.806875982342887,-0.7579972410306146
17.862184762954712,-0.05002926290035248,0.2214527726173401,-10.028085708618164,-0.075136741240409,0.002061128616333008,0.07178401947021484,4.16552619693932,-12.355968174057754,-0.45422997518148783,0.7023523629033404,0.572761948342111,-0.10326866259924739,0.14276394292934214,4.292800325780186,4.063574816474861,-12.265207634624627,-12.490854040376504,3.806875982342887,-0.7579972410306146
17.872331142425537,-0.046409472823143005,0.19348137080669403,-9.997940063476562,-0.07702780896113738,0.002577066421508789,0.07178401947021484,4.156039814237323,-12.339191366583316,-0.47422997518148785,0.7039187335086385,0.5195361095460478,-0.10272728378922537,0.14171523368433495,4.32868275365225,4.011222385398654,-12.209860639157856,-12.517606524311367,3.806875982342887,-0.7579972410306146
17.882160425186157,-0.04463865980505943,0.17975777387619019,-9.982802391052246,-0.07790495283487853,0.0029671192169189453,0.07178401947021484,4.145687617953424,-12.320734981329341,-0.49422997518148787,0.704325707433236,0.5109710652969228,-0.10207252169617735,0.14203298818947624,4.380275584144886,3.9415037470632757,-12.138870429285499,-12.556706195510833,3.806875982342887,-0.7579972410306146
17.89225697517395,-0.042893704026937485,0.16621115803718567,-9.967620849609375,-0.07873598994494269,0.002313852310180664,0.07178401947021484,4.134444813072106,-12.30057509245691,-0.5142299751814878,0.7047396181134692,0.5032062458847759,-0.10121921602674248,0.14151686955545342,4.454824826966391,3.847122179431791,-12.046322021316133,-12.614027103467892,3.806875982342887,-0.7579972410306146
17.902128219604492,-0.04118448495864868,0.1528511941432953,-9.95239543914795,-0.0795200392764574,0.0026216506958007812,0.07178401947021484,4.12228711766111,-12.278685463077172,-0.5342299751814878,0.7051644953991816,0.4964518689118729,-0.10020926347359063,0.14048305657736168,4.562785620699963,3.717572524385206,-11.923401141778992,-12.698337979185737,3.806875982342887,-0.7579972410306146
17.912139654159546,-0.03784171864390373,0.12667489051818848,-9.921843528747559,-0.08094591844562948,0.002053499221801758,0.07178401947021484,4.10919087475722,-12.255037547133256,-0.5542299751814879,0.7067724706355147,0.4349540952317066,-0.09840937899131338,0.13781653667758106,4.718102871466586,3.538860770942805,-11.75766924390527,-12.822027206885867,3.806875982342887,-0.7579972410306146
17.922576189041138,-0.03620759770274162,0.11386220902204514,-9.906516075134277,-0.08159237154148642,0.0028460025787353516,0.07178401947021484,4.095133164574444,-12.229600496498836,-0.5742299751814879,0.7072150702010039,0.4302672155779821,-0.09708420453486921,0.13752125685821986,4.938670859784537,3.293044671667579,-11.526578629973196,-13.007587700222341,3.806875982342887,-0.7579972410306146
18.008413314819336,-0.02206401526927948,-0.0026187445037066936,-9.732808113098145,-0.08575357931396485,0.002107858657836914,0.07553911209106445,4.080075449031306,-12.202350269625002,-0.5900695750329027,0.7111195839241138,0.27512430737454596,-0.0922119274172264,0.1219657367956547,5.25191904571272,2.952648161678241,-11.187610793581483,-13.297478568985754,3.6192591742402147,-0.6017952710846932
18.013992309570312,-0.02206401526927948,-0.0026187445037066936,-9.732808113098145,-0.08575357931396485,0.0019457340240478516,0.07553911209106445,4.192276365160999,-12.401751727472181,-0.38422997518148777,0.710300167430718,0.32811019649014406,-0.09120502429874809,0.12219494550928924,4.229106937573013,4.177616414814638,-12.392949975248687,-12.445188391792538,3.6192591742402147,-0.6017952710846932
18.023744106292725,-0.020915381610393524,-0.012029511854052544,-9.716775894165039,-0.08589519130783482,0.0026552677154541016,0.07553911209106445,4.185620262965592,-12.390698253715001,-0.4042299751814878,0.7107464026678486,0.3154528758348426,-0.09054530265365775,0.1195367678216624,4.237663904438599,4.1586993315604595,-12.371262533669114,-12.451147266608357,3.6192591742402147,-0.6017952710846932
18.03193950653076,-0.018665531650185585,-0.030305633321404457,-9.684569358825684,-0.08607615548957351,0.0022928714752197266,0.07553911209106445,4.178187571127523,-12.37803083750057,-0.4242299751814878,0.7124800737788637,0.2357322280051124,-0.08988038730731386,0.11620777486968967,4.250043357241848,4.1345093730801485,-12.34365545925027,-12.45984799569409,3.4149458061704023,-0.46124891779794297
18.042221546173096,-0.017563950270414352,-0.03916807100176811,-9.668392181396484,-0.0861183662724669,0.0024962425231933594,0.07553911209106445,4.169952569525452,-12.363733581734614,-0.4442299751814878,0.7129521500330185,0.22718722921347423,-0.08953117357590425,0.11613007180770028,4.267691379603161,4.103549146328023,-12.308907087383064,-12.472489420046934,3.4149458061704023,-0.46124891779794297
18.05223560333252,-0.01648031733930111,-0.047842077910900116,-9.652167320251465,-0.08613269028797012,0.0028505325317382812,0.07553911209106445,4.160889665604081,-12.347788312398167,-0.46422997518148784,0.7134233560225344,0.2210850918366074,-0.08910364812175196,0.11511308922399496,4.292800325780186,4.063574816474861,-12.265207634624627,-12.490854040376504,3.4149458061704023,-0.46124891779794297
18.062153339385986,-0.015414431691169739,-0.05632583424448967,-9.635896682739258,-0.08612024409733268,0.0021181106567382812,0.07553911209106445,4.150973503199092,-12.330174562392013,-0.48422997518148786,0.7138951716109633,0.2177644022893357,-0.08861291033454533,0.11358778834460201,4.32868275365225,4.011222385398654,-12.209860639157856,-12.517606524311367,3.4149458061704023,-0.46124891779794297
18.072495698928833,-0.01413598284125328,-0.07097258418798447,-9.603772163391113,-0.08600603712221783,0.004243135452270508,0.07553911209106445,4.140179072542585,-12.310869560482367,-0.5042299751814878,0.7156147629866391,0.13829261359645795,-0.08851802711791998,0.11065453233223822,4.380275584144886,3.9415037470632757,-12.138870429285499,-12.556706195510833,3.4149458061704023,-0.46124891779794297
18.082361698150635,-0.01413598284125328,-0.07097258418798447,-9.603772163391113,-0.08600603712221783,0.003476858139038086,0.07553911209106445,4.128481821204695,-12.28984822539557,-0.5242299751814878,0.7148255534046939,0.16510782557621229,-0.08861092899424816,0.11182550951011902,4.454824826966391,3.847122179431791,-12.046322021316133,-12.614027103467892,3.4149458061704023,-0.46124891779794297
18.092132806777954,-0.01289475429803133,-0.08490078896284103,-9.571443557739258,-0.08577049038224299,0.0025064945220947266,0.07553911209106445,4.115857765726058,-12.26708316509777,-0.5442299751814879,0.7165464766452134,0.0024053633952862974,-0.08862443436780401,0.10913652623287967,4.562785620699963,3.717572524385206,-11.923401141778992,-12.698337979185737,3.4149458061704023,-0.46124891779794297
18.10210418701172,-0.012288183905184269,-0.0915914997458458,-9.55520248413086,-0.08561215949618214,0.002224445343017578,0.07553911209106445,4.10228360369548,-12.24254468128362,-0.5642299751814879,0.7170220766258314,-0.085858881899745,-0.08880782925982071,0.11151146150109513,4.718102871466586,3.538860770942805,-11.75766924390527,-12.822027206885867,3.4149458061704023,-0.46124891779794297
18.112158060073853,-0.011084535159170628,-0.10440599918365479,-9.522602081298828,-0.08521433212049365,0.002197742462158203,0.07553911209106445,4.087736826027351,-12.21620077908631,-0.5830414015448239,0.7187550935173609,-0.2447450902523587,-0.08893489595991527,0.11283810954582868,4.938670859784537,3.293044671667579,-11.526578629973196,-13.007587700222341,3.4149458061704023,-0.46124891779794297
18.122474431991577,-0.010496838949620724,-0.11053446680307388,-9.506241798400879,-0.08498047250672053,0.0027747154235839844,0.07553911209106445,4.072120999944916,-12.188059263508265,-0.5954078465500955,0.7192376361318169,-0.3310374655507169,-0.08887732843949249,0.11616339987274252,5.25191904571272,2.952648161678241,-11.187610793581483,-13.297478568985754,3.4149458061704023,-0.46124891779794297
18.204843521118164,-0.005728691816329956,-0.1589139997959137,-9.34014892578125,-0.08144298867739816,0.002389192581176758,0.07095479965209961,4.189043778225549,-12.396425828229285,-0.3942299751814878,0.7193951695402492,-0.7331572903675699,-0.08941333024030436,0.11230708318673835,4.229106937573013,4.177616414814638,-12.392949975248687,-12.445188391792538,3.2496488111914643,-0.30745001956884915
18.212459087371826,-0.00552215613424778,-0.16176827251911163,-9.323285102844238,-0.0809592601625567,0.0020084381103515625,0.07095479965209961,4.182002599983151,-12.38456722884186,-0.4142299751814878,0.71976222673101,-0.8003077402422348,-0.0896337464662505,0.1154196228410631,4.237663904438599,4.1586993315604595,-12.371262533669114,-12.451147266608357,3.2496488111914643,-0.30745001956884915
18.40757131576538,-0.00552215613424778,-0.16176827251911163,-9.323285102844238,-0.0809592601625567,0.0034215450286865234,0.0712432861328125,4.1741719628404566,-12.371087021858196,-0.4342299751814878,0.7109836923157222,-0.7319536025488858,-0.08937019148987162,0.11728389522148137,4.250043357241848,4.1345093730801485,-12.34365545925027,-12.45984799569409,3.2496488111914643,-0.30745001956884915
18.416414499282837,-0.0073356120847165585,-0.1605234593153,-8.877019882202148,-0.062089510769193626,0.0033156871795654297,0.0712432861328125,4.16552619693932,-12.355968174057754,-0.45422997518148783,0.7386399195306538,-1.0,-0.09909840555386253,0.10068443289618201,4.267691379603161,4.103549146328023,-12.308907087383064,-12.472489420046934,3.35891123632628,-0.7815475319379748
18.424467086791992,-0.0073356120847165585,-0.1605234593153,-8.877019882202148,-0.062089510769193626,0.002542734146118164,0.0712432861328125,4.156039814237323,-12.339191366583316,-0.47422997518148785,0.7377922630385485,-1.0,-0.1005789688316595,0.09423057946633158,4.292800325780186,4.063574816474861,-12.265207634624627,-12.490854040376504,3.35891123632628,-0.7815475319379748
18.43470525741577,-0.0073356120847165585,-0.1605234593153,-8.877019882202148,-0.062089510769193626,0.003512144088745117,0.0712432861328125,4.145687617953424,-12.320734981329341,-0.49422997518148787,0.7369399607514006,-1.0,-0.1001100719183299,0.09381864268378778,4.32868275365225,4.011222385398654,-12.209860639157856,-12.517606524311367,3.742312830759403,-0.21715902145583033
18.443756580352783,-0.0079104695469141,-0.1557053178548813,-8.842245101928711,-0.06022240664840986,0.0023546218872070312,0.0712432861328125,4.134444813072106,-12.30057509245691,-0.5142299751814878,0.7380124240554323,-1.0,-0.10055961428922038,0.09147807864935681,4.380275584144886,3.9415037470632757,-12.138870429285499,-12.556706195510833,3.742312830759403,-0.21715902145583033
18.452056169509888,-0.0079104695469141,-0.1557053178548813,-8.842245101928711,-0.06022240664840986,0.0021288394927978516,0.0712432861328125,4.12228711766111,-12.278685463077172,-0.5342299751814878,0.7371541585939788,-1.0,-0.10035124631889232,0.09126857314218852,4.454824826966391,3.847122179431791,-12.046322021316133,-12.614027103467892,3.742312830759403,-0.21715902145583033
18.462174654006958,-0.008913591504096985,-0.14277274906635284,-8.790054321289062,-0.05734795319905245,0.0022916793823242188,0.0712432861328125,4.10919087475722,-12.255037547133256,-0.5542299751814879,0.7389537721496636,-1.0,-0.10100921779454221,0.08799366877757107,4.562785620699963,3.717572524385206,-11.923401141778992,-12.698337979185737,3.742312830759403,-0.21715902145583033
18.47231888771057,-0.008913591504096985,-0.14277274906635284,-8.790054321289062,-0.05734795319905245,0.002633810043334961,0.0712432861328125,4.095133164574444,-12.229600496498836,-0.5742299751814879,0.7380917753385994,-1.0,-0.1006611276156153,0.08788145665832912,4.718102871466586,3.538860770942805,-11.75766924390527,-12.822027206885867,3.742312830759403,-0.21715902145583033
18.48218083381653,-0.009609517641365528,-0.1339178830385208,-8.755327224731445,-0.05540179915488956,0.0023758411407470703,0.0712432861328125,4.080075449031306,-12.202350269625002,-0.5900695750329027,0.7387581467878147,-1.0,-0.10099538378603766,0.08553805166138763,4.938670859784537,3.293044671667579,-11.526578629973196,-13.007587700222341,3.742312830759403,-0.21715902145583033
18.49233889579773,-0.009609517641365528,-0.1339178830385208,-8.755327224731445,-0.05540179915488956,0.002384662628173828,0.0712432861328125,4.063846240789013,-12.173338765110541,-0.5991465275452444,0.7378923504958458,-1.0,-0.10068535489885458,0.08548327815059421,5.25191904571272,2.952648161678241,-11.187610793581483,-13.297478568985754,3.742312830759403,-0.21715902145583033
18.50208353996277,-0.010689310729503632,-0.12032923102378845,-8.703311920166016,-0.05243948271197022,0.002177715301513672,0.0712432861328125,4.185620262965592,-12.390698253715001,-0.4042299751814878,0.739167087465495,-1.0,-0.10070556569163104,0.08234491839339682,4.229106937573013,4.177616414814638,-12.392949975248687,-12.445188391792538,3.742312830759403,-0.21715902145583033
18.512360334396362,-0.010689310729503632,-0.12032923102378845,-8.703311920166016,-0.05243948271197022,0.002089262008666992,0.0712432861328125,4.178187571127523,-12.37803083750057,-0.4242299751814878,0.7382992837478386,-1.0,-0.10016301593427512,0.08207336883293141,4.237663904438599,4.1586993315604595,-12.371262533669114,-12.451147266608357,3.742312830759403,-0.21715902145583033
18.52237296104431,-0.01181514747440815,-0.10643576085567474,-8.651491165161133,-0.04944078810587256,0.002490997314453125,0.0712432861328125,4.169952569525452,-12.363733581734614,-0.4442299751814878,0.7394428029375614,-1.0,-0.10013507071682234,0.0785357309391774,4.250043357241848,4.1345093730801485,-12.34365545925027,-12.45984799569409,3.742312830759403,-0.21715902145583033
18.532063007354736,-0.01181514747440815,-0.10643576085567474,-8.651491165161133,-0.04944078810587256,0.0021271705627441406,0.0712432861328125,4.160889665604081,-12.347788312398167,-0.46422997518148784,0.7385737948594147,-1.0,-0.0994259546353065,0.07844507575296532,4.267691379603161,4.103549146328023,-12.308907087383064,-12.472489420046934,4.1716476153981725,-0.9726471995485333
18.61369228363037,-0.01181514747440815,-0.10643576085567474,-8.651491165161133,-0.04944078810587256,0.002050161361694336,0.07424187660217285,4.150973503199092,-12.330174562392013,-0.48422997518148786,0.7204888138139849,-1.0,-0.09931305746990889,0.07778480595929238,4.292800325780186,4.063574816474861,-12.265207634624627,-12.490854040376504,4.1716476153981725,-0.9726471995485333
18.62466549873352,-0.014770283363759518,-0.04593741521239281,-8.46551513671875,-0.03827206140853581,0.002313375473022461,0.07424187660217285,4.140179072542585,-12.310869560482367,-0.5042299751814878,0.7263764582455136,-0.8727943867654625,-0.09705908416887561,0.0677664491025735,4.32868275365225,4.011222385398654,-12.209860639157856,-12.517606524311367,4.1716476153981725,-0.9726471995485333
18.63264536857605,-0.014958707615733147,-0.039903782308101654,-8.448914527893066,-0.03724782340246238,0.0020704269409179688,0.07424187660217285,4.128481821204695,-12.28984822539557,-0.5242299751814878,0.7261278206517118,-0.893210297778291,-0.09288098735937651,0.07218604131999387,4.380275584144886,3.9415037470632757,-12.138870429285499,-12.556706195510833,4.3581360600026295,-2.003690838777697
18.642263650894165,-0.015372395515441895,-0.027951475232839584,-8.41576099395752,-0.035199486827806215,0.0024530887603759766,0.07424187660217285,4.115857765726058,-12.26708316509777,-0.5442299751814879,0.7264154563631265,-0.8434413348719157,-0.09346358096619731,0.0631029482262874,4.454824826966391,3.847122179431791,-12.046322021316133,-12.614027103467892,4.3581360600026295,-2.003690838777697
18.652271270751953,-0.015597255900502205,-0.02203880064189434,-8.399211883544922,-0.03417469953487989,0.002397775650024414,0.07424187660217285,4.10228360369548,-12.24254468128362,-0.5642299751814879,0.7261693575274002,-0.821038538757037,-0.09006424949594327,0.06798254383915434,4.562785620699963,3.717572524385206,-11.923401141778992,-12.698337979185737,4.3581360600026295,-2.003690838777697
18.662155628204346,-0.015833785757422447,-0.016172191128134727,-8.382678031921387,-0.03315077672513021,0.0020422935485839844,0.07424187660217285,4.087736826027351,-12.21620077908631,-0.5830414015448239,0.7259675129990283,-0.7972326236542404,-0.09080135955249265,0.06240327343257278,4.718102871466586,3.538860770942805,-11.75766924390527,-12.822027206885867,4.3581360600026295,-2.003690838777697
