time,x,y,z,yaw,ctrl_comp_time,rollout_comptime,y_ref,z_ref,yaw_ref,throttle,roll_rate,pitch_rate,yaw_rate,save_tube_pyH,save_tube_pyL,save_tube_pzH,save_tube_pzL,wy,wz
15.034595489501953,-0.06542251259088516,4.265908718109131,-12.418590545654297,0.0015235653938568822,0.17894244194030762,0.11095285415649414,4.2513897439617905,-12.394157713505324,-0.37402228138801835,0.5913810829316701,-0.9868387670646592,0.001520447868714107,0.016698862192739677,4.293941575413089,4.21500033012389,-12.358681138078515,-12.438680590241082,0.0,0.0
15.554129838943481,-0.06542251259088516,4.265908718109131,-12.418590545654297,0.0015235653938568822,0.15578961372375488,0.07452774047851562,4.2446706216876,-12.383908572423644,-0.39402228138801837,0.591380715604243,-1.0,-0.0023038678695983645,0.02873185976225099,4.305876294392147,4.190371768255127,-12.331034486336101,-12.447433746573216,0.0,0.0
15.648067474365234,-0.10889968276023865,4.240020751953125,-12.301412582397461,0.0005357136119608641,0.0057256221771240234,0.06871986389160156,4.237187915902014,-12.372044944559857,-0.4140222813880184,0.6494785229146919,0.7524748624871844,-0.05666732316304297,-0.061983222777740814,4.323081837208051,4.158970796110026,-12.29621510202199,-12.46014378136631,0.0,0.0
15.66506552696228,-0.1090288758277893,4.2376813888549805,-12.288666725158691,0.00035585039951691044,0.0029859542846679688,0.06871986389160156,4.228916036067213,-12.358552027724794,-0.4340222813880184,0.6517639482875762,0.7806901379574394,-0.09124533860758043,-0.14395896152002022,4.347753489848719,4.118550951059521,-12.252404828521085,-12.478601492576937,0.0,0.0
15.672651767730713,-0.1090288758277893,4.2376813888549805,-12.288666725158691,0.00035585039951691044,0.0025169849395751953,0.06871986389160156,4.219829467266725,-12.343412756913724,-0.4540222813880184,0.6502715598192809,0.6714391343210435,-0.1370620799767282,-0.25350986427626454,4.383208341874308,4.065744011270347,-12.196896742836486,-12.505481941291276,0.0,0.0
15.68039345741272,-0.10915358364582062,4.233401775360107,-12.268555641174316,8.732651942400249e-05,0.003201007843017578,0.06871986389160156,4.209902878206663,-12.326607785688015,-0.47402228138801844,0.6545230875237121,0.7700990344325969,-0.1913354399368274,-0.41649164385666293,4.434390112732789,3.995555383909923,-12.12568269397795,-12.544756871080144,0.0,0.0
15.688413619995117,-0.10915358364582062,4.233401775360107,-12.268555641174316,8.732651942400249e-05,0.0025718212127685547,0.06871986389160156,4.199111230517508,-12.308115472624388,-0.49402228138801846,0.6529705615291718,0.6544268629323138,-0.2736402721061914,-0.58873396041676,4.508554045712364,3.900679428557615,-12.032833000548507,-12.602314978228364,0.0,0.0
15.696675062179565,-0.10917682945728302,4.231750011444092,-12.261571884155273,-1.7818474677355756e-05,0.0027437210083007812,0.06871986389160156,4.187429889112952,-12.287911872885484,-0.5140222813880184,0.6533263105920271,0.6092621570175436,-0.36349194650225963,-0.6943669802083801,4.6161650503208,3.7706015345470787,-11.9095153987294,-12.686942941757698,0.0,0.0
15.70704960823059,-0.10919103771448135,4.229970932006836,-12.25446605682373,-0.0001224045743062896,0.0025048255920410156,0.06871986389160156,4.1748347333611235,-12.265970734953607,-0.5340222813880184,0.6535103756585904,0.565261710595403,-0.42951744858078356,-0.74718349010419,4.771174321465489,3.5913217233775514,-11.743270690815287,-12.81104976318698,0.0,0.0
15.716695547103882,-0.10986541211605072,4.22753381729126,-12.247075080871582,-0.00021761960519689483,0.002765178680419922,0.06871986389160156,4.161302268822817,-12.242263502557611,-0.5540222813880185,0.6536117359302488,0.5183038660140376,-0.4678626625537285,-0.773591745052095,4.991467399866942,3.344906811271193,-11.511890929683055,-12.99678858071792,0.0,0.0
15.7265944480896,-0.11114462465047836,4.222239017486572,-12.232056617736816,-0.0003635820162401493,0.002153635025024414,0.06871986389160156,4.146809739311292,-12.216759321811125,-0.5740222813880185,0.655388253936231,0.5310120497384607,-0.4830337051768483,-0.7867958725260475,5.304471446781266,3.00388335830996,-11.1726463367764,-13.286829760312557,0.0,0.0
15.736886262893677,-0.1117507666349411,4.2193684577941895,-12.224445343017578,-0.00035454895831132927,0.0028946399688720703,0.06871986389160156,4.131324330941633,-12.189431229297954,-0.5906401122328798,0.6554099375875868,0.4611286199866198,-0.48892895516028584,-0.7933979362630238,5.750868817763689,2.5275243189294385,-10.682664893126626,-13.723981324166518,0.0,0.0
15.746551513671875,-0.11234231293201447,4.216361045837402,-12.21677303314209,-0.0002227039035716527,0.002824068069458008,0.06871986389160156,4.251249996846376,-12.406752912564349,-0.3337198201447173,0.6554115864723126,0.382886617964878,-0.49055472132481676,-0.796698968131512,4.269089208976006,4.237962559820163,-12.393838516915654,-12.425442462232002,0.0,0.0
15.756746292114258,-0.11291246861219406,4.213197231292725,-12.209043502807617,6.864091627617475e-05,0.0026810169219970703,0.06871986389160156,4.246178966987137,-12.39979170990123,-0.3537198201447173,0.6553960642845974,0.29729461675957136,-0.4893887762105621,-0.798349484065756,4.274522005509831,4.2230821403146095,-12.37734736443356,-12.429593241587247,0.0,0.0
15.862092971801758,-0.11291246861219406,4.213197231292725,-12.209043502807617,6.864091627617475e-05,0.0018756389617919922,0.09761166572570801,4.240394539041706,-12.391242092813998,-0.37371982014471733,0.6465715598107153,-1.0,-0.49413633162944925,-0.7991747420328781,4.282816851753155,4.203938178833752,-12.355761095338764,-12.435670999112219,0.0,0.0
15.871407508850098,-0.12127593159675598,4.141897201538086,-12.086318016052246,0.008380845809544513,0.002834320068359375,0.09761166572570801,4.233871241836318,-12.381093732892673,-0.39371982014471735,0.6693825271540423,-0.5238827444137701,-0.40116895221175325,-0.7995873710164391,4.294925157331954,4.179528537914557,-12.3282440778012,-12.44449289671158,0.0,0.0
15.878237247467041,-0.12127593159675598,4.141897201538086,-12.086318016052246,0.008380845809544513,0.002106904983520508,0.09761166572570801,4.226583466959512,-12.369334090337663,-0.41371982014471737,0.6683074529890389,-0.737926292341521,-0.3374613970634611,-0.7997936855082196,4.312290048375634,4.1483589859115035,-12.293572371218739,-12.457260014541887,0.0,0.0
15.887007474899292,-0.12192027270793915,4.135311603546143,-12.077616691589355,0.008464639265838902,0.002848386764526367,0.09761166572570801,4.218505573452078,-12.355948385339264,-0.4337198201447174,0.6687498548326605,-0.9086387464575788,-0.3033720962858843,-0.7998968427541098,4.3370995448456675,4.108190227085751,-12.249933797963914,-12.475757217164773,0.0,0.0
15.896770715713501,-0.1230306625366211,4.121789455413818,-12.060018539428711,0.008370345369935028,0.0029151439666748047,0.09761166572570801,4.20961199428153,-12.340919574381795,-0.4537198201447174,0.6707124459459683,-1.0,-0.26283137671635465,-0.7999484213770549,4.372659858649615,4.055664814714982,-12.194629764496423,-12.502651280097199,0.0,0.0
15.90767502784729,-0.12349726259708405,4.1148576736450195,-12.05112075805664,0.008196332052055166,0.0024154186248779297,0.09761166572570801,4.199877344361897,-12.324228331549994,-0.4737198201447174,0.6711766463782781,-1.0,-0.22997723998974123,-0.7999742106885275,4.423899016852293,3.9858037424366377,-12.123663412308833,-12.541902696458356,0.0,0.0
15.916716814041138,-0.12390217930078506,4.107810974121094,-12.042193412780762,0.00795362572856706,0.0026674270629882812,0.09761166572570801,4.189276529877202,-12.305853034903436,-0.49371982014471744,0.671608337744757,-1.0,-0.19604653895232713,-0.7999871053442638,4.498050561422292,3.891322961905338,-12.0311207204943,-12.59938454206781,0.0,0.0
16.018105030059814,-0.12356144934892654,4.0008134841918945,-11.921160697937012,-0.007544136683053537,0.003146648406982422,0.08978700637817383,4.177784858665144,-12.285769757972846,-0.5137198201447174,0.6796051837657158,0.2874745465887525,0.10380135414691033,-0.21304178243402327,4.605552310167053,3.7617348416260152,-11.908191657455198,-12.683861301595607,0.0,0.0
16.028300762176514,-0.12248986959457397,3.9818530082702637,-11.901747703552246,-0.011683767432369874,0.0019249916076660156,0.08978700637817383,4.165378151416266,-12.263952266420304,-0.5337198201447174,0.6813229185552636,0.3396729994690222,0.2702743452131766,0.07395007960049362,4.760331095130909,3.5830636502000135,-11.742444171948788,-12.807714865664128,0.0,0.0
16.03682589530945,-0.12248986959457397,3.9818530082702637,-11.901747703552246,-0.011683767432369874,0.0028755664825439453,0.08978700637817383,4.15203285344321,-12.24037201989346,-0.5537198201447174,0.6800835649390552,0.1185967669199115,0.3920944906851415,0.3818706417093687,4.980233864668648,3.3374146772813362,-11.511789372333629,-12.992979350110033,0.0,0.0
16.046552896499634,-0.12110496312379837,3.9623122215270996,-11.882102012634277,-0.016104200160545812,0.0025877952575683594,0.08978700637817383,4.253525884398074,-12.40964048957384,-0.3237198201447173,0.6818453367633347,0.1722810734297222,0.5144661434795991,0.5909353208546844,4.267241269323585,4.244024450448915,-12.400361408518544,-12.423906294040469,0.0,0.0
16.057032823562622,-0.12029469758272171,3.952313184738159,-11.872187614440918,-0.018378122439015376,0.004313230514526367,0.08978700637817383,4.248802072912201,-12.403470303010423,-0.3437198201447173,0.6821019301077976,0.08547580492001239,0.6001263004357194,0.6954676604273422,4.271493085196215,4.231006908496505,-12.386188852910388,-12.427316972218335,0.0,0.0
16.069327354431152,-0.12029469758272171,3.952313184738159,-11.872187614440918,-0.018378122439015376,0.004245758056640625,0.08978700637817383,4.2433775152934246,-12.395716047225518,-0.3637198201447173,0.6808249925714652,-0.14949920549414464,0.6600884103050035,0.7477338302136711,4.278261447880146,4.214096486094081,-12.367236044641079,-12.43234737516142,0.0,0.0
16.083478450775146,-0.11670947819948196,3.9100067615509033,-11.831592559814453,-0.028672150587827017,0.004609346389770508,0.08978700637817383,4.237226847623215,-12.386368487256426,-0.38371982014471734,0.6853639529772354,0.18528547060625478,0.7020618872135025,0.7738669151068356,4.288318107579028,4.192470970504316,-12.342809391756562,-12.439674793871491,0.0,0.0
16.095792531967163,-0.11670947819948196,3.9100067615509033,-11.831592559814453,-0.028672150587827017,0.004146575927734375,0.08978700637817383,4.230324517143515,-12.37541619288036,-0.40371982014471736,0.68406005526008,-0.060254977419511135,0.7203116592846343,0.7869334575534178,4.302834953121627,4.164907530550915,-12.311899088977505,-12.450288376807919,0.0,0.0
16.19332504272461,-0.10018308460712433,3.7454278469085693,-11.692645072937012,-0.08759517595961391,0.003625631332397461,0.08365702629089355,4.22264488596564,-12.362845507564403,-0.4237198201447174,0.7023364527395967,0.5967101923719556,0.6090538997843519,0.6764674599830328,4.323589102893876,4.129577831025024,-12.273017547445132,-12.465650633230295,0.0,0.0
16.203269243240356,-0.10018308460712433,3.7454278469085693,-11.692645072937012,-0.08759517595961391,0.003150463104248047,0.08365702629089355,4.214162336682212,-12.348640522296884,-0.4437198201447174,0.70147031020664,0.3298514901064178,0.5535162939394555,0.700567925671557,4.3532725061740525,4.083738640729947,-12.223953799038702,-12.487942971639956,0.0,0.0
16.21185827255249,-0.09402032196521759,3.7013654708862305,-11.659067153930664,-0.10148375595930148,0.003146648406982422,0.08365702629089355,4.204851379644358,-12.332783054383684,-0.4637198201447174,0.7043505275085322,0.4046388141093411,0.48913570217891283,0.6434472413630418,4.395932602038382,4.023291386524484,-12.161418057893782,-12.520421090869966,0.0,0.0
16.21942639350891,-0.09402032196521759,3.7013654708862305,-11.659067153930664,-0.10148375595930148,0.0033118724822998047,0.08365702629089355,4.194686761663686,-12.31525263128116,-0.4837198201447174,0.7035706996603096,0.12765622150181932,0.4542969983374871,0.6128630736978163,4.457541705760983,3.942212982962575,-12.080561104486879,-12.567895558613298,0.0,0.0
16.22788977622986,-0.08871520310640335,3.669262170791626,-11.63508129119873,-0.11023052248974452,0.002530336380004883,0.08365702629089355,4.18364357589638,-12.296026479525526,-0.5037198201447174,0.7052789358928335,0.0862447962955244,0.40879126615055283,0.5343434439412305,4.546838925752005,3.831714134002116,-11.974142386843106,-12.637563682963991,0.0,0.0
16.237582206726074,-0.08871520310640335,3.669262170791626,-11.63508129119873,-0.11023052248974452,0.003404855728149414,0.08365702629089355,4.17169737266528,-12.275079518806603,-0.5237198201447174,0.7045674102593769,-0.20045274692663773,0.38362748309464795,0.4914397798862054,4.676049269864288,3.6795204474656655,-11.831590580404733,-12.739948935541221,0.0,0.0
16.249217748641968,-0.08066022396087646,3.619917631149292,-11.599202156066895,-0.12189484054150879,0.0031921863555908203,0.08365702629089355,4.1588242709747805,-12.252384361221997,-0.5437198201447174,0.7072375949737547,-0.13973463107571982,0.33061054442965176,0.3774006321021807,4.860694358502614,3.4700619443295246,-11.637978933582087,-12.889925599258829,0.0,0.0
16.256996393203735,-0.08066022396087646,3.619917631149292,-11.599202156066895,-0.12189484054150879,0.003428936004638672,0.08365702629089355,4.251249996846361,-12.406752912564363,-0.3337198201447173,0.7066282219715339,-0.3393589085464205,0.3057438257591151,0.3519191298927795,4.267241269323585,4.244024450448915,-12.400361408518544,-12.423906294040469,0.0,0.0
16.26677417755127,-0.07796682417392731,3.6031494140625,-11.58731746673584,-0.1252550170015928,0.003225088119506836,0.08365702629089355,4.246178966987113,-12.399791709901251,-0.3537198201447173,0.7070979997372434,-0.3016721768098888,0.28089313048514086,0.3118259752584871,4.271493085196215,4.231006908496505,-12.386188852910388,-12.427316972218335,0.0,0.0
16.37829566001892,-0.0409691147506237,3.326157808303833,-11.407530784606934,-0.15309454004524167,0.003298521041870117,0.10116314888000488,4.240394539041671,-12.391242092814029,-0.37371982014471733,0.7126613584052496,1.0,0.16114149982585318,0.08148317072747051,4.278261447880146,4.214096486094081,-12.367236044641079,-12.43234737516142,0.0,0.0
16.39214849472046,-0.0409691147506237,3.326157808303833,-11.407530784606934,-0.15309454004524167,0.0050776004791259766,0.10116314888000488,4.23387124183627,-12.381093732892714,-0.39371982014471735,0.7120734521457435,1.0,0.1107394288402135,0.1521672826130056,4.288318107579028,4.192470970504316,-12.342809391756562,-12.439674793871491,0.0,0.0
16.404005765914917,-0.03881290555000305,3.306037187576294,-11.395405769348145,-0.15419978472757934,0.003536701202392578,0.10116314888000488,4.2265834669594495,-12.369334090337714,-0.41371982014471737,0.7122642012422519,1.0,0.07760490307355351,0.18440713054604937,4.302834953121627,4.164907530550915,-12.311899088977505,-12.450288376807919,0.0,0.0
16.41343092918396,-0.03881290555000305,3.306037187576294,-11.395405769348145,-0.15419978472757934,0.004261016845703125,0.10116314888000488,4.218505573451999,-12.35594838533933,-0.4337198201447174,0.7116801536938149,1.0,0.05876585145054301,0.20091025979658417,4.323589102893876,4.129577831025024,-12.273017547445132,-12.465650633230295,0.0,0.0
16.423681497573853,-0.032528750598430634,3.244886636734009,-11.359207153320312,-0.15725188744667584,0.0033779144287109375,0.10116314888000488,4.209611994281432,-12.340919574381875,-0.4537198201447174,0.7134014846966069,1.0,0.03257011854679505,0.200967975301303,4.3532725061740525,4.083738640729947,-12.223953799038702,-12.487942971639956,0.0,0.0
16.431743621826172,-0.032528750598430634,3.244886636734009,-11.359207153320312,-0.15725188744667584,0.0059871673583984375,0.10116314888000488,4.199877344361778,-12.32422833155009,-0.4737198201447174,0.7128312531508213,1.0,0.01783523668526971,0.20253463911695072,4.395932602038382,4.023291386524484,-12.161418057893782,-12.520421090869966,0.0,0.0
16.444121599197388,-0.028515081852674484,3.2034380435943604,-11.335185050964355,-0.15907557545304904,0.0030503273010253906,0.10116314888000488,4.18927652987706,-12.30585303490355,-0.49371982014471744,0.713651959139716,1.0,-0.0007858754188826043,0.19976288840613182,4.457541705760983,3.942212982962575,-12.080561104486879,-12.567895558613298,0.0,0.0
16.557090520858765,-0.028515081852674484,3.2034380435943604,-11.335185050964355,-0.15907557545304904,0.0043408870697021484,0.10380744934082031,4.177784858664976,-12.285769757972979,-0.5137198201447174,0.7097310049263241,1.0,-0.011270810707509831,0.2001031384943006,4.546838925752005,3.831714134002116,-11.974142386843106,-12.637563682963991,0.0,0.0
16.569300889968872,-0.0025167984422296286,2.7967989444732666,-11.119576454162598,-0.15694896892521867,0.0033643245697021484,0.10380744934082031,4.165378151416069,-12.263952266420459,-0.5337198201447174,0.7185262365288386,1.0,-0.04246406823974759,0.19587091853582142,4.676049269864288,3.6795204474656655,-11.831590580404733,-12.739948935541221,0.0,0.0
16.57706308364868,-0.0025167984422296286,2.7967989444732666,-11.119576454162598,-0.15694896892521867,0.0028886795043945312,0.10380744934082031,4.152032853442981,-12.240372019893636,-0.5537198201447174,0.7183210545655947,1.0,-0.06006644059978994,0.1990954678047102,4.860694358502614,3.4700619443295246,-11.637978933582087,-12.889925599258829,0.0,0.0
16.58931064605713,-0.0014981790445744991,2.773174524307251,-11.107836723327637,-0.15634293906449867,0.003376007080078125,0.10380744934082031,4.248802072912201,-12.403470303010423,-0.3437198201447173,0.718405899623484,1.0,-0.07103798999200046,0.20383295562877735,4.267241269323585,4.244024450448915,-12.400361408518544,-12.423906294040469,0.0,0.0
16.59687376022339,-0.0014981790445744991,2.773174524307251,-11.107836723327637,-0.15634293906449867,0.00423121452331543,0.10380744934082031,4.2433775152934246,-12.395716047225518,-0.3637198201447173,0.7182176431483753,1.0,-0.07800808339684197,0.2079588954529275,4.271493085196215,4.231006908496505,-12.386188852910388,-12.427316972218335,0.0,0.0
16.60754156112671,-0.0014981790445744991,2.773174524307251,-11.107836723327637,-0.15634293906449867,0.0033376216888427734,0.10380744934082031,4.237226847623215,-12.386368487256426,-0.38371982014471734,0.718023235032865,1.0,-0.08253026681793463,0.2111249292852709,4.278261447880146,4.214096486094081,-12.367236044641079,-12.43234737516142,0.0,0.0
16.719916343688965,0.0011733280261978507,2.3644840717315674,-10.919659614562988,-0.14265678797945186,0.0032455921173095703,0.10244083404541016,4.230324517143515,-12.37541619288036,-0.40371982014471736,0.7064108177824007,1.0,-0.08133919445623429,0.21612208248170464,4.288318107579028,4.192470970504316,-12.342809391756562,-12.439674793871491,0.0,0.0
16.72854733467102,0.0011733280261978507,2.3644840717315674,-10.919659614562988,-0.14265678797945186,0.0024182796478271484,0.10244083404541016,4.22264488596564,-12.362845507564403,-0.4237198201447174,0.7061483589370874,1.0,-0.08119634361967379,0.21916872048507538,4.302834953121627,4.164907530550915,-12.311899088977505,-12.450288376807919,0.0,0.0
16.741407871246338,-0.0007185667636804283,2.2851169109344482,-10.884181022644043,-0.13947825074671444,0.0036394596099853516,0.10244083404541016,4.214162336682212,-12.348640522296884,-0.4437198201447174,0.7063915561399324,1.0,-0.079704467413254,0.2204613231983452,4.323589102893876,4.129577831025024,-12.273017547445132,-12.465650633230295,0.0,0.0
16.749176502227783,-0.0007185667636804283,2.2851169109344482,-10.884181022644043,-0.13947825074671444,0.003273487091064453,0.10244083404541016,4.204851379644358,-12.332783054383684,-0.4637198201447174,0.7061659547213096,1.0,-0.07898871096359504,0.22090592683699325,4.3532725061740525,4.083738640729947,-12.223953799038702,-12.487942971639956,0.0,0.0
16.758137464523315,-0.0013674229849129915,2.258760929107666,-10.872440338134766,-0.13839254269699625,0.0030171871185302734,0.10244083404541016,4.194686761663686,-12.31525263128116,-0.4837198201447174,0.7061450129892423,1.0,-0.07797509968451333,0.2208467660518697,4.395932602038382,4.023291386524484,-12.161418057893782,-12.520421090869966,0.0,0.0
16.76664972305298,-0.002024976070970297,2.232459306716919,-10.860739707946777,-0.13728815716686144,0.002913951873779297,0.10244083404541016,4.18364357589638,-12.296026479525526,-0.5037198201447174,0.7061532148559969,1.0,-0.07667225857918752,0.22040510655735368,4.457541705760983,3.942212982962575,-12.080561104486879,-12.567895558613298,0.0,0.0
16.776769399642944,-0.0033636826556175947,2.180032730102539,-10.837536811828613,-0.13502735364168483,0.002805471420288086,0.10244083404541016,4.17169737266528,-12.275079518806603,-0.5237198201447174,0.7065199449910232,1.0,-0.07422941692684266,0.21926073239037092,4.546838925752005,3.831714134002116,-11.974142386843106,-12.637563682963991,0.0,0.0
16.78678607940674,-0.004043336492031813,2.1539156436920166,-10.825981140136719,-0.13387707686873504,0.0035686492919921875,0.10244083404541016,4.1588242709747805,-12.252384361221997,-0.5437198201447174,0.7066786848982972,1.0,-0.07184611125249388,0.21781763872802365,4.676049269864288,3.6795204474656655,-11.831590580404733,-12.739948935541221,0.0,0.0
16.890292406082153,-0.004043336492031813,2.1539156436920166,-10.825981140136719,-0.13387707686873504,0.0033712387084960938,0.09412336349487305,4.145001070473074,-12.22791131573592,-0.5637198201447174,0.6819088182355536,1.0,-0.07031380255677318,0.21665384851945738,4.860694358502614,3.4700619443295246,-11.637978933582087,-12.889925599258829,0.0,0.0
16.899800539016724,-0.020463988184928894,1.7690691947937012,-10.650064468383789,-0.11525236409528383,0.0033600330352783203,0.09412336349487305,4.246178966987113,-12.399791709901251,-0.3537198201447173,0.6876276376302236,1.0,-0.05551876531326106,0.20206394732120128,4.267241269323585,4.244024450448915,-12.400361408518544,-12.423906294040469,0.0,0.0
16.907469987869263,-0.020463988184928894,1.7690691947937012,-10.650064468383789,-0.11525236409528383,0.003151416778564453,0.09412336349487305,4.240394539041671,-12.391242092814029,-0.37371982014471733,0.686990795901695,1.0,-0.046980909170789044,0.19298837498260582,4.271493085196215,4.231006908496505,-12.386188852910388,-12.427316972218335,0.0,0.0
16.916977882385254,-0.021830614656209946,1.7440787553787231,-10.638209342956543,-0.11392765295801295,0.0032355785369873047,0.09412336349487305,4.23387124183627,-12.381093732892714,-0.39371982014471735,0.6869814762834682,0.9294722050866819,-0.04087886063765735,0.18605628460604565,4.278261447880146,4.214096486094081,-12.367236044641079,-12.43234737516142,0.0,0.0
16.92714214324951,-0.023181086406111717,1.7192161083221436,-10.626418113708496,-0.11258991060523799,0.0051348209381103516,0.09412336349487305,4.2265834669594495,-12.369334090337714,-0.41371982014471737,0.6869970477093128,0.8460268658245238,-0.03631784037105222,0.1810606555117464,4.288318107579028,4.192470970504316,-12.342809391756562,-12.439674793871491,0.0,0.0
16.940321683883667,-0.023181086406111717,1.7192161083221436,-10.626418113708496,-0.11258991060523799,0.004166603088378906,0.09412336349487305,4.218505573451999,-12.35594838533933,-0.4337198201447174,0.6863451504663755,0.7668557589317234,-0.0336454562878727,0.17826729877506242,4.302834953121627,4.164907530550915,-12.311899088977505,-12.450288376807919,0.0,0.0
16.94932532310486,-0.028425246477127075,1.621097445487976,-10.579353332519531,-0.1071488731113935,0.0054607391357421875,0.09412336349487305,4.209611994281432,-12.340919574381875,-0.4537198201447174,0.6888895463652677,0.6617331353883319,-0.02770596465007118,0.1712994955146438,4.323589102893876,4.129577831025024,-12.273017547445132,-12.465650633230295,0.0,0.0
16.96104621887207,-0.028425246477127075,1.621097445487976,-10.579353332519531,-0.1071488731113935,0.002889394760131836,0.09412336349487305,4.199877344361778,-12.32422833155009,-0.4737198201447174,0.6882375351905706,0.5859869751649975,-0.02419358584641091,0.16671912358141883,4.3532725061740525,4.083738640729947,-12.223953799038702,-12.487942971639956,0.0,0.0
16.96976351737976,-0.03257732093334198,1.5484752655029297,-10.543885231018066,-0.10299879910183064,0.003354787826538086,0.09412336349487305,4.18927652987706,-12.30585303490355,-0.49371982014471744,0.6906037522846218,0.4773702692426014,-0.019118860296096395,0.15999390974935745,4.395932602038382,4.023291386524484,-12.161418057893782,-12.520421090869966,0.0,0.0
16.97761821746826,-0.03257732093334198,1.5484752655029297,-10.543885231018066,-0.10299879910183064,0.0029044151306152344,0.09412336349487305,4.177784858664976,-12.285769757972979,-0.5137198201447174,0.6899431562642315,0.40502330124514185,-0.015997136891808896,0.15484393125166981,4.457541705760983,3.942212982962575,-12.080561104486879,-12.567895558613298,0.0,0.0
16.987467050552368,-0.034181881695985794,1.5242353677749634,-10.531911849975586,-0.10163166169903023,0.0034482479095458984,0.09412336349487305,4.165378151416069,-12.263952266420459,-0.5337198201447174,0.6903648522725746,0.3226003386774643,-0.013325037632511553,0.14991164688235492,4.546838925752005,3.831714134002116,-11.974142386843106,-12.637563682963991,0.0,0.0
17.09539771080017,-0.05396261438727379,1.2031750679016113,-10.36266803741455,-0.08215658466280161,0.003930568695068359,0.09811210632324219,4.152032853442981,-12.240372019893636,-0.5537198201447174,0.678582649005024,0.9400136872656428,-0.007241081232639867,0.1337214624713914,4.676049269864288,3.6795204474656655,-11.831590580404733,-12.739948935541221,0.0,0.0
17.105689525604248,-0.05396261438727379,1.2031750679016113,-10.36266803741455,-0.08215658466280161,0.0023374557495117188,0.09811210632324219,4.137726146774342,-12.214998179092241,-0.5737198201447175,0.6776357722090608,0.9088705541615485,-0.0014107908916267697,0.1199299940708774,4.860694358502614,3.4700619443295246,-11.637978933582087,-12.889925599258829,0.0,0.0
17.11273765563965,-0.05648564174771309,1.160906434059143,-10.337986946105957,-0.07937305904050262,0.001969575881958008,0.09811210632324219,4.2433775152934246,-12.395716047225518,-0.3637198201447173,0.678794710950898,0.8835640388497799,0.0020119119490650027,0.11178107925448394,4.267241269323585,4.244024450448915,-12.400361408518544,-12.423906294040469,0.0,0.0
17.118946313858032,-0.05648564174771309,1.160906434059143,-10.337986946105957,-0.07937305904050262,0.002308368682861328,0.09811210632324219,4.237226847623215,-12.386368487256426,-0.38371982014471734,0.6778460377664437,0.8568006676229424,0.0037978341156856086,0.10828723281681224,4.271493085196215,4.231006908496505,-12.386188852910388,-12.427316972218335,0.0,0.0
17.126665830612183,-0.05771283805370331,1.1400259733200073,-10.325643539428711,-0.07797908019975357,0.002288818359375,0.09811210632324219,4.230324517143515,-12.37541619288036,-0.40371982014471736,0.6779611081775219,0.8342438968939472,0.00489552945791224,0.10580920640056526,4.278261447880146,4.214096486094081,-12.367236044641079,-12.43234737516142,0.0,0.0
17.136781692504883,-0.05891724303364754,1.1193147897720337,-10.313263893127441,-0.0765843849791946,0.0024161338806152344,0.09811210632324219,4.22264488596564,-12.362845507564403,-0.4237198201447174,0.6780829726283449,0.8139393950186873,0.0056849438410219374,0.10369449955068104,4.288318107579028,4.192470970504316,-12.342809391756562,-12.439674793871491,0.0,0.0
17.146673679351807,-0.06009892746806145,1.0987732410430908,-10.300848007202148,-0.07518886180322633,0.0022699832916259766,0.09811210632324219,4.214162336682212,-12.348640522296884,-0.4437198201447174,0.6782145420399144,0.7955892669431984,0.006391867633962485,0.1016669300826595,4.302834953121627,4.164907530550915,-12.311899088977505,-12.450288376807919,0.0,0.0
17.156861543655396,-0.06240128353238106,1.0581929683685303,-10.275897979736328,-0.07240552916328571,0.0023767948150634766,0.09811210632324219,4.204851379644358,-12.332783054383684,-0.4637198201447174,0.6794916644885529,0.7751617255240192,0.007475769266751186,0.09843567508092213,4.323589102893876,4.129577831025024,-12.273017547445132,-12.465650633230295,0.0,0.0
17.166770696640015,-0.06352218240499496,1.0381537675857544,-10.263358116149902,-0.07101679561167093,0.0027115345001220703,0.09811210632324219,4.194686761663686,-12.31525263128116,-0.4837198201447174,0.6797074097253807,0.753370928072968,0.008450456424408656,0.0957317606555602,4.3532725061740525,4.083738640729947,-12.223953799038702,-12.487942971639956,0.0,0.0
17.176703214645386,-0.06569693237543106,0.9985831379890442,-10.238218307495117,-0.06825694635130664,0.0021965503692626953,0.09811210632324219,4.18364357589638,-12.296026479525526,-0.5037198201447174,0.6811709874684224,0.7161891064363168,0.009745499427987416,0.09204705876103826,4.395932602038382,4.023291386524484,-12.161418057893782,-12.520421090869966,0.0,0.0
17.186925649642944,-0.06675088405609131,0.9790527820587158,-10.225565910339355,-0.06688664581321632,0.0026764869689941406,0.09811210632324219,4.17169737266528,-12.275079518806603,-0.5237198201447174,0.6814622629538344,0.6881816296458831,0.010913366076462044,0.08911300861189562,4.457541705760983,3.942212982962575,-12.080561104486879,-12.567895558613298,0.0,0.0
17.19673991203308,-0.06778261065483093,0.9596937298774719,-10.212857246398926,-0.06552475162071539,0.0022623538970947266,0.09811210632324219,4.1588242709747805,-12.252384361221997,-0.5437198201447174,0.6817686471735105,0.6595980068908183,0.01206556342961291,0.08647551329799075,4.546838925752005,3.831714134002116,-11.974142386843106,-12.637563682963991,0.0,0.0
17.28121542930603,-0.07839620113372803,0.7627521753311157,-10.06661605834961,-0.05112729998049966,0.0028972625732421875,0.07021832466125488,4.145001070473074,-12.22791131573592,-0.5637198201447174,0.6899725964492643,0.6448462619070296,0.020380023916571042,0.06961695770818592,4.676049269864288,3.6795204474656655,-11.831590580404733,-12.739948935541221,0.0,0.0
17.28882670402527,-0.07839620113372803,0.7627521753311157,-10.06661605834961,-0.05112729998049966,0.002439737319946289,0.07021832466125488,4.130205363616415,-12.201628397855057,-0.5830296198652847,0.6890352284380916,0.6503987933188415,0.023612617810375856,0.06339245570788217,4.860694358502614,3.4700619443295246,-11.637978933582087,-12.889925599258829,0.0,0.0
17.296684503555298,-0.07924772053956985,0.7460564374923706,-10.052923202514648,-0.04986535678330846,0.0021865367889404297,0.07021832466125488,4.240394539041671,-12.391242092814029,-0.37371982014471733,0.6894829693016635,0.6198076387407938,0.025789842249133783,0.05962567349170645,4.267241269323585,4.244024450448915,-12.400361408518544,-12.423906294040469,0.0,0.0
17.306904315948486,-0.08086088299751282,0.7131878733634949,-10.025352478027344,-0.04736313181604219,0.002355813980102539,0.07021832466125488,4.23387124183627,-12.381093732892714,-0.39371982014471735,0.6913472115039582,0.550607331548081,0.028402941484404032,0.05570938806063002,4.271493085196215,4.231006908496505,-12.386188852910388,-12.427316972218335,0.0,0.0
17.31672430038452,-0.08163262903690338,0.6970289349555969,-10.011473655700684,-0.046122850455546566,0.002905607223510742,0.07021832466125488,4.2265834669594495,-12.369334090337714,-0.41371982014471737,0.6918304037653602,0.5222804825976128,0.0302912088838065,0.053297401125210295,4.278261447880146,4.214096486094081,-12.367236044641079,-12.43234737516142,0.0,0.0
17.32666850090027,-0.08238121122121811,0.6810558438301086,-9.997579574584961,-0.044892417885607244,0.0021584033966064453,0.07021832466125488,4.218505573451999,-12.35594838533933,-0.4337198201447174,0.6923022425165754,0.4953969615971676,0.031990659827265046,0.05128194696579763,4.288318107579028,4.192470970504316,-12.342809391756562,-12.439674793871491,0.0,0.0
17.337015628814697,-0.08380863815546036,0.6496751308441162,-9.969608306884766,-0.04245697483993342,0.002718210220336914,0.07021832466125488,4.209611994281432,-12.340919574381875,-0.4537198201447174,0.6941404725723096,0.42574189205417123,0.034606579204532396,0.04823102110367545,4.302834953121627,4.164907530550915,-12.311899088977505,-12.450288376807919,0.0,0.0
17.346656322479248,-0.08463103324174881,0.6348820328712463,-9.95446491241455,-0.041250734082089326,0.002166748046875,0.07021832466125488,4.199877344361778,-12.32422833155009,-0.4737198201447174,0.6946709379074074,0.39863015176243,0.036331503184022035,0.04622575643218108,4.323589102893876,4.129577831025024,-12.273017547445132,-12.465650633230295,0.0,0.0
17.356762409210205,-0.08542796224355698,0.6202688813209534,-9.939289093017578,-0.04006012745417865,0.0024335384368896484,0.07021832466125488,4.18927652987706,-12.30585303490355,-0.49371982014471744,0.6951978281576869,0.3733933654353997,0.03775601062127405,0.04453892262032535,4.3532725061740525,4.083738640729947,-12.223953799038702,-12.487942971639956,0.0,0.0
17.366981267929077,-0.08619343489408493,0.6058447957038879,-9.92408275604248,-0.038878318938900404,0.0029954910278320312,0.07021832466125488,4.177784858664976,-12.285769757972979,-0.5137198201447174,0.695726866542212,0.35053499698843116,0.039091260603279956,0.042962230107889264,4.395932602038382,4.023291386524484,-12.161418057893782,-12.520421090869966,0.0,0.0
17.37675428390503,-0.08764888346195221,0.5775505900382996,-9.893671989440918,-0.03654498323363311,0.002481222152709961,0.07021832466125488,4.165378151416069,-12.263952266420459,-0.5337198201447174,0.69769329366902,0.28176266803253214,0.04127974211697886,0.040504487356071026,4.457541705760983,3.942212982962575,-12.080561104486879,-12.567895558613298,0.0,0.0
17.38683319091797,-0.08833920955657959,0.5636837482452393,-9.878414154052734,-0.035389835675580066,0.002506256103515625,0.07021832466125488,4.152032853442981,-12.240372019893636,-0.5537198201447174,0.6982209179576784,0.26465489620191995,0.04288013464917168,0.03861009594278603,4.546838925752005,3.831714134002116,-11.974142386843106,-12.637563682963991,0.0,0.0
17.39678144454956,-0.08900479972362518,0.5500057339668274,-9.863121032714844,-0.03424380001780112,0.002804279327392578,0.07021832466125488,4.137726146774342,-12.214998179092241,-0.5737198201447175,0.6987545118997947,0.25064068418614627,0.044279731036128755,0.03704377012673455,4.676049269864288,3.6795204474656655,-11.831590580404733,-12.739948935541221,0.0,0.0
17.40701913833618,-0.08964569866657257,0.536517858505249,-9.84779167175293,-0.03310421853893129,0.002140045166015625,0.07021832466125488,4.122426518171505,-12.187802983721326,-0.5905235381707171,0.6992952466118312,0.2398637956962768,0.045591065544875034,0.035640679107564195,4.860694358502614,3.4700619443295246,-11.637978933582087,-12.889925599258829,0.0,0.0
17.483695030212402,-0.09473133832216263,0.41332313418388367,-9.691715240478516,-0.02214865230101687,0.002282857894897461,0.06849026679992676,4.237226847623215,-12.386368487256426,-0.38371982014471734,0.7037708197161445,0.5543998748726103,0.05425444990973138,0.02705043866591392,4.267241269323585,4.244024450448915,-12.400361408518544,-12.423906294040469,0.0,0.0
17.49007272720337,-0.09473133832216263,0.41332313418388367,-9.691715240478516,-0.02214865230101687,0.0023355484008789062,0.06849026679992676,4.230324517143515,-12.37541619288036,-0.40371982014471736,0.7028435282539465,0.6014339493026661,0.05682924589484279,0.026439630818890593,4.271493085196215,4.231006908496505,-12.386188852910388,-12.427316972218335,0.0,0.0
17.49694848060608,-0.09473133832216263,0.41332313418388367,-9.691715240478516,-0.02214865230101687,0.002154111862182617,0.06849026679992676,4.22264488596564,-12.362845507564403,-0.4237198201447174,0.7019169722652284,0.6511244704564976,0.05754776887781275,0.027579171541760338,4.278261447880146,4.214096486094081,-12.367236044641079,-12.43234737516142,0.0,0.0
17.506798267364502,-0.0958261638879776,0.38136187195777893,-9.642864227294922,-0.01904136028167136,0.002362966537475586,0.06849026679992676,4.214162336682212,-12.348640522296884,-0.4437198201447174,0.7054298838188229,0.5700322505134039,0.06051123430206532,0.025333719009176758,4.288318107579028,4.192470970504316,-12.342809391756562,-12.439674793871491,0.0,0.0
17.5166597366333,-0.0958261638879776,0.38136187195777893,-9.642864227294922,-0.01904136028167136,0.0028972625732421875,0.06849026679992676,4.204851379644358,-12.332783054383684,-0.4637198201447174,0.7045111616784576,0.6251037723362365,0.06114454637776491,0.026035478951311277,4.302834953121627,4.164907530550915,-12.311899088977505,-12.450288376807919,0.0,0.0
17.526905298233032,-0.09646564722061157,0.36100906133651733,-9.610200881958008,-0.01701100777093656,0.0022542476654052734,0.06849026679992676,4.194686761663686,-12.31525263128116,-0.4837198201447174,0.7065397094421387,0.5926486945036595,0.06321130451748948,0.02478570289424657,4.323589102893876,4.129577831025024,-12.273017547445132,-12.465650633230295,0.0,0.0
17.53667426109314,-0.09646564722061157,0.36100906133651733,-9.610200881958008,-0.01701100777093656,0.0026574134826660156,0.06849026679992676,4.18364357589638,-12.296026479525526,-0.5037198201447174,0.7056276396350445,0.6531903597769979,0.0636764331907841,0.02540885006436213,4.3532725061740525,4.083738640729947,-12.223953799038702,-12.487942971639956,0.0,0.0
17.546733856201172,-0.09726864099502563,0.3319196403026581,-9.561058044433594,-0.01401703845683748,0.002455472946166992,0.06849026679992676,4.17169737266528,-12.275079518806603,-0.5237198201447174,0.7090251572288062,0.5668751361274529,0.06653367734549044,0.023196245158919937,4.395932602038382,4.023291386524484,-12.161418057893782,-12.520421090869966,0.0,0.0
17.556728839874268,-0.09726864099502563,0.3319196403026581,-9.561058044433594,-0.01401703845683748,0.002800464630126953,0.06849026679992676,4.1588242709747805,-12.252384361221997,-0.5437198201447174,0.7081221408488582,0.6329739243304187,0.06708734594281253,0.023953404392977592,4.457541705760983,3.942212982962575,-12.080561104486879,-12.567895558613298,0.0,0.0
17.566972255706787,-0.09770085662603378,0.3134932219982147,-9.528144836425781,-0.012049952063179326,0.003389120101928711,0.06849026679992676,4.145001070473074,-12.22791131573592,-0.5637198201447174,0.7100966951288602,0.5816953924704839,0.06889329074405083,0.02316731743604386,4.546838925752005,3.831714134002116,-11.974142386843106,-12.637563682963991,0.0,0.0
17.57670831680298,-0.09770085662603378,0.3134932219982147,-9.528144836425781,-0.012049952063179326,0.002267599105834961,0.06849026679992676,4.130205363616415,-12.201628397855057,-0.5830296198652847,0.7092016205600283,0.5649568496907316,0.06929562824930138,0.023837186140527832,4.676049269864288,3.6795204474656655,-11.831590580404733,-12.739948935541221,0.0,0.0
17.586979389190674,-0.0981602668762207,0.2873155176639557,-9.478692054748535,-0.009147249525043574,0.0025093555450439453,0.06849026679992676,4.114361125418578,-12.173532425210043,-0.5962962130225822,0.7126227183905689,0.3591981543887923,0.07171983684683225,0.02234296194734883,4.860694358502614,3.4700619443295246,-11.637978933582087,-12.889925599258829,0.0,0.0
17.596956253051758,-0.0981602668762207,0.2873155176639557,-9.478692054748535,-0.009147249525043574,0.002661466598510742,0.06849026679992676,4.23387124183627,-12.381093732892714,-0.39371982014471735,0.7117395428545169,0.34265637340869104,0.07226048752461031,0.022134793347783337,4.267241269323585,4.244024450448915,-12.400361408518544,-12.423906294040469,0.0,0.0
17.681182861328125,-0.10135021805763245,0.21345625817775726,-9.27852725982666,0.0018596921143384793,0.0024192333221435547,0.07356595993041992,4.2265834669594495,-12.369334090337714,-0.41371982014471737,0.7187728867190812,-0.4923675047072237,0.07875752609845103,0.01938365443253663,4.271493085196215,4.231006908496505,-12.386188852910388,-12.427316972218335,0.0,0.0
17.689029216766357,-0.10135021805763245,0.21345625817775726,-9.27852725982666,0.0018596921143384793,0.002476215362548828,0.07356595993041992,4.218505573451999,-12.35594838533933,-0.4337198201447174,0.7178474627337122,-0.5071829887251235,0.0797127423667076,0.012154682614279056,4.278261447880146,4.214096486094081,-12.367236044641079,-12.43234737516142,0.0,0.0
17.696703910827637,-0.10135021805763245,0.21345625817775726,-9.27852725982666,0.0018596921143384793,0.0021691322326660156,0.07356595993041992,4.209611994281432,-12.340919574381875,-0.4537198201447174,0.7169216481745107,-0.5219269291862683,0.07949569434741366,0.00836148805165601,4.288318107579028,4.192470970504316,-12.342809391756562,-12.439674793871491,0.0,0.0
17.706631898880005,-0.10168568044900894,0.19961223006248474,-9.227806091308594,0.004465683151075858,0.0025091171264648438,0.07356595993041992,4.199877344361778,-12.32422833155009,-0.4737198201447174,0.7204061161689144,-0.7687566493006972,0.08092139310208567,0.0067868772814236675,4.302834953121627,4.164907530550915,-12.311899088977505,-12.450288376807919,0.0,0.0
17.716936349868774,-0.10168568044900894,0.19961223006248474,-9.227806091308594,0.004465683151075858,0.0027179718017578125,0.07356595993041992,4.18927652987706,-12.30585303490355,-0.49371982014471744,0.7194847537635513,-0.783343165890809,0.08069851758851136,0.001340885080186924,4.323589102893876,4.129577831025024,-12.273017547445132,-12.465650633230295,0.0,0.0
17.7267427444458,-0.10231763124465942,0.1925523728132248,-9.193750381469727,0.006183922588627877,0.0023899078369140625,0.07356595993041992,4.177784858664976,-12.285769757972979,-0.5137198201447174,0.7214957108555131,-0.9593547685384478,0.08109813723245103,-0.0011501630058117142,4.3532725061740525,4.083738640729947,-12.223953799038702,-12.487942971639956,0.0,0.0
17.736766815185547,-0.10231763124465942,0.1925523728132248,-9.193750381469727,0.006183922588627877,0.0023894309997558594,0.07356595993041992,4.165378151416069,-12.263952266420459,-0.5337198201447174,0.7205764235737161,-0.9737661569453431,0.08055172752823411,-0.005835328542621297,4.395932602038382,4.023291386524484,-12.161418057893782,-12.520421090869966,0.0,0.0
17.746774196624756,-0.10377165675163269,0.18515640497207642,-9.142369270324707,0.008734520394023865,0.0032892227172851562,0.07356595993041992,4.152032853442981,-12.240372019893636,-0.5537198201447174,0.7238305137410631,-1.0,0.08073081120156382,-0.008060044824491071,4.457541705760983,3.942212982962575,-12.080561104486879,-12.567895558613298,0.0,0.0
17.756911516189575,-0.10377165675163269,0.18515640497207642,-9.142369270324707,0.008734520394023865,0.002426624298095703,0.07356595993041992,4.137726146774342,-12.214998179092241,-0.5737198201447175,0.722914366763162,-1.0,0.08055487216261249,-0.009630130429845486,4.546838925752005,3.831714134002116,-11.974142386843106,-12.637563682963991,0.0,0.0
17.766753673553467,-0.10419423133134842,0.18306416273117065,-9.125184059143066,0.009570953467145746,0.0027320384979248047,0.07356595993041992,4.122426518171505,-12.187802983721326,-0.5905235381707171,0.723376595754862,-1.0,0.0805942627847635,-0.010513423232607205,4.676049269864288,3.6795204474656655,-11.831590580404733,-12.739948935541221,0.0,0.0
17.77685570716858,-0.10458672046661377,0.18115946650505066,-9.107970237731934,0.010400919309917947,0.0023202896118164062,0.07356595993041992,4.105981482074769,-12.158827884876972,-0.6004392194810614,0.7238362124690813,-1.0,0.08072245768476477,-0.01118857979611733,4.860694358502614,3.4700619443295246,-11.637978933582087,-12.889925599258829,0.0,0.0
17.786709785461426,-0.10528376698493958,0.17791137099266052,-9.073559761047363,0.012034367324250075,0.0024919509887695312,0.07356595993041992,4.230324517143515,-12.37541619288036,-0.40371982014471736,0.725637561258811,-1.0,0.08102196285827386,-0.012343096007605771,4.267241269323585,4.244024450448915,-12.400361408518544,-12.423906294040469,0.0,0.0
17.7969172000885,-0.10558042675256729,0.17657466232776642,-9.05631160736084,0.012836934996918944,0.0021796226501464844,0.07356595993041992,4.22264488596564,-12.362845507564403,-0.4237198201447174,0.7260538834089489,-1.0,0.08115938241651362,-0.013493337052026624,4.271493085196215,4.231006908496505,-12.386188852910388,-12.427316972218335,0.0,0.0
17.880783319473267,-0.10753335058689117,0.18061667680740356,-8.86593246459961,0.020962379921300324,0.002214670181274414,0.0732872486114502,4.214162336682212,-12.348640522296884,-0.4437198201447174,0.72705713381523,-1.0,0.08044280412970614,-0.024024658898508296,4.278261447880146,4.214096486094081,-12.367236044641079,-12.43234737516142,0.0,0.0
17.889453649520874,-0.10753335058689117,0.18061667680740356,-8.86593246459961,0.020962379921300324,0.0027055740356445312,0.0732872486114502,4.204851379644358,-12.332783054383684,-0.4637198201447174,0.726122120389046,-1.0,0.08009323677378932,-0.02827748342073964,4.288318107579028,4.192470970504316,-12.342809391756562,-12.439674793871491,0.0,0.0
17.897051095962524,-0.10762584209442139,0.18301470577716827,-8.848630905151367,0.021632296166757513,0.002136707305908203,0.0732872486114502,4.194686761663686,-12.31525263128116,-0.4837198201447174,0.726333769312235,-1.0,0.07978025266415545,-0.03096380565143159,4.302834953121627,4.164907530550915,-12.311899088977505,-12.450288376807919,0.0,0.0
17.906969785690308,-0.10773710161447525,0.18815425038337708,-8.813987731933594,0.022932532953087035,0.0021533966064453125,0.0732872486114502,4.18364357589638,-12.296026479525526,-0.5037198201447174,0.727644435450166,-1.0,0.07928573362916949,-0.03385952524507679,4.323589102893876,4.129577831025024,-12.273017547445132,-12.465650633230295,0.0,0.0
17.916708946228027,-0.10775645822286606,0.1908898651599884,-8.796647071838379,0.023563222944810214,0.003541231155395508,0.0732872486114502,4.17169737266528,-12.275079518806603,-0.5237198201447174,0.7278108169873324,-1.0,0.07900564280951336,-0.03566014167067739,4.3532725061740525,4.083738640729947,-12.223953799038702,-12.487942971639956,0.0,0.0
17.926698923110962,-0.10775210708379745,0.19373205304145813,-8.779294967651367,0.024178580518534776,0.002160787582397461,0.0732872486114502,4.1588242709747805,-12.252384361221997,-0.5437198201447174,0.7279627032662251,-1.0,0.07878617280751206,-0.03710722906900574,4.395932602038382,4.023291386524484,-12.161418057893782,-12.520421090869966,0.0,0.0
17.93667244911194,-0.10772622376680374,0.19668352603912354,-8.76198673248291,0.024781344617881722,0.0026454925537109375,0.0732872486114502,4.145001070473074,-12.22791131573592,-0.5637198201447174,0.7280965167664005,-1.0,0.0785557665947194,-0.03841645602079991,4.457541705760983,3.942212982962575,-12.080561104486879,-12.567895558613298,0.0,0.0
17.946678638458252,-0.10760554671287537,0.20288395881652832,-8.727339744567871,0.025942731901429286,0.002159595489501953,0.0732872486114502,4.130205363616415,-12.201628397855057,-0.5830296198652847,0.7292496221590888,-1.0,0.07796077780455972,-0.04056079364986854,4.546838925752005,3.831714134002116,-11.974142386843106,-12.637563682963991,0.0,0.0
17.956822633743286,-0.10751133412122726,0.2061268389225006,-8.710005760192871,0.02649752955875171,0.002557992935180664,0.0732872486114502,4.114361125418578,-12.173532425210043,-0.5962962130225822,0.7293347346768069,-1.0,0.07765844177992616,-0.04173025526838274,4.676049269864288,3.6795204474656655,-11.831590580404733,-12.739948935541221,0.0,0.0
17.966798067092896,-0.10739508271217346,0.20946072041988373,-8.692666053771973,0.027035725938469847,0.0037436485290527344,0.0732872486114502,4.097260736216019,-12.143701282492792,-0.6030410659500034,0.7294020665919813,-1.0,0.07740903238458398,-0.04271820579743392,4.860694358502614,3.4700619443295246,-11.637978933582087,-12.889925599258829,0.0,0.0
17.976669311523438,-0.10725704580545425,0.21288226544857025,-8.675323486328125,0.02755657834730762,0.002106904983520508,0.0732872486114502,4.2265834669594495,-12.369334090337714,-0.41371982014471737,0.7294529987543644,-1.0,0.07715505921885607,-0.04363868603381468,4.267241269323585,4.244024450448915,-12.400361408518544,-12.423906294040469,0.0,0.0
17.98668360710144,-0.10709753632545471,0.2163882851600647,-8.65803050994873,0.028059875063238274,0.002376556396484375,0.0732872486114502,4.218505573451999,-12.35594838533933,-0.4337198201447174,0.7294878422977901,-1.0,0.07684628115805409,-0.044520907447564734,4.271493085196215,4.231006908496505,-12.386188852910388,-12.427316972218335,0.0,0.0
17.996953010559082,-0.10729888081550598,0.2214021384716034,-8.641016006469727,0.02854456757807032,0.0027594566345214844,0.0732872486114502,4.209611994281432,-12.340919574381875,-0.4537198201447174,0.7295106970806114,-1.0,0.07618258632225193,-0.04549448067390031,4.278261447880146,4.214096486094081,-12.367236044641079,-12.43234737516142,0.0,0.0
18.079782962799072,-0.10767379403114319,0.28465035557746887,-8.437115669250488,0.03305708908935151,0.0018813610076904297,0.07183313369750977,4.199877344361778,-12.32422833155009,-0.4737198201447174,0.7313397471887126,-0.8792241768930594,0.06656292971351437,-0.057713491206645054,4.288318107579028,4.192470970504316,-12.342809391756562,-12.439674793871491,0.0,0.0
18.086875438690186,-0.10767379403114319,0.28465035557746887,-8.437115669250488,0.03305708908935151,0.0024442672729492188,0.07183313369750977,4.18927652987706,-12.30585303490355,-0.49371982014471744,0.7304861819222324,-0.9528534803572534,0.06771213687827886,-0.04998199461955305,4.302834953121627,4.164907530550915,-12.311899088977505,-12.450288376807919,0.0,0.0
18.209505081176758,-0.10529857873916626,0.3813900649547577,-8.17520523071289,0.035116581975982705,0.002157926559448242,0.07183313369750977,4.177784858664976,-12.285769757972979,-0.5137198201447174,0.7398477846656577,-0.622758490264649,0.05064262762439698,-0.06494588514150108,4.323589102893876,4.129577831025024,-12.273017547445132,-12.465650633230295,0.0,0.0
18.2932448387146,-0.10529857873916626,0.3813900649547577,-8.17520523071289,0.035116581975982705,0.002010822296142578,0.0746452808380127,4.165378151416069,-12.263952266420459,-0.5337198201447174,0.7257242153715164,-0.5777235912847427,0.0527364929619696,-0.04821216228342955,4.3532725061740525,4.083738640729947,-12.223953799038702,-12.487942971639956,0.0,0.0
18.299952507019043,-0.10285984724760056,0.4495154619216919,-7.996070384979248,0.03415732272176494,0.0032384395599365234,0.0746452808380127,4.152032853442981,-12.240372019893636,-0.5537198201447174,0.7305654166762233,-0.16221827609806783,0.037842244726217056,-0.06225275212853503,4.395932602038382,4.023291386524484,-12.161418057893782,-12.520421090869966,0.0,0.0
18.30859613418579,-0.10285984724760056,0.4495154619216919,-7.996070384979248,0.03415732272176494,0.002173185348510742,0.0746452808380127,4.137726146774342,-12.214998179092241,-0.5737198201447175,0.7300657550154854,-0.16637863636524852,0.039164894341621355,-0.05191017745068085,4.457541705760983,3.942212982962575,-12.080561104486879,-12.567895558613298,0.0,0.0
18.316685676574707,-0.102210134267807,0.46102216839790344,-7.963799476623535,0.0338228927659191,0.0033943653106689453,0.0746452808380127,4.122426518171505,-12.187802983721326,-0.5905235381707171,0.730351891814177,-0.09414155580005301,0.035846518786174765,-0.05279744982380516,4.546838925752005,3.831714134002116,-11.974142386843106,-12.637563682963991,0.0,0.0
18.326653718948364,-0.10185452550649643,0.4666210412979126,-7.947705268859863,0.033634081793211146,0.0021102428436279297,0.0746452808380127,4.105981482074769,-12.158827884876972,-0.6004392194810614,0.7302494724381184,-0.05958162081628515,0.034789497783862124,-0.05103652159080027,4.676049269864288,3.6795204474656655,-11.831590580404733,-12.739948935541221,0.0,0.0
18.33672261238098,-0.1014789268374443,0.47211483120918274,-7.93168306350708,0.03343050089881133,0.0024220943450927734,0.0746452808380127,4.088172954524363,-12.12816535618329,-0.6041872070136082,0.7301692938158115,-0.024939611250440752,0.03353655835009303,-0.050642253250278005,4.860694358502614,3.4700619443295246,-11.637978933582087,-12.889925599258829,0.0,0.0
18.346680879592896,-0.10066989064216614,0.48278331756591797,-7.899700164794922,0.03298715206352115,0.0020825862884521484,0.0746452808380127,4.22264488596564,-12.362845507564403,-0.4237198201447174,0.7305502593622973,0.04818245301259361,0.03191679903963394,-0.050401108571129984,4.267241269323585,4.244024450448915,-12.400361408518544,-12.423906294040469,0.0,0.0
18.358345985412598,-0.10075601935386658,0.48827600479125977,-7.883598327636719,0.03275806550410426,0.0037255287170410156,0.0746452808380127,4.214162336682212,-12.348640522296884,-0.4437198201447174,0.7305208095589727,0.07875985999191404,0.03058876357606252,-0.05032724105837811,4.271493085196215,4.231006908496505,-12.386188852910388,-12.427316972218335,0.0,0.0
18.37104034423828,-0.10084296017885208,0.49891412258148193,-7.851458549499512,0.03233312899219715,0.0024428367614746094,0.0746452808380127,4.204851379644358,-12.332783054383684,-0.4637198201447174,0.7309646815116019,0.13705034603777144,0.028654034101095786,-0.05022826283343751,4.278261447880146,4.214096486094081,-12.367236044641079,-12.43234737516142,0.0,0.0
18.37729573249817,-0.10084296017885208,0.49891412258148193,-7.851458549499512,0.03233312899219715,0.002108335494995117,0.0746452808380127,4.194686761663686,-12.31525263128116,-0.4837198201447174,0.7304955897446,0.1320912533646399,0.028220381474839747,-0.04928601551629611,4.288318107579028,4.192470970504316,-12.342809391756562,-12.439674793871491,0.0,0.0
18.387134075164795,-0.10084546357393265,0.5040584802627563,-7.8354620933532715,0.032116456157607276,0.002786397933959961,0.0746452808380127,4.18364357589638,-12.296026479525526,-0.5037198201447174,0.7304919007660235,0.15440368376328795,0.02720918400448653,-0.04893534157496323,4.302834953121627,4.164907530550915,-12.311899088977505,-12.450288376807919,0.0,0.0
18.396861791610718,-0.10082156211137772,0.5090860724449158,-7.819482326507568,0.031899550453271364,0.002301454544067383,0.0746452808380127,4.17169737266528,-12.275079518806603,-0.5237198201447174,0.7304899130607813,0.17389846081076976,0.026269955601865232,-0.04850774080532141,4.323589102893876,4.129577831025024,-12.273017547445132,-12.465650633230295,0.0,0.0
18.481815814971924,-0.09842859953641891,0.559498131275177,-7.628835678100586,0.028860604660150307,0.0024442672729492188,0.07363176345825195,4.1588242709747805,-12.252384361221997,-0.5437198201447174,0.7327159934956671,0.3901185287280468,0.019878627119925597,-0.0494944273152422,4.3532725061740525,4.083738640729947,-12.223953799038702,-12.487942971639956,0.0,0.0
18.488523483276367,-0.09842859953641891,0.559498131275177,-7.628835678100586,0.028860604660150307,0.0023479461669921875,0.07363176345825195,4.145001070473074,-12.22791131573592,-0.5637198201447174,0.7324604791492879,0.3864270716620919,0.018804763411810164,-0.04673829888442997,4.395932602038382,4.023291386524484,-12.161418057893782,-12.520421090869966,0.0,0.0
18.496836185455322,-0.09785176813602448,0.5620661973953247,-7.612561225891113,0.028588706152832266,0.0023469924926757812,0.07363176345825195,4.130205363616415,-12.201628397855057,-0.5830296198652847,0.7326594932548827,0.3886722721388433,0.017700541672577407,-0.0450467867339081,4.457541705760983,3.942212982962575,-12.080561104486879,-12.567895558613298,0.0,0.0
18.50675654411316,-0.09666606783866882,0.5669598579406738,-7.58011531829834,0.02802991219302456,0.0024449825286865234,0.07363176345825195,4.114361125418578,-12.173532425210043,-0.5962962130225822,0.7333126620274917,0.3942692277453381,0.016624034886976204,-0.043643695911864816,4.546838925752005,3.831714134002116,-11.974142386843106,-12.637563682963991,0.0,0.0
18.516895294189453,-0.09605762362480164,0.5692880749702454,-7.563943386077881,0.027740942036478977,0.0035011768341064453,0.07363176345825195,4.097260736216019,-12.143701282492792,-0.6030410659500034,0.7334962339321773,0.393677342910627,0.015856529134150046,-0.04242532068798681,4.676049269864288,3.6795204474656655,-11.831590580404733,-12.739948935541221,0.0,0.0
18.526668548583984,-0.0954391211271286,0.5715388059616089,-7.547805309295654,0.027448187777907557,0.0022242069244384766,0.07363176345825195,4.078693187418503,-12.112233703350391,-0.6039600708164193,0.7336583554724806,0.39207452740626836,0.015206994896898338,-0.04142427041568309,4.860694358502614,3.4700619443295246,-11.637978933582087,-12.889925599258829,0.0,0.0
18.537039041519165,-0.09481077641248703,0.5737131834030151,-7.53175163269043,0.027152816534467078,0.0037081241607666016,0.07363176345825195,4.218505573451999,-12.35594838533933,-0.4337198201447174,0.7337957000192317,0.3889906174270299,0.014664913799865656,-0.04055200320635695,4.267241269323585,4.244024450448915,-12.400361408518544,-12.423906294040469,0.0,0.0
18.546772480010986,-0.09417267143726349,0.5758122205734253,-7.515733242034912,0.0268548106128563,0.002193927764892578,0.07363176345825195,4.209611994281432,-12.340919574381875,-0.4537198201447174,0.733920773725486,0.38389068695630757,0.01422809178843003,-0.039761594000126875,4.271493085196215,4.231006908496505,-12.386188852910388,-12.427316972218335,0.0,0.0
18.5567684173584,-0.09286826103925705,0.579790472984314,-7.483799457550049,0.026261822404695545,0.0025594234466552734,0.07363176345825195,4.199877344361778,-12.32422833155009,-0.4737198201447174,0.7344645020258166,0.37275363537396067,0.013869865603776106,-0.0388755735884458,4.278261447880146,4.214096486094081,-12.367236044641079,-12.43234737516142,0.0,0.0
18.5671124458313,-0.09219977259635925,0.5816876292228699,-7.467884540557861,0.025965553107324374,0.003665924072265625,0.07363176345825195,4.18927652987706,-12.30585303490355,-0.49371982014471744,0.7345602904245302,0.3614384717058535,0.013647738437545765,-0.03807611809443452,4.288318107579028,4.192470970504316,-12.342809391756562,-12.439674793871491,0.0,0.0
18.57676887512207,-0.09152247756719589,0.5835160613059998,-7.452004432678223,0.02566590962032511,0.002218961715698242,0.07363176345825195,4.177784858664976,-12.285769757972979,-0.5137198201447174,0.7346402053783806,0.34832991256087353,0.013486253922436358,-0.037391441896776685,4.302834953121627,4.164907530550915,-12.311899088977505,-12.450288376807919,0.0,0.0
18.587427139282227,-0.09014204144477844,0.5869753360748291,-7.420446395874023,0.025061864019947477,0.0039823055267333984,0.07363176345825195,4.165378151416069,-12.263952266420459,-0.5337198201447174,0.7351185492438416,0.3237452249227022,0.0134531002181396,-0.03657028366776877,4.323589102893876,4.129577831025024,-12.273017547445132,-12.465650633230295,0.0,0.0
18.67150592803955,-0.08440585434436798,0.5984190702438354,-7.2473578453063965,0.021706952053788253,0.002271890640258789,0.07340693473815918,4.152032853442981,-12.240372019893636,-0.5537198201447174,0.7339019817633273,0.2205253207151462,0.012481799493292615,-0.03433998627431031,4.3532725061740525,4.083738640729947,-12.223953799038702,-12.487942971639956,0.0,0.0
18.678485870361328,-0.08440585434436798,0.5984190702438354,-7.2473578453063965,0.021706952053788253,0.001956462860107422,0.07340693473815918,4.137726146774342,-12.214998179092241,-0.5737198201447175,0.7335971050240307,0.2148622179239802,0.011919018430352353,-0.032456992302676735,4.395932602038382,4.023291386524484,-12.161418057893782,-12.520421090869966,0.0,0.0
18.686728477478027,-0.08387082815170288,0.5991455912590027,-7.231879711151123,0.021399742814465716,0.002508401870727539,0.07340693473815918,4.122426518171505,-12.187802983721326,-0.5905235381707171,0.7336994300020336,0.19454025150097654,0.011490194900858362,-0.0312312107397835,4.457541705760983,3.942212982962575,-12.080561104486879,-12.567895558613298,0.0,0.0
18.69684147834778,-0.08332569897174835,0.599841833114624,-7.216439723968506,0.02109153122289062,0.0022094249725341797,0.07340693473815918,4.105981482074769,-12.158827884876972,-0.6004392194810614,0.73379432706391,0.17353735828504457,0.011235714009346373,-0.030230785693700673,4.546838925752005,3.831714134002116,-11.974142386843106,-12.637563682963991,0.0,0.0
18.706591367721558,-0.08277080953121185,0.6005100011825562,-7.201037406921387,0.020780243020009442,0.0022077560424804688,0.07340693473815918,4.088172954524363,-12.12816535618329,-0.6041872070136082,0.7338812118010006,0.15189703936126292,0.011042725754392186,-0.02941980594839063,4.676049269864288,3.6795204474656655,-11.831590580404733,-12.739948935541221,0.0,0.0
