time,x,y,z,yaw,ctrl_comp_time,rollout_comptime,y_ref,z_ref,yaw_ref,throttle,roll_rate,pitch_rate,yaw_rate,save_tube_pyH,save_tube_pyL,save_tube_pzH,save_tube_pzL,wy,wz
15.57831358909607,-0.04335038736462593,4.205661773681641,-12.445257186889648,0.0014953948931176603,0.0020678043365478516,0.10966062545776367,4.197543498172269,-12.388530544087372,-0.37302192834088754,0.6013453692367338,-0.9950050335438196,0.11212637375202979,0.30791191792889416,4.248620856467144,4.1532112710729505,-12.366089191135083,-12.423081603462359,0.0,0.0
15.585445404052734,-0.04335038736462593,4.205661773681641,-12.445257186889648,0.0014953948931176603,0.0023047924041748047,0.10966062545776367,4.190306755646892,-12.3751671959083,-0.39302192834088756,0.6002293589421472,-1.0,0.31848846162642086,0.5539559589644472,4.258343191510261,4.129672092223849,-12.341898028601287,-12.422220328707935,0.0,0.0
15.593912363052368,-0.045743126422166824,4.205755710601807,-12.445497512817383,0.001524022535731001,0.002017498016357422,0.10966062545776367,4.182403471022999,-12.36010412077368,-0.4130219283408876,0.5991775041774458,-1.0,0.46294192313849464,0.6769779794822235,4.272233809318362,4.100644603032192,-12.312065732564927,-12.423634913030599,0.0,0.0
15.60301661491394,-0.045743126422166824,4.205755710601807,-12.445497512817383,0.001524022535731001,0.0047435760498046875,0.10966062545776367,4.173821938289512,-12.343305164006328,-0.4330219283408876,0.5980572529395035,-1.0,0.5640593461969463,0.7384889897411118,4.292117756883962,4.064278530404579,-12.275164944531848,-12.428683032236858,0.0,0.0
15.613109111785889,-0.04801494628190994,4.2057976722717285,-12.445775985717773,0.0015907539571799606,0.0019109249114990234,0.10966062545776367,4.164552383640726,-12.324731609239205,-0.4530219283408876,0.5971357392290072,-1.0,0.6348415423378624,0.7692444948705559,4.320714891166677,4.017832498536003,-12.229256899159891,-12.439228558254738,0.0,0.0
15.623122453689575,-0.04801494628190994,4.2057976722717285,-12.445775985717773,0.0015907539571799606,0.0026450157165527344,0.10966062545776367,4.1545871193799915,-12.304342272075047,-0.47302192834088763,0.5960113307086403,-1.0,0.6843890796365037,0.784622247435278,4.362028937431471,3.9572852827485723,-12.171436719474793,-12.458096442843125,0.0,0.0
15.632864952087402,-0.051209598779678345,4.205787181854248,-12.44608211517334,0.0017319728850717503,0.003531217575073242,0.10966062545776367,4.143920693152535,-12.282093601925917,-0.49302192834088765,0.5956804149023436,-1.0,0.7190723557455526,0.7923111237176392,4.421927502904291,3.8767560990710983,-12.096502369098229,-12.490403960935845,0.0,0.0
15.645151376724243,-0.051209598779678345,4.205787181854248,-12.44608211517334,0.0017319728850717503,0.001965761184692383,0.10966062545776367,4.132550032122981,-12.257939791731921,-0.5130219283408877,0.594552533052439,-1.0,0.7433506490218869,0.7961555618588199,4.508796106096302,3.767850868418669,-11.996739028561528,-12.54377654596361,0.0,0.0
15.652718305587769,-0.051209598779678345,4.205787181854248,-12.44608211517334,0.0017319728850717503,0.002525806427001953,0.10966062545776367,4.120474581734573,-12.231832895241476,-0.5330219283408877,0.5934222460195767,-1.0,0.7603454543153207,0.79807778092941,4.633908594493819,3.619292081927486,-11.85967064721019,-12.630596465029853,0.0,0.0
15.662668228149414,-0.05417080223560333,4.205690383911133,-12.446216583251953,0.0017871181079280596,0.002344846725463867,0.10966062545776367,4.107696438709032,-12.203722951520232,-0.5530219283408877,0.593120190982221,-1.0,0.7722418180207246,0.7990388904647048,4.812415043028932,3.415931174325804,-11.665187437192348,-12.770875566796455,0.0,0.0
15.672914743423462,-0.05511163920164108,4.205633640289307,-12.4462308883667,0.0017885085830250114,0.0027761459350585938,0.10966062545776367,4.207178778418181,-12.40546113384374,-0.3430219283408875,0.5921543748403395,-1.0,0.7805692726145073,0.7995194452323526,4.2372225750255375,4.1884006691009965,-12.401396785652427,-12.428034784653903,0.0,0.0
15.682631015777588,-0.05603259429335594,4.205561637878418,-12.446237564086914,0.001837049856817971,0.002893686294555664,0.10966062545776367,4.20091606377005,-12.394585397298721,-0.36302192834088753,0.5911156204501511,-1.0,0.7863984908301551,0.7997597226161763,4.241850006293854,4.172507550542505,-12.385673120568363,-12.425249147119118,0.0,0.0
15.692728996276855,-0.05782089754939079,4.205369472503662,-12.446199417114258,0.0019885912943593403,0.002427339553833008,0.10966062545776367,4.194007641867058,-12.382059178654613,-0.38302192834088755,0.5905385916409394,-1.0,0.7904789435811086,0.7998798613080884,4.248620856467144,4.1532112710729505,-12.366089191135083,-12.423081603462359,0.0,0.0
15.702708721160889,-0.05868661776185036,4.205249786376953,-12.4461669921875,0.002061897284616615,0.0028133392333984375,0.10966062545776367,4.1864392061752795,-12.367850322797763,-0.40302192834088757,0.5894789583551646,-1.0,0.793335260506776,0.799939930654044,4.258343191510261,4.129672092223849,-12.341898028601287,-12.422220328707935,0.0,0.0
15.845837593078613,-0.0701841488480568,4.214017868041992,-12.443938255310059,0.0033254503782696454,0.0019235610961914062,0.13295221328735352,4.178198143644273,-12.351923988384353,-0.4230219283408876,0.6263397269809491,-0.3318293838111298,0.7953346823547432,0.799969965327022,4.272233809318362,4.100644603032192,-12.312065732564927,-12.423634913030599,0.0,0.0
15.852650165557861,-0.0701841488480568,4.214017868041992,-12.443938255310059,0.0033254503782696454,0.0023691654205322266,0.13295221328735352,4.169273694851343,-12.334242728707315,-0.4430219283408876,0.6252695554578243,-0.44797031252169317,0.7967342776483203,0.799984982663511,4.292117756883962,4.064278530404579,-12.275164944531848,-12.428683032236858,0.0,0.0
15.862629890441895,-0.07356488704681396,4.214484214782715,-12.438508987426758,0.0038943827943582476,0.002007007598876953,0.13295221328735352,4.159657110090024,-12.31476658115896,-0.4630219283408876,0.628920716941783,-0.38807357571499856,0.7609541890630496,0.7999924913317555,4.320714891166677,4.017832498536003,-12.229256899159891,-12.439228558254738,0.0,0.0
15.872945785522461,-0.07477784156799316,4.214491844177246,-12.436372756958008,0.004117469208134716,0.0031023025512695312,0.13295221328735352,4.149341800987698,-12.29345316501704,-0.48302192834088764,0.6294668470509495,-0.4469182232617911,0.6995914874229016,0.7999962456658778,4.362028937431471,3.9572852827485723,-12.171436719474793,-12.458096442843125,0.0,0.0
15.882622003555298,-0.07604050636291504,4.214419364929199,-12.434075355529785,0.004365738270688979,0.0022652149200439453,0.13295221328735352,4.138323487257488,-12.27025778726257,-0.5030219283408877,0.6299378842497252,-0.506839694235953,0.647599201791133,0.7999981228329389,4.421927502904291,3.8767560990710983,-12.096502369098229,-12.490403960935845,0.0,0.0
15.892927169799805,-0.07873696088790894,4.214005947113037,-12.429040908813477,0.004997917704603061,0.0022385120391845703,0.13295221328735352,4.126600338210656,-12.245133556120024,-0.5230219283408877,0.6316587274095302,-0.5033070615101977,0.5761259639142251,0.7999990614164694,4.508796106096302,3.767850868418669,-11.996739028561528,-12.54377654596361,0.0,0.0
15.903029918670654,-0.08018068224191666,4.213653087615967,-12.426323890686035,0.005399156117787823,0.0030832290649414062,0.13295221328735352,4.11417310867737,-12.218031501994403,-0.5430219283408877,0.6319286363424458,-0.5700915796274526,0.5057717276482082,0.7999995307082348,4.633908594493819,3.619292081927486,-11.85967064721019,-12.630596465029853,0.0,0.0
15.912611246109009,-0.08169405907392502,4.213196754455566,-12.423474311828613,0.005871943072259911,0.0020334720611572266,0.13295221328735352,4.101045269005998,-12.188900705465425,-0.5630219283408877,0.6321870456013904,-0.6411557560886796,0.44872631569482024,0.7999997653541174,4.812415043028932,3.415931174325804,-11.665187437192348,-12.770875566796455,0.0,0.0
15.923309087753296,-0.08327445387840271,4.212645530700684,-12.420495986938477,0.006432565798771661,0.002593517303466797,0.13295221328735352,4.198393041790241,-12.405561249991022,-0.3223626584839202,0.6324372350112987,-0.7163068915549948,0.4005488573349088,0.7999998826770588,4.221048460146259,4.180785885433625,-12.398815737855235,-12.420263191478886,0.0,0.0
15.932653188705444,-0.08667296916246414,4.211209297180176,-12.414154052734375,0.007900762421661323,0.0028388500213623047,0.13295221328735352,4.192882791583481,-12.396407882517488,-0.3423626584839202,0.6339697915790724,-0.7331492355011261,0.33418151607449703,0.7999999413385295,4.224931610102581,4.166499686540498,-12.384926648578078,-12.417443611825004,0.0,0.0
15.942984580993652,-0.08849862962961197,4.2103190422058105,-12.410792350769043,0.008834074385641266,0.001958131790161133,0.13295221328735352,4.186742288151782,-12.385636222598716,-0.36236265848392024,0.6342267622184027,-0.8149409203736321,0.27092920144008376,0.7999999706692648,4.230657950888273,4.149126749770049,-12.367479134779778,-12.414973076942514,0.0,0.0
15.952708005905151,-0.09041301161050797,4.209310054779053,-12.407302856445312,0.009908389592620387,0.002714872360229492,0.13295221328735352,4.179955611023924,-12.373216954397858,-0.38236265848392026,0.6344986257331683,-0.899329557609008,0.21967534547477438,0.7999999853346323,4.238882073777021,4.12797924368175,-12.345839110455584,-12.41342985039648,0.0,0.0
16.081265687942505,-0.1367180198431015,4.177364349365234,-12.330771446228027,0.04597748825433215,0.0019130706787109375,0.11853361129760742,4.17250836387703,-12.359118000957052,-0.4023626584839203,0.6710626803081762,0.31268755167072104,-0.16780250922865825,0.7999999926673163,4.250592472080177,4.102038316781918,-12.319130611689529,-12.41362848650896,0.0,0.0
16.08913254737854,-0.1367180198431015,4.177364349365234,-12.330771446228027,0.04597748825433215,0.002979278564453125,0.11853361129760742,4.164387838427199,-12.34330459589512,-0.4223626584839203,0.6703536793203401,0.1443120147613033,-0.30445315372129234,0.2675950872712838,4.267275006856013,4.069790962862595,-12.286141101959181,-12.416714659420817,0.0,0.0
16.097023010253906,-0.1405297815799713,4.174079895019531,-12.324837684631348,0.04897140600889993,0.0019028186798095703,0.11853361129760742,4.155583174715455,-12.325739363960372,-0.4423626584839203,0.670992308712933,0.0745143498185159,-0.45311720760490465,-0.39003894221177215,4.291153009146772,4.028990243052193,-12.245206406942007,-12.424280380595675,0.0,0.0
16.10310983657837,-0.1405297815799713,4.174079895019531,-12.324837684631348,0.04897140600889993,0.0024988651275634766,0.11853361129760742,4.146085517353948,-12.306382410188132,-0.46236265848392033,0.6703047516996744,-0.1010255895421136,-0.5571820453234333,-0.5950194711058862,4.325521217537762,3.976321664894941,-12.194074480231762,-12.438500402879178,0.0,0.0
16.112632274627686,-0.1543651819229126,4.163915634155273,-12.306807518005371,0.058257755065854094,0.001967191696166992,0.11853361129760742,4.135888167316645,-12.285191417391525,-0.48236265848392035,0.6736660405190339,0.034936339066445665,-0.6300274317264033,-0.697509735552943,4.375216336842781,3.906932931803814,-12.128701545857487,-12.463336264698684,0.0,0.0
16.123286724090576,-0.1591821163892746,4.160151481628418,-12.300505638122559,0.0615566960520908,0.0027663707733154297,0.11853361129760742,4.124986728878968,-12.262121751694542,-0.5023626584839204,0.674163441955048,-0.037978523938938524,-0.6810192022084823,-0.7487548677764716,4.447274931591131,3.8137763484001295,-12.042862470930718,-12.504926120514936,0.0,0.0
16.13269019126892,-0.16913849115371704,4.152018070220947,-12.287562370300293,0.06884918144069355,0.002546548843383789,0.11853361129760742,4.113379251331848,-12.237126575798719,-0.5223626584839204,0.6752835785133714,-0.0015584794519774015,-0.7167134415459376,-0.7743774338882358,4.551503225488268,3.6870393097975507,-11.926784955231852,-12.572950770114721,0.0,0.0
16.143515825271606,-0.1742972880601883,4.147608757019043,-12.280949592590332,0.07299253937882996,0.0022580623626708984,0.11853361129760742,4.101066365117355,-12.210156969658561,-0.5423626584839204,0.6752884701614351,-0.07827631246197997,-0.7416994090821564,-0.787188716944118,4.700685471698617,3.5139362092544157,-11.764629153632233,-12.683154270213976,0.0,0.0
16.15267825126648,-0.17958056926727295,4.14295768737793,-12.274260520935059,0.07750628902481158,0.0025572776794433594,0.11853361129760742,4.195715648321539,-12.40118513020154,-0.3323626584839202,0.675243288857487,-0.15814865730124872,-0.7591895863575095,-0.793594358472059,4.221048460146259,4.180785885433625,-12.398815737855235,-12.420263191478886,0.0,0.0
16.16261601448059,-0.18498769402503967,4.138059616088867,-12.267498970031738,0.08234693708807803,0.0020751953125,0.11853361129760742,4.189892350329161,-12.391226105861145,-0.35236265848392023,0.6751983670007371,-0.24205819758560088,-0.7714327104502567,-0.7967971792360294,4.224931610102581,4.166499686540498,-12.384926648578078,-12.417443611825004,0.0,0.0
16.173155784606934,-0.19051629304885864,4.1329121589660645,-12.260661125183105,0.08742645535797275,0.004145145416259766,0.11853361129760742,4.183430658729386,-12.379634480426029,-0.37236265848392025,0.6760443016090583,-0.3555619145380253,-0.7800028973151797,-0.7983985896180147,4.230657950888273,4.149126749770049,-12.367479134779778,-12.414973076942514,0.0,0.0
16.182602882385254,-0.19616299867630005,4.127514362335205,-12.25374698638916,0.09265915868692312,0.002830982208251953,0.11853361129760742,4.1763153944310485,-12.366379549099241,-0.39236265848392027,0.675926512035238,-0.44768730017222413,-0.7860020281206258,-0.7991992948090073,4.238882073777021,4.12797924368175,-12.345839110455584,-12.41342985039648,0.0,0.0
16.193069219589233,-0.2077949196100235,4.115968227386475,-12.239675521850586,0.10335437567858272,0.0028553009033203125,0.11853361129760742,4.168532984859305,-12.351427880689995,-0.4123626584839203,0.6766898032649433,-0.4339210947135901,-0.790201419684438,-0.7995996474045036,4.250592472080177,4.102038316781918,-12.319130611689529,-12.41362848650896,0.0,0.0
16.20287251472473,-0.21376687288284302,4.109830379486084,-12.232513427734375,0.10874981998093941,0.0033164024353027344,0.11853361129760742,4.160071626099483,-12.334743393768838,-0.4323626584839203,0.6766378551289036,-0.5348754375754958,-0.7931409937791067,-0.7997998237022518,4.267275006856013,4.069790962862595,-12.286141101959181,-12.416714659420817,0.0,0.0
16.33254313468933,-0.34167084097862244,3.9644010066986084,-12.08266830444336,0.1916140730536912,0.003068685531616211,0.11957502365112305,4.150921441216352,-12.316287441555467,-0.4523626584839203,0.6966280414341383,1.0,-0.7951986956453747,-0.799899911851126,4.291153009146772,4.028990243052193,-12.245206406942007,-12.424280380595675,0.0,0.0
16.343131065368652,-0.3504885137081146,3.9527688026428223,-12.07266902923584,0.19566849649759846,0.002560138702392578,0.11957502365112305,4.141074634323298,-12.296018905278082,-0.47236265848392034,0.6953362492251802,1.0,-0.7966390869517623,-0.799949955925563,4.325521217537762,3.976321664894941,-12.194074480231762,-12.438500402879178,0.0,0.0
16.352777242660522,-0.359281450510025,3.9408886432647705,-12.062597274780273,0.19963239488115317,0.003256082534790039,0.11957502365112305,4.13052563999563,-12.273894295722824,-0.49236265848392036,0.695693320526802,1.0,-0.7976473608662337,-0.7999749779627815,4.375216336842781,3.906932931803814,-12.128701545857487,-12.463336264698684,0.0,0.0
16.36263632774353,-0.36804503202438354,3.9287586212158203,-12.052460670471191,0.203503480081447,0.0024056434631347656,0.11957502365112305,4.11927126764291,-12.249867862673284,-0.5123626584839204,0.6959138794963114,1.0,-0.7983531526063636,-0.7999874889813907,4.447274931591131,3.8137763484001295,-12.042862470930718,-12.504926120514936,0.0,0.0
16.373867750167847,-0.38546451926231384,3.903715133666992,-12.031997680664062,0.21082299217473832,0.003428220748901367,0.11957502365112305,4.107310840476517,-12.223891711923102,-0.5323626584839204,0.69626110021607,1.0,-0.7988472068244545,-0.7999937444906954,4.551503225488268,3.6870393097975507,-11.926784955231852,-12.572950770114721,0.0,0.0
16.38261842727661,-0.3941105902194977,3.8907880783081055,-12.021682739257812,0.21423690444801585,0.0029816627502441406,0.11957502365112305,4.094646328730654,-12.195915929529386,-0.5523626584839204,0.6963012242205067,1.0,-0.7991930447771182,-0.7999968722453478,4.700685471698617,3.5139362092544157,-11.764629153632233,-12.683154270213976,0.0,0.0
16.392976760864258,-0.4027082324028015,3.8775901794433594,-12.011311531066895,0.21749237167841415,0.0029404163360595703,0.11957502365112305,4.192882791583481,-12.396407882517488,-0.3423626584839202,0.6964059706662168,1.0,-0.7994351313439827,-0.799998436122674,4.221048460146259,4.180785885433625,-12.398815737855235,-12.420263191478886,0.0,0.0
16.40268063545227,-0.41125360131263733,3.8641223907470703,-12.000883102416992,0.22060227103157803,0.0028693675994873047,0.11957502365112305,4.186742288151782,-12.385636222598716,-0.36236265848392024,0.6965344154874059,0.9075253363906659,-0.7996045919407879,-0.799999218061337,4.224931610102581,4.166499686540498,-12.384926648578078,-12.417443611825004,0.0,0.0
16.412678956985474,-0.4281744062900543,3.836395502090454,-11.979866981506348,0.22648537654662296,0.0024728775024414062,0.11957502365112305,4.179955611023924,-12.373216954397858,-0.38236265848392026,0.6968896235508271,0.9108386252076843,-0.7997232143585515,-0.7999996090306686,4.230657950888273,4.149126749770049,-12.367479134779778,-12.414973076942514,0.0,0.0
16.424871683120728,-0.43654319643974304,3.8221356868743896,-11.969273567199707,0.22929744157733264,0.0031251907348632812,0.11957502365112305,4.17250836387703,-12.359118000957052,-0.4023626584839203,0.6970340739728679,0.7674617911648105,-0.799806250050986,-0.7999998045153344,4.238882073777021,4.12797924368175,-12.345839110455584,-12.41342985039648,0.0,0.0
16.432626724243164,-0.44484665989875793,3.8076162338256836,-11.958626747131348,0.23202515496463447,0.0026366710662841797,0.11957502365112305,4.164387838427199,-12.34330459589512,-0.4223626584839203,0.697219841385752,0.6146958551285435,-0.7998643750356903,-0.7999999022576673,4.250592472080177,4.102038316781918,-12.319130611689529,-12.41362848650896,0.0,0.0
16.443081617355347,-0.453081876039505,3.792841672897339,-11.947925567626953,0.23465790371151102,0.0026912689208984375,0.11957502365112305,4.155583174715455,-12.325739363960372,-0.4423626584839203,0.6974261596599141,0.453252060311677,-0.7999050625249833,-0.7999999511288336,4.267275006856013,4.069790962862595,-12.286141101959181,-12.416714659420817,0.0,0.0
16.452990531921387,-0.4693359136581421,3.762545347213745,-11.926372528076172,0.23961323049925978,0.003321409225463867,0.11957502365112305,4.146085517353948,-12.306382410188132,-0.46236265848392033,0.6978175510267617,0.3922397161249924,-0.7999335437674883,-0.7999999755644168,4.291153009146772,4.028990243052193,-12.245206406942007,-12.424280380595675,0.0,0.0
16.58016562461853,-0.5934409499168396,3.4745261669158936,-11.739782333374023,0.26479043917570355,0.002418994903564453,0.11716222763061523,4.135888167316645,-12.285191417391525,-0.48236265848392035,0.7071420658636594,0.753927601249694,-0.7897411271699304,-0.7999999877822084,4.325521217537762,3.976321664894941,-12.194074480231762,-12.438500402879178,0.0,0.0
16.588224172592163,-0.5934409499168396,3.4745261669158936,-11.739782333374023,0.26479043917570355,0.003694295883178711,0.11716222763061523,4.124986728878968,-12.262121751694542,-0.5023626584839204,0.7066470813450059,0.46932572843852727,-0.7848747804570754,-0.7999999938911042,4.375216336842781,3.906932931803814,-12.128701545857487,-12.463336264698684,0.0,0.0
16.595366954803467,-0.5934409499168396,3.4745261669158936,-11.739782333374023,0.26479043917570355,0.0023403167724609375,0.11716222763061523,4.113379251331848,-12.237126575798719,-0.5223626584839204,0.7067860798152132,0.18168795015708805,-0.781878810356518,-0.7999999969455521,4.447274931591131,3.8137763484001295,-12.042862470930718,-12.504926120514936,0.0,0.0
16.602757692337036,-0.6072050333023071,3.4323878288269043,-11.716002464294434,0.26609572530369097,0.0038139820098876953,0.11716222763061523,4.101066365117355,-12.210156969658561,-0.5423626584839204,0.7067686004953071,0.11614386432710821,-0.7499320503435524,-0.7585462549857568,4.551503225488268,3.6870393097975507,-11.926784955231852,-12.572950770114721,0.0,0.0
16.612651348114014,-0.6072050333023071,3.4323878288269043,-11.716002464294434,0.26609572530369097,0.0024194717407226562,0.11716222763061523,4.088051412055219,-12.181162058226482,-0.5623626584839204,0.7069046312986776,-0.17921002372847894,-0.7319868456117493,-0.7310305611747723,4.700685471698617,3.5139362092544157,-11.764629153632233,-12.683154270213976,0.0,0.0
16.622966527938843,-0.6267338395118713,3.3682987689971924,-11.680086135864258,0.26732366632089727,0.003618955612182617,0.11716222763061523,4.189892350329161,-12.391226105861145,-0.35236265848392023,0.7067851973758364,-0.14711890431901375,-0.6689510396222125,-0.6033697338093453,4.221048460146259,4.180785885433625,-12.398815737855235,-12.420263191478886,0.0,0.0
16.63269281387329,-0.6267338395118713,3.3682987689971924,-11.680086135864258,0.26732366632089727,0.003563404083251953,0.11716222763061523,4.183430658729386,-12.379634480426029,-0.37236265848392025,0.7069528049805349,-0.45019812218210276,-0.6380628427208248,-0.565323389844246,4.224931610102581,4.166499686540498,-12.384926648578078,-12.417443611825004,0.0,0.0
16.64529037475586,-0.6389563679695129,3.32499361038208,-11.655996322631836,0.26760243396714817,0.0024247169494628906,0.11716222763061523,4.1763153944310485,-12.366379549099241,-0.39236265848392027,0.7068468410017491,-0.5384387120173448,-0.5807295447909339,-0.4467384518304164,4.230657950888273,4.149126749770049,-12.367479134779778,-12.414973076942514,0.0,0.0
16.652668237686157,-0.6389563679695129,3.32499361038208,-11.655996322631836,0.26760243396714817,0.0031893253326416016,0.11716222763061523,4.168532984859305,-12.351427880689995,-0.4123626584839203,0.7070318838137062,-0.8489409011357953,-0.5575252399931281,-0.4365586321172952,4.238882073777021,4.12797924368175,-12.345839110455584,-12.41342985039648,0.0,0.0
16.662650108337402,-0.6560099124908447,3.259195566177368,-11.619705200195312,0.2670808764990975,0.002553224563598633,0.11716222763061523,4.160071626099483,-12.334743393768838,-0.4323626584839203,0.7066932210997859,-0.8238472987334728,-0.47068728553885875,-0.25014251821965966,4.250592472080177,4.102038316781918,-12.319130611689529,-12.41362848650896,0.0,0.0
16.67412519454956,-0.6560099124908447,3.259195566177368,-11.619705200195312,0.2670808764990975,0.003880023956298828,0.11716222763061523,4.150921441216352,-12.316287441555467,-0.4523626584839203,0.706908441690396,-0.9117717769304816,-0.4642822786705016,-0.37313000955949926,4.267275006856013,4.069790962862595,-12.286141101959181,-12.416714659420817,0.0,0.0
16.682588815689087,-0.6664835810661316,3.2147953510284424,-11.595410346984863,0.26604349729712956,0.0033156871795654297,0.11716222763061523,4.141074634323298,-12.296018905278082,-0.47236265848392034,0.7067080059371615,-0.7503809958810064,-0.3876177885844014,-0.21681418137824304,4.291153009146772,4.028990243052193,-12.245206406942007,-12.424280380595675,0.0,0.0
16.692951440811157,-0.6664835810661316,3.2147953510284424,-11.595410346984863,0.26604349729712956,0.0028121471405029297,0.11716222763061523,4.13052563999563,-12.273894295722824,-0.49236265848392036,0.7069249457342737,-0.8288137720218269,-0.3833146121636693,-0.3309803047250903,4.325521217537762,3.976321664894941,-12.194074480231762,-12.438500402879178,0.0,0.0
16.702842950820923,-0.6807823777198792,3.1474356651306152,-11.558818817138672,0.26343425151033856,0.003107786178588867,0.11716222763061523,4.11927126764291,-12.249867862673284,-0.5123626584839204,0.7063479856630489,-0.512877783313739,-0.2927321643413587,-0.1536082112263883,4.375216336842781,3.906932931803814,-12.128701545857487,-12.463336264698684,0.0,0.0
16.71265482902527,-0.6807823777198792,3.1474356651306152,-11.558818817138672,0.26343425151033856,0.0024633407592773438,0.11716222763061523,4.107310840476517,-12.223891711923102,-0.5323626584839204,0.7065894843250013,-0.5908187551662853,-0.28072791850036216,-0.26223777045519525,4.447274931591131,3.8137763484001295,-12.042862470930718,-12.504926120514936,0.0,0.0
16.83824348449707,-0.7207226157188416,2.8120012283325195,-11.382275581359863,0.24237296639391806,0.004020214080810547,0.1164240837097168,4.094646328730654,-12.195915929529386,-0.5523626584839204,0.690976578730905,1.0,0.008882453705905874,0.3109383606266528,4.551503225488268,3.6870393097975507,-11.926784955231852,-12.572950770114721,0.0,0.0
16.848443269729614,-0.7207226157188416,2.8120012283325195,-11.382275581359863,0.24237296639391806,0.004239320755004883,0.1164240837097168,4.081282476817371,-12.165888712961141,-0.5723626584839204,0.6917732551941138,1.0,0.07634947676560412,0.016892043542402483,4.700685471698617,3.5139362092544157,-11.764629153632233,-12.683154270213976,0.0,0.0
16.858802556991577,-0.7239176630973816,2.7371459007263184,-11.343255996704102,0.2374956106166705,0.0032739639282226562,0.1164240837097168,4.186742288151782,-12.385636222598716,-0.36236265848392024,0.6908182307852447,1.0,0.19660403365898238,-0.11578033270143173,4.221048460146259,4.180785885433625,-12.398815737855235,-12.420263191478886,0.0,0.0
16.866332292556763,-0.7237979769706726,2.7115895748138428,-11.330767631530762,0.23590769007603157,0.002949953079223633,0.1164240837097168,4.179955611023924,-12.373216954397858,-0.38236265848392026,0.6905288052451527,1.0,0.30776469917692895,-0.21260335725049034,4.224931610102581,4.166499686540498,-12.384926648578078,-12.417443611825004,0.0,0.0
16.873539209365845,-0.7237979769706726,2.7115895748138428,-11.330767631530762,0.23590769007603157,0.0037927627563476562,0.1164240837097168,4.17250836387703,-12.359118000957052,-0.4023626584839203,0.6905998866005902,1.0,0.39052004846538113,-0.2945198486985298,4.230657950888273,4.149126749770049,-12.367479134779778,-12.414973076942514,0.0,0.0
16.882603406906128,-0.7221556305885315,2.6341538429260254,-11.292868614196777,0.23170249800367,0.002827882766723633,0.1164240837097168,4.164387838427199,-12.34330459589512,-0.4223626584839203,0.6894054158960496,1.0,0.5133640339257668,-0.35918282472559415,4.238882073777021,4.12797924368175,-12.345839110455584,-12.41342985039648,0.0,0.0
16.89297604560852,-0.7211706638336182,2.6080703735351562,-11.280095100402832,0.23035528706220026,0.0033173561096191406,0.1164240837097168,4.155583174715455,-12.325739363960372,-0.4423626584839203,0.6891609883745414,1.0,0.5993548237480367,-0.4373901740868761,4.250592472080177,4.102038316781918,-12.319130611689529,-12.41362848650896,0.0,0.0
16.90282130241394,-0.7185431122779846,2.555493116378784,-11.254319190979004,0.22708492551211598,0.003075122833251953,0.1164240837097168,4.146085517353948,-12.306382410188132,-0.46236265848392033,0.6887302247500902,1.0,0.6595483766236258,-0.5125528842173349,4.267275006856013,4.069790962862595,-12.286141101959181,-12.416714659420817,0.0,0.0
16.912636041641235,-0.7169016599655151,2.5290024280548096,-11.241312026977539,0.22500028975347905,0.0024590492248535156,0.1164240837097168,4.135888167316645,-12.285191417391525,-0.48236265848392035,0.6887082093500431,1.0,0.701683863636538,-0.5751891077902491,4.291153009146772,4.028990243052193,-12.245206406942007,-12.424280380595675,0.0,0.0
16.92297625541687,-0.7150413990020752,2.50237774848938,-11.22822093963623,0.22256141328340248,0.003837108612060547,0.1164240837097168,4.124986728878968,-12.262121751694542,-0.5023626584839204,0.688726423149301,1.0,0.7311787045455767,-0.6253783594519027,4.325521217537762,3.976321664894941,-12.194074480231762,-12.438500402879178,0.0,0.0
16.93268132209778,-0.7129631638526917,2.475620985031128,-11.215047836303711,0.21973887061035097,0.0035047531127929688,0.1164240837097168,4.113379251331848,-12.237126575798719,-0.5223626584839204,0.6887861075849149,1.0,0.7518250931819037,-0.6654413281397701,4.375216336842781,3.906932931803814,-12.128701545857487,-12.463336264698684,0.0,0.0
16.945229291915894,-0.7129631638526917,2.475620985031128,-11.215047836303711,0.21973887061035097,0.002634286880493164,0.1164240837097168,4.101066365117355,-12.210156969658561,-0.5423626584839204,0.6889180270719667,1.0,0.7662775652273326,-0.6915900107387,4.447274931591131,3.8137763484001295,-12.042862470930718,-12.504926120514936,0.0,0.0
17.07499599456787,-0.6319437623023987,1.9764682054519653,-10.960161209106445,0.13182872855141886,0.0032320022583007812,0.11792588233947754,4.088051412055219,-12.181162058226482,-0.5623626584839204,0.7070683802528055,1.0,0.7763942956591329,-0.74579500536935,4.551503225488268,3.6870393097975507,-11.926784955231852,-12.572950770114721,0.0,0.0
17.082501888275146,-0.6256944537162781,1.9479701519012451,-10.945361137390137,0.1261954694313219,0.0023908615112304688,0.11792588233947754,4.074340569352183,-12.150089145915238,-0.5823626584839204,0.7066795540506067,1.0,0.7834760069613931,-0.772897502684675,4.700685471698617,3.5139362092544157,-11.764629153632233,-12.683154270213976,0.0,0.0
17.093011140823364,-0.6193152070045471,1.9194190502166748,-10.930519104003906,0.1205432210069646,0.0033273696899414062,0.11792588233947754,4.183430658729386,-12.379634480426029,-0.37236265848392025,0.7070994732156619,1.0,0.7884332048729752,-0.7864487513423375,4.221048460146259,4.180785885433625,-12.398815737855235,-12.420263191478886,0.0,0.0
17.102768421173096,-0.6045094132423401,1.8612983226776123,-10.900519371032715,0.10918658220145178,0.002816915512084961,0.11792588233947754,4.1763153944310485,-12.366379549099241,-0.39236265848392027,0.7078048290041575,1.0,0.7919032434110826,-0.7932243756711688,4.224931610102581,4.166499686540498,-12.384926648578078,-12.417443611825004,0.0,0.0
17.11273741722107,-0.5961268544197083,1.8317633867263794,-10.885380744934082,0.1036130643096824,0.0024406909942626953,0.11792588233947754,4.168532984859305,-12.351427880689995,-0.4123626584839203,0.7080607608887278,1.0,0.7943322703877579,-0.7966121878355844,4.230657950888273,4.149126749770049,-12.367479134779778,-12.414973076942514,0.0,0.0
17.123008251190186,-0.5876551270484924,1.8022080659866333,-10.87022590637207,0.09802412919249323,0.003835439682006836,0.11792588233947754,4.160071626099483,-12.334743393768838,-0.4323626584839203,0.7082929159879855,1.0,0.7960325892714306,-0.7983060939177923,4.238882073777021,4.12797924368175,-12.345839110455584,-12.41342985039648,0.0,0.0
17.132684230804443,-0.579097330570221,1.7726362943649292,-10.855059623718262,0.09241364482880135,0.0026743412017822266,0.11792588233947754,4.150921441216352,-12.316287441555467,-0.4523626584839203,0.7085006163714223,1.0,0.7972228124900015,-0.7991530469588962,4.250592472080177,4.102038316781918,-12.319130611689529,-12.41362848650896,0.0,0.0
17.14278483390808,-0.5617377758026123,1.713460922241211,-10.824700355529785,0.08112350627519446,0.0023794174194335938,0.11792588233947754,4.141074634323298,-12.296018905278082,-0.47236265848392034,0.7082806792023837,1.0,0.798055968743001,-0.7995765234794481,4.267275006856013,4.069790962862595,-12.286141101959181,-12.416714659420817,0.0,0.0
17.152732133865356,-0.5529435276985168,1.6838666200637817,-10.8095121383667,0.07545271699871728,0.004377603530883789,0.11792588233947754,4.13052563999563,-12.273894295722824,-0.49236265848392036,0.708134206410432,1.0,0.7986391781201008,-0.7997882617397241,4.291153009146772,4.028990243052193,-12.245206406942007,-12.424280380595675,0.0,0.0
17.16515302658081,-0.5529435276985168,1.6838666200637817,-10.8095121383667,0.07545271699871728,0.0036334991455078125,0.11792588233947754,4.11927126764291,-12.249867862673284,-0.5123626584839204,0.7080666869022483,1.0,0.7990474246840705,-0.799894130869862,4.325521217537762,3.976321664894941,-12.194074480231762,-12.438500402879178,0.0,0.0
17.175329208374023,-0.5351457595825195,1.6246883869171143,-10.779132843017578,0.06407236983742984,0.002809762954711914,0.11792588233947754,4.107310840476517,-12.223891711923102,-0.5323626584839204,0.7078335832650676,1.0,0.7993331972788494,-0.7999470654349311,4.375216336842781,3.906932931803814,-12.128701545857487,-12.463336264698684,0.0,0.0
17.1831693649292,-0.5261502861976624,1.5951143503189087,-10.76394271850586,0.058363827639094756,0.0020928382873535156,0.11792588233947754,4.094646328730654,-12.195915929529386,-0.5523626584839204,0.7076839529071796,1.0,0.7995332380951946,-0.7999735327174656,4.447274931591131,3.8137763484001295,-12.042862470930718,-12.504926120514936,0.0,0.0
17.30404782295227,-0.5261502861976624,1.5951143503189087,-10.76394271850586,0.058363827639094756,0.0026578903198242188,0.10788512229919434,4.081282476817371,-12.165888712961141,-0.5723626584839204,0.6839071419306344,1.0,0.7996732666666363,-0.7999867663587329,4.551503225488268,3.6870393097975507,-11.926784955231852,-12.572950770114721,0.0,0.0
17.312957048416138,-0.3623882830142975,1.0935885906219482,-10.5048828125,-0.03795830320410214,0.0019190311431884766,0.10788512229919434,4.067226924118953,-12.133756508784911,-0.5923626584839204,0.6844120869471483,1.0,0.7997712866666454,-0.7999933831793664,4.700685471698617,3.5139362092544157,-11.764629153632233,-12.683154270213976,0.0,0.0
17.322898626327515,-0.352568119764328,1.0646892786026,-10.489614486694336,-0.04352150933343893,0.0026090145111083984,0.10788512229919434,4.179955611023924,-12.373216954397858,-0.38236265848392026,0.6843083359959921,1.0,0.7998399006666518,-0.7999966915896832,4.221048460146259,4.180785885433625,-12.398815737855235,-12.420263191478886,0.0,0.0
17.3327534198761,-0.3427664339542389,1.035912275314331,-10.47434139251709,-0.049069189680637226,0.0019683837890625,0.10788512229919434,4.17250836387703,-12.359118000957052,-0.4023626584839203,0.6842423592283148,0.9578075470489549,0.7998879304666563,-0.7999983457948416,4.224931610102581,4.166499686540498,-12.384926648578078,-12.417443611825004,0.0,0.0
17.342968463897705,-0.3232353627681732,0.9787272214889526,-10.443757057189941,-0.06011038466746141,0.002355337142944336,0.10788512229919434,4.164387838427199,-12.34330459589512,-0.4223626584839203,0.6847186755738326,0.8271385018927429,0.7999215513266594,-0.7999991728974208,4.230657950888273,4.149126749770049,-12.367479134779778,-12.414973076942514,0.0,0.0
17.35266923904419,-0.3130669593811035,0.9502381682395935,-10.428611755371094,-0.06560160379656527,0.004345417022705078,0.10788512229919434,4.155583174715455,-12.325739363960372,-0.4423626584839203,0.6848899012696812,0.7027712315276687,0.7999450859286616,-0.7999995864487105,4.238882073777021,4.12797924368175,-12.345839110455584,-12.41342985039648,0.0,0.0
17.36508846282959,-0.3130669593811035,0.9502381682395935,-10.428611755371094,-0.06560160379656527,0.0030639171600341797,0.10788512229919434,4.146085517353948,-12.306382410188132,-0.46236265848392033,0.6845538428244479,0.5920628142703387,0.7999615601500631,-0.7999997932243553,4.250592472080177,4.102038316781918,-12.319130611689529,-12.41362848650896,0.0,0.0
17.373863697052002,-0.2928541302680969,0.8936806321144104,-10.398210525512695,-0.0764347943082623,0.002858400344848633,0.10788512229919434,4.135888167316645,-12.285191417391525,-0.48236265848392035,0.685397647245435,0.452769844900345,0.7999730921050442,-0.7999998966121777,4.267275006856013,4.069790962862595,-12.286141101959181,-12.416714659420817,0.0,0.0
17.38260269165039,-0.27282899618148804,0.8377142548561096,-10.367637634277344,-0.08717339233472338,0.0020248889923095703,0.10788512229919434,4.124986728878968,-12.262121751694542,-0.5023626584839204,0.6864036395827335,0.3074373328074429,0.799981164473531,-0.7999999483060889,4.291153009146772,4.028990243052193,-12.245206406942007,-12.424280380595675,0.0,0.0
17.39305830001831,-0.2628924250602722,0.8099621534347534,-10.35228157043457,-0.09250792584346944,0.003144979476928711,0.10788512229919434,4.113379251331848,-12.237126575798719,-0.5223626584839204,0.6954652701434902,0.23883032204249133,0.7999868151314717,-0.7999999741530445,4.325521217537762,3.976321664894941,-12.194074480231762,-12.438500402879178,0.0,0.0
17.40294575691223,-0.25301307439804077,0.7823718786239624,-10.33687973022461,-0.09782203668650472,0.004965305328369141,0.10788512229919434,4.101066365117355,-12.210156969658561,-0.5423626584839204,0.6958457358375983,0.12540267960514673,0.7999907705920303,-0.7852698906927521,4.375216336842781,3.906932931803814,-12.128701545857487,-12.463336264698684,0.0,0.0
17.413623809814453,-0.24319429695606232,0.7549479007720947,-10.321429252624512,-0.10311294492828185,0.0024678707122802734,0.10788512229919434,4.088051412055219,-12.181162058226482,-0.5623626584839204,0.6962153250395866,0.014585026948189528,0.7999935394144212,-0.7580861432381523,4.447274931591131,3.8137763484001295,-12.042862470930718,-12.504926120514936,0.0,0.0
17.542860507965088,-0.24319429695606232,0.7549479007720947,-10.321429252624512,-0.10311294492828185,0.0032837390899658203,0.12102198600769043,4.074340569352183,-12.150089145915238,-0.5823626584839204,0.6753529318258246,1.0,0.7999954775900948,-0.7262572915100619,4.551503225488268,3.6870393097975507,-11.926784955231852,-12.572950770114721,0.0,0.0
17.552841424942017,-0.08271762728691101,0.2965310215950012,-10.031880378723145,-0.1977135849686233,0.0029213428497314453,0.12102198600769043,4.059942967109007,-12.116883857414768,-0.6023626584839205,0.7000449879212483,0.9192572384768124,0.3983755575028777,-0.5775949880131259,4.700685471698617,3.5139362092544157,-11.764629153632233,-12.683154270213976,0.0,0.0
17.56270933151245,-0.07486969232559204,0.27304789423942566,-10.015183448791504,-0.2031473473663304,0.0025391578674316406,0.12102198600769043,4.1763153944310485,-12.366379549099241,-0.39236265848392027,0.7004504853998422,0.8902774152047972,0.23298588670851145,-0.3520964655473774,4.221048460146259,4.180785885433625,-12.398815737855235,-12.420263191478886,0.0,0.0
17.572943687438965,-0.06714750826358795,0.24976229667663574,-9.998434066772461,-0.20861615329936925,0.0038123130798339844,0.12102198600769043,4.168532984859305,-12.351427880689995,-0.4123626584839203,0.70088309013306,0.8644445613089206,0.10401511879880943,-0.1327883556639733,4.224931610102581,4.166499686540498,-12.384926648578078,-12.417443611825004,0.0,0.0
17.582634925842285,-0.05955444276332855,0.22667419910430908,-9.981626510620117,-0.21411890052421767,0.002692699432373047,0.12102198600769043,4.160071626099483,-12.334743393768838,-0.4323626584839203,0.7013482839321725,0.8387312489625874,-0.012237080372565034,0.07129262887720322,4.230657950888273,4.149126749770049,-12.367479134779778,-12.414973076942514,0.0,0.0
17.59287190437317,-0.05209435150027275,0.20378358662128448,-9.964759826660156,-0.21964494713449745,0.0031325817108154297,0.12102198600769043,4.150921441216352,-12.316287441555467,-0.4523626584839203,0.7018113892804655,0.8102673690410637,-0.12107294083470607,0.25911266725948545,4.238882073777021,4.12797924368175,-12.345839110455584,-12.41342985039648,0.0,0.0
17.602851629257202,-0.03769902139902115,0.1600765734910965,-9.930672645568848,-0.23077226760629002,0.003255605697631836,0.12102198600769043,4.141074634323298,-12.296018905278082,-0.47236265848392034,0.7037475646961296,0.751000915777199,-0.24470942695050035,0.4450934238063814,4.250592472080177,4.102038316781918,-12.319130611689529,-12.41362848650896,0.0,0.0
17.612740755081177,-0.030772188678383827,0.13923943042755127,-9.913469314575195,-0.23629214299955137,0.0024785995483398438,0.12102198600769043,4.13052563999563,-12.273894295722824,-0.49236265848392036,0.7041506105181461,0.6955731533544579,-0.3415747458798471,0.6009589324662086,4.267275006856013,4.069790962862595,-12.286141101959181,-12.416714659420817,0.0,0.0
17.623035430908203,-0.0239937212318182,0.1185837909579277,-9.896236419677734,-0.24177680319108313,0.0037000179290771484,0.12102198600769043,4.11927126764291,-12.249867862673284,-0.5123626584839204,0.7045252202232286,0.6348547340306543,-0.4193403489371817,0.7004794662331043,4.291153009146772,4.028990243052193,-12.245206406942007,-12.424280380595675,0.0,0.0
17.63273525238037,-0.017366616055369377,0.09811440110206604,-9.87897777557373,-0.24718918369588125,0.003134489059448242,0.12102198600769043,4.107310840476517,-12.223891711923102,-0.5323626584839204,0.704874756304087,0.569760013983434,-0.47491700573673157,0.7502397331165521,4.325521217537762,3.976321664894941,-12.194074480231762,-12.438500402879178,0.0,0.0
17.64287519454956,-0.004577516112476587,0.0577562116086483,-9.844405174255371,-0.2576573295232003,0.003209352493286133,0.12102198600769043,4.094646328730654,-12.195915929529386,-0.5523626584839204,0.7065262770948191,0.43880770184712725,-0.5152343902043325,0.775119866558276,4.375216336842781,3.906932931803814,-12.128701545857487,-12.463336264698684,0.0,0.0
17.653031826019287,0.0015798608073964715,0.03787883743643761,-9.827104568481445,-0.26266728463163597,0.005523681640625,0.12102198600769043,4.081282476817371,-12.165888712961141,-0.5723626584839204,0.7067308754721965,0.36154665015798304,-0.5343568037486314,0.7875599332791381,4.447274931591131,3.8137763484001295,-12.042862470930718,-12.504926120514936,0.0,0.0
17.66614055633545,0.0015798608073964715,0.03787883743643761,-9.827104568481445,-0.26266728463163597,0.0041658878326416016,0.12102198600769043,4.067226924118953,-12.133756508784911,-0.5923626584839204,0.7056133992902233,0.35460225795090516,-0.5419739655996586,0.7937799666395691,4.551503225488268,3.6870393097975507,-11.926784955231852,-12.572950770114721,0.0,0.0
17.79530954360962,0.08207225799560547,-0.2706599831581116,-9.51136589050293,-0.3219797268046172,0.0029942989349365234,0.1173858642578125,4.052490319143997,-12.099464156519641,-0.6123626584839205,0.7198764569819034,-0.5752471318521208,-0.4359527736301402,0.7193711058794654,4.700685471698617,3.5139362092544157,-11.764629153632233,-12.683154270213976,0.0,0.0
17.803283214569092,0.08207225799560547,-0.2706599831581116,-9.51136589050293,-0.3219797268046172,0.0028569698333740234,0.1173858642578125,4.17250836387703,-12.359118000957052,-0.4023626584839203,0.7185422938147709,-0.5725722053883846,-0.40630295417092627,0.7267093638159416,4.221048460146259,4.180785885433625,-12.398815737855235,-12.420263191478886,0.0,0.0
17.812809944152832,0.08799824118614197,-0.299104243516922,-9.475532531738281,-0.3250683798253038,0.0026934146881103516,0.1173858642578125,4.164387838427199,-12.34330459589512,-0.4223626584839203,0.7205254214558847,-0.7651465889395637,-0.3848643927980092,0.7149264102337393,4.224931610102581,4.166499686540498,-12.384926648578078,-12.417443611825004,0.0,0.0
17.8229820728302,0.09079131484031677,-0.3129691779613495,-9.457552909851074,-0.3263794813484033,0.0037412643432617188,0.1173858642578125,4.155583174715455,-12.325739363960372,-0.4423626584839203,0.7208838776637115,-0.8562012918733066,-0.3733210759139063,0.6802136343144318,4.230657950888273,4.149126749770049,-12.367479134779778,-12.414973076942514,0.0,0.0
17.832697868347168,0.09348918497562408,-0.32658621668815613,-9.43953800201416,-0.3275383525909092,0.0025262832641601562,0.1173858642578125,4.146085517353948,-12.306382410188132,-0.46236265848392033,0.721199755066818,-0.944637879606931,-0.36019989555407,0.6490781447674284,4.238882073777021,4.12797924368175,-12.345839110455584,-12.41342985039648,0.0,0.0
17.842902660369873,0.09348918497562408,-0.32658621668815613,-9.43953800201416,-0.3275383525909092,0.0031790733337402344,0.1173858642578125,4.135888167316645,-12.285191417391525,-0.48236265848392035,0.7200012523674556,-0.9273240038395207,-0.35479343251415363,0.6173848621747854,4.250592472080177,4.102038316781918,-12.319130611689529,-12.41362848650896,0.0,0.0
17.852636337280273,0.10102932900190353,-0.36590173840522766,-9.385342597961426,-0.32984523791655807,0.0034513473510742188,0.1173858642578125,4.124986728878968,-12.262121751694542,-0.5023626584839204,0.7230109384979604,-1.0,-0.33330598690606533,0.6071795094960597,4.267275006856013,4.069790962862595,-12.286141101959181,-12.416714659420817,0.0,0.0
17.86280870437622,0.10102932900190353,-0.36590173840522766,-9.385342597961426,-0.32984523791655807,0.0029332637786865234,0.1173858642578125,4.113379251331848,-12.237126575798719,-0.5223626584839204,0.7217604499200609,-1.0,-0.32955870420128314,0.5799090499651413,4.291153009146772,4.028990243052193,-12.245206406942007,-12.424280380595675,0.0,0.0
17.873066902160645,0.10520458221435547,-0.40054312348365784,-9.332045555114746,-0.3303440433171071,0.005710601806640625,0.1173858642578125,4.101066365117355,-12.210156969658561,-0.5423626584839204,0.7244826539617876,-1.0,-0.326032955151466,0.5652302262892192,4.325521217537762,3.976321664894941,-12.194074480231762,-12.438500402879178,0.0,0.0
17.8828022480011,0.10520458221435547,-0.40054312348365784,-9.332045555114746,-0.3303440433171071,0.0024347305297851562,0.1173858642578125,4.088051412055219,-12.181162058226482,-0.5623626584839204,0.7232496874389149,-1.0,-0.3231598273774025,0.5576960242231475,4.375216336842781,3.906932931803814,-12.128701545857487,-12.463336264698684,0.0,0.0
17.893176317214966,0.10765746235847473,-0.4224044978618622,-9.296342849731445,-0.32984734476091737,0.003645181655883789,0.1173858642578125,4.074340569352183,-12.150089145915238,-0.5823626584839204,0.7246187039067981,-1.0,-0.3277298365295862,0.5489070711492047,4.447274931591131,3.8137763484001295,-12.042862470930718,-12.504926120514936,0.0,0.0
17.903136253356934,0.10765746235847473,-0.4224044978618622,-9.296342849731445,-0.32984734476091737,0.005955934524536133,0.1173858642578125,4.059942967109007,-12.116883857414768,-0.6023626584839205,0.7234386333565135,-1.0,-0.32711318728885025,0.548752236239042,4.551503225488268,3.6870393097975507,-11.926784955231852,-12.572950770114721,0.0,0.0
17.916465997695923,0.10765746235847473,-0.4224044978618622,-9.296342849731445,-0.32984734476091737,0.0043561458587646484,0.1173858642578125,4.044870799062974,-12.08149028449087,-0.6212965285845272,0.7223223639875465,-1.0,-0.32684869449015574,0.5486286292653832,4.700685471698617,3.5139362092544157,-11.764629153632233,-12.683154270213976,0.0,0.0
18.037359952926636,0.11690255254507065,-0.5567683577537537,-8.98398494720459,-0.30875335838864026,0.0034236907958984375,0.10901546478271484,4.168532984859305,-12.351427880689995,-0.4123626584839203,0.7344017658972386,0.5912120791673018,-0.42466008724157556,0.4423007134549766,4.221048460146259,4.180785885433625,-12.398815737855235,-12.420263191478886,0.0,0.0
18.04665780067444,0.11690255254507065,-0.5567683577537537,-8.98398494720459,-0.30875335838864026,0.0025453567504882812,0.10901546478271484,4.160071626099483,-12.334743393768838,-0.4323626584839203,0.7334897763787119,0.6530563686251047,-0.4221314933334937,0.5142570639801605,4.224931610102581,4.166499686540498,-12.384926648578078,-12.417443611825004,0.0,0.0
18.05398464202881,0.11616095900535583,-0.5714619755744934,-8.927351951599121,-0.3024325503251941,0.0034799575805664062,0.10901546478271484,4.150921441216352,-12.316287441555467,-0.4523626584839203,0.7356347530150674,0.7166961575354072,-0.4431814304839646,0.5638682978400195,4.230657950888273,4.149126749770049,-12.367479134779778,-12.414973076942514,0.0,0.0
18.064462661743164,0.11616095900535583,-0.5714619755744934,-8.927351951599121,-0.3024325503251941,0.0027952194213867188,0.10901546478271484,4.141074634323298,-12.296018905278082,-0.47236265848392034,0.7348001852472957,0.7844531189955732,-0.45286775447415806,0.5795036839305909,4.238882073777021,4.12797924368175,-12.345839110455584,-12.41342985039648,0.0,0.0
18.072816610336304,0.11575081944465637,-0.5761107206344604,-8.908463478088379,-0.30016793173703926,0.003287792205810547,0.10901546478271484,4.13052563999563,-12.273894295722824,-0.49236265848392036,0.7349525264078444,0.8596109812147752,-0.4615511676367127,0.5831793996378176,4.250592472080177,4.102038316781918,-12.319130611689529,-12.41362848650896,0.0,0.0
18.08262586593628,0.11525766551494598,-0.5806416273117065,-8.889571189880371,-0.2978435586163297,0.0024290084838867188,0.10901546478271484,4.11927126764291,-12.249867862673284,-0.5123626584839204,0.7350301371713158,0.9377655829796563,-0.4681702745378954,0.5780858710854787,4.267275006856013,4.069790962862595,-12.286141101959181,-12.416714659420817,0.0,0.0
18.09308695793152,0.11401264369487762,-0.5893629193305969,-8.85184097290039,-0.29303945907323337,0.003434896469116211,0.10901546478271484,4.107310840476517,-12.223891711923102,-0.5323626584839204,0.735739451672207,1.0,-0.4748126168110993,0.5702257029349254,4.291153009146772,4.028990243052193,-12.245206406942007,-12.424280380595675,0.0,0.0
18.102848291397095,0.11325886100530624,-0.5935607552528381,-8.833014488220215,-0.2905715518598946,0.0031311511993408203,0.10901546478271484,4.094646328730654,-12.195915929529386,-0.5523626584839204,0.7356903097932022,1.0,-0.4740580810797935,0.5530057213648732,4.325521217537762,3.976321664894941,-12.194074480231762,-12.438500402879178,0.0,0.0
18.112766981124878,0.1124405562877655,-0.5976691842079163,-8.81421184539795,-0.28805800473004445,0.0028548240661621094,0.10901546478271484,4.081282476817371,-12.165888712961141,-0.5723626584839204,0.7356591862743646,1.0,-0.4702116029023223,0.5424618236730776,4.375216336842781,3.906932931803814,-12.128701545857487,-12.463336264698684,0.0,0.0
18.12308955192566,0.11129005253314972,-0.6001890301704407,-8.794818878173828,-0.28550400156356204,0.003415822982788086,0.10901546478271484,4.067226924118953,-12.133756508784911,-0.5923626584839204,0.73567985299121,1.0,-0.4647011431032388,0.5329528664322789,4.447274931591131,3.8137763484001295,-12.042862470930718,-12.504926120514936,0.0,0.0
18.132707834243774,0.10875783115625381,-0.6050043106079102,-8.756148338317871,-0.28027847030378694,0.002499818801879883,0.10901546478271484,4.052490319143997,-12.099464156519641,-0.6123626584839205,0.7364564576960931,1.0,-0.45060101790190493,0.5119433554242075,4.551503225488268,3.6870393097975507,-11.926784955231852,-12.572950770114721,0.0,0.0
18.142794609069824,0.10738055408000946,-0.6072967648506165,-8.736871719360352,-0.27761335022585165,0.0032291412353515625,0.10901546478271484,4.03706667024414,-12.062963347968404,-0.6283251659610842,0.7364637694238544,1.0,-0.4378570650831259,0.4932841348241945,4.700685471698617,3.5139362092544157,-11.764629153632233,-12.683154270213976,0.0,0.0
18.15309739112854,0.10441625118255615,-0.611640453338623,-8.698430061340332,-0.272199860672346,0.00353240966796875,0.10901546478271484,4.164387838427199,-12.34330459589512,-0.4223626584839203,0.737200934308073,1.0,-0.4149768408692948,0.4590158221966244,4.221048460146259,4.180785885433625,-12.398815737855235,-12.420263191478886,0.0,0.0
18.28750514984131,0.06585203111171722,-0.6278208494186401,-8.393912315368652,-0.22773455401357573,0.0030999183654785156,0.12376046180725098,4.155583174715455,-12.325739363960372,-0.4423626584839203,0.736163428388197,-0.9814464948460713,-0.1905622813731269,0.05242549403250744,4.224931610102581,4.166499686540498,-12.384926648578078,-12.417443611825004,0.0,0.0
18.29741644859314,0.06585203111171722,-0.6278208494186401,-8.393912315368652,-0.22773455401357573,0.002819061279296875,0.12376046180725098,4.146085517353948,-12.306382410188132,-0.46236265848392033,0.7352415144902771,-0.9325397746544222,-0.16642463563335846,0.24748711442158933,4.230657950888273,4.149126749770049,-12.367479134779778,-12.414973076942514,0.0,0.0
18.307720184326172,0.059471286833286285,-0.6269537210464478,-8.356040954589844,-0.22221502116274483,0.0051174163818359375,0.12376046180725098,4.135888167316645,-12.285191417391525,-0.48236265848392035,0.7359025684480204,-1.0,-0.1694814589575459,0.28269986691136256,4.238882073777021,4.12797924368175,-12.345839110455584,-12.41342985039648,0.0,0.0
18.31963062286377,0.059471286833286285,-0.6269537210464478,-8.356040954589844,-0.22221502116274483,0.003880023956298828,0.12376046180725098,4.124986728878968,-12.262121751694542,-0.5023626584839204,0.7349684295272914,-1.0,-0.1738908660425701,0.29092375328103687,4.250592472080177,4.102038316781918,-12.319130611689529,-12.41362848650896,0.0,0.0
18.329312324523926,0.05313317850232124,-0.6254563927650452,-8.318221092224121,-0.21674521139936387,0.0032198429107666016,0.12376046180725098,4.113379251331848,-12.237126575798719,-0.5223626584839204,0.7355999749789358,-1.0,-0.15222155927449935,0.3016333783182069,4.267275006856013,4.069790962862595,-12.286141101959181,-12.416714659420817,0.0,0.0
18.33755373954773,0.046857476234436035,-0.6232818365097046,-8.2804594039917,-0.21140992926948843,0.0029206275939941406,0.12376046180725098,4.101066365117355,-12.210156969658561,-0.5423626584839204,0.7359111306288326,-1.0,-0.1271920332311983,0.2967437265031758,4.291153009146772,4.028990243052193,-12.245206406942007,-12.424280380595675,0.0,0.0
18.346282958984375,0.046857476234436035,-0.6232818365097046,-8.2804594039917,-0.21140992926948843,0.002568960189819336,0.12376046180725098,4.088051412055219,-12.181162058226482,-0.5623626584839204,0.734979566583404,-1.0,-0.1242520265334299,0.28076383602139804,4.325521217537762,3.976321664894941,-12.194074480231762,-12.438500402879178,0.0,0.0
18.353851079940796,0.03759542107582092,-0.6186391115188599,-8.224029541015625,-0.20318930900717558,0.002915620803833008,0.12376046180725098,4.074340569352183,-12.150089145915238,-0.5823626584839204,0.7358558475931045,-1.0,-0.09575701548113089,0.27762835898724314,4.375216336842781,3.906932931803814,-12.128701545857487,-12.463336264698684,0.0,0.0
18.362859964370728,0.03365368768572807,-0.6157093644142151,-8.204726219177246,-0.2003243973986624,0.0030181407928466797,0.12376046180725098,4.059942967109007,-12.116883857414768,-0.6023626584839205,0.735607080684736,-1.0,-0.08744095755270759,0.26125584642611605,4.447274931591131,3.8137763484001295,-12.042862470930718,-12.504926120514936,0.0,0.0
18.37299609184265,0.029756082221865654,-0.6126116514205933,-8.185452461242676,-0.19739806375169075,0.0034656524658203125,0.12376046180725098,4.044870799062974,-12.08149028449087,-0.6212965285845272,0.7353952981394176,-1.0,-0.08204531402301372,0.2500534309141777,4.551503225488268,3.6870393097975507,-11.926784955231852,-12.572950770114721,0.0,0.0
18.38262391090393,0.02590232528746128,-0.6093466877937317,-8.166207313537598,-0.19442875960205488,0.002519845962524414,0.12376046180725098,4.029043375498142,-12.043892071952056,-0.6335516018764065,0.7352021289423379,-1.0,-0.07813313820041744,0.24179883238978955,4.700685471698617,3.5139362092544157,-11.764629153632233,-12.683154270213976,0.0,0.0
18.521236658096313,-0.03736095502972603,-0.5163114070892334,-7.823217868804932,-0.13991681749149015,0.002928495407104492,0.12874364852905273,4.160071626099483,-12.334743393768838,-0.4323626584839203,0.7465673519381718,0.26238481010671333,-0.0934436898163674,0.16567479065623408,4.221048460146259,4.180785885433625,-12.398815737855235,-12.420263191478886,0.0,0.0
18.530194759368896,-0.03736095502972603,-0.5163114070892334,-7.823217868804932,-0.13991681749149015,0.0027861595153808594,0.12874364852905273,4.150921441216352,-12.316287441555467,-0.4523626584839203,0.7457929717340765,0.36920849897944286,-0.08363981403545334,0.16439714671449476,4.224931610102581,4.166499686540498,-12.384926648578078,-12.417443611825004,0.0,0.0
18.53809642791748,-0.04064047336578369,-0.5087852478027344,-7.804330348968506,-0.1370032368614965,0.003106355667114258,0.12874364852905273,4.141074634323298,-12.296018905278082,-0.47236265848392034,0.7457442963981095,0.3838275073356405,-0.08228941806470332,0.16044527688658863,4.230657950888273,4.149126749770049,-12.367479134779778,-12.414973076942514,0.0,0.0
18.54746413230896,-0.04064047336578369,-0.5087852478027344,-7.804330348968506,-0.1370032368614965,0.002830982208251953,0.12874364852905273,4.13052563999563,-12.273894295722824,-0.49236265848392036,0.7449841626716835,0.39175486859625774,-0.08205018091353508,0.15823140979866443,4.238882073777021,4.12797924368175,-12.345839110455584,-12.41342985039648,0.0,0.0
18.555896759033203,-0.04710853844881058,-0.49356982111930847,-7.7666425704956055,-0.13121616639057587,0.003520488739013672,0.12874364852905273,4.11927126764291,-12.249867862673284,-0.5123626584839204,0.7456485252934326,0.3828755207956307,-0.08322630712153428,0.15607446874402078,4.250592472080177,4.102038316781918,-12.319130611689529,-12.41362848650896,0.0,0.0
18.56386089324951,-0.04710853844881058,-0.49356982111930847,-7.7666425704956055,-0.13121616639057587,0.0026276111602783203,0.12874364852905273,4.107310840476517,-12.223891711923102,-0.5323626584839204,0.7449010105870943,0.3899199754115439,-0.0834424191504712,0.1551796443626394,4.267275006856013,4.069790962862595,-12.286141101959181,-12.416714659420817,0.0,0.0
18.57279682159424,-0.056593820452690125,-0.470402330160141,-7.7104315757751465,-0.12274017940292907,0.003611326217651367,0.12874364852905273,4.094646328730654,-12.195915929529386,-0.5523626584839204,0.7457821942955907,0.3570409427981034,-0.08506421284615094,0.15221881743474777,4.291153009146772,4.028990243052193,-12.245206406942007,-12.424280380595675,0.0,0.0
18.582693099975586,-0.05969998612999916,-0.462603896856308,-7.691803455352783,-0.11998669095305839,0.0026302337646484375,0.12874364852905273,4.081282476817371,-12.165888712961141,-0.5723626584839204,0.7455644437918434,0.3356851270154766,-0.08563690592241292,0.15048209278663266,4.325521217537762,3.976321664894941,-12.194074480231762,-12.438500402879178,0.0,0.0
18.593089818954468,-0.0658419206738472,-0.44691213965415955,-7.6547040939331055,-0.11459631746679327,0.0033502578735351562,0.12874364852905273,4.067226924118953,-12.133756508784911,-0.5923626584839204,0.7458318209009713,0.26399906013303,-0.08557450617394023,0.1470658722302464,4.375216336842781,3.906932931803814,-12.128701545857487,-12.463336264698684,0.0,0.0
18.602760076522827,-0.06887805461883545,-0.4390203058719635,-7.636233329772949,-0.11195748833122196,0.00350189208984375,0.12874364852905273,4.052490319143997,-12.099464156519641,-0.6123626584839205,0.7455828662641163,0.22093801760637688,-0.0850536593893905,0.1457178223847695,4.447274931591131,3.8137763484001295,-12.042862470930718,-12.504926120514936,0.0,0.0
18.612815618515015,-0.0715738832950592,-0.42882126569747925,-7.617287635803223,-0.10935358833446687,0.002991914749145508,0.12874364852905273,4.03706667024414,-12.062963347968404,-0.6283251659610842,0.7453520245983533,0.1615823300852277,-0.08399317232679368,0.14418818825967172,4.551503225488268,3.6870393097975507,-11.926784955231852,-12.572950770114721,0.0,0.0
18.622960805892944,-0.07424751669168472,-0.41863611340522766,-7.598407745361328,-0.10682919556946512,0.0038962364196777344,0.12874364852905273,4.0207667672823835,-12.024286200464596,-0.6370750777264437,0.7451150565480513,0.09802156033981002,-0.08253919501062532,0.14283633897715048,4.700685471698617,3.5139362092544157,-11.764629153632233,-12.683154270213976,0.0,0.0
18.747591018676758,-0.07424751669168472,-0.41863611340522766,-7.598407745361328,-0.10682919556946512,0.002979278564453125,0.11503720283508301,4.155583174715455,-12.325739363960372,-0.4423626584839203,0.7348465253258863,-0.9478678248534047,-0.08251243836358141,0.1433810184060778,4.221048460146259,4.180785885433625,-12.398815737855235,-12.420263191478886,0.0,0.0
18.756882190704346,-0.11545789986848831,-0.2441965639591217,-7.286567687988281,-0.06833270121850368,0.0030279159545898438,0.11503720283508301,4.146085517353948,-12.306382410188132,-0.46236265848392033,0.743038246553957,-1.0,-0.035574131989585506,0.13312400876185884,4.224931610102581,4.166499686540498,-12.384926648578078,-12.417443611825004,0.0,0.0
18.764137268066406,-0.11545789986848831,-0.2441965639591217,-7.286567687988281,-0.06833270121850368,0.001986980438232422,0.11503720283508301,4.135888167316645,-12.285191417391525,-0.48236265848392035,0.7422450605161308,-1.0,-0.03718380295214402,0.08234614501760577,4.230657950888273,4.149126749770049,-12.367479134779778,-12.414973076942514,0.0,0.0
