time,x,y,z,yaw,ctrl_comp_time,rollout_comptime,y_ref,z_ref,yaw_ref,throttle,roll_rate,pitch_rate,yaw_rate,save_tube_pyH,save_tube_pyL,save_tube_pzH,save_tube_pzL,wy,wz
15.01396894454956,-0.01619636081159115,-2.4505467414855957,-3.7444028854370117,0.012782648419777274,0.1489267349243164,0.11846184730529785,-2.447675731010044,-3.7409332437511216,0.11208584412774282,0.46352556240409337,1.0,0.01870826089800672,-0.010637553807883761,-2.419229373592671,-2.4771389794818193,-3.71239021668596,-3.7707437550021607,-0.9429088704230412,0.29200792192925085
15.597163915634155,-0.009276340715587139,-2.448216199874878,-3.751025915145874,0.027352136720529902,0.1963214874267578,0.07031559944152832,-2.4463856475161894,-3.7394673677037784,0.13208584412774282,0.46332130886322664,1.0,0.016021912484527945,-0.04298670540835344,-2.4060375815468924,-2.4881205810876654,-3.6989034631659266,-3.781564377301108,0.7469299181245926,-1.791496319281235
15.689196109771729,-0.015403068624436855,-2.4416463375091553,-3.768481492996216,0.04009439209384624,0.0025017261505126953,0.06837153434753418,-2.4446742258868914,-3.737725050886436,0.15208584412774284,0.46193850983050355,0.7748085131935333,-0.0740821174785857,-0.0239878809042136,-2.3896232246762827,-2.501550520630964,-3.6823386226863644,-3.794924880803424,0.7469299181245926,-1.791496319281235
15.697560787200928,-0.015403068624436855,-2.4416463375091553,-3.768481492996216,0.04009439209384624,0.0024712085723876953,0.06837153434753418,-2.442473342692822,-3.735689372370544,0.17208584412774286,0.4619438027549314,0.8215964928317665,-0.16393678582421634,0.060287065009359014,-2.3694578818631644,-2.5178205293879006,-3.6622410555008886,-3.811249057372214,2.607985263650224,-0.6211782689252774
15.704392671585083,-0.015403068624436855,-2.4416463375091553,-3.768481492996216,0.04009439209384624,0.0025186538696289062,0.06837153434753418,-2.439715393272587,-3.733340414359621,0.19208584412774288,0.4619487905968066,0.8695610542552853,-0.27807755772474374,0.22048368179131028,-2.34487426826411,-2.5374621387474803,-3.6380147517810397,-3.831096078772245,2.607985263650224,-0.6211782689252774
15.71473741531372,-0.016954652965068817,-2.439954996109009,-3.7700724601745605,0.04070533232196933,0.0026464462280273438,0.06837153434753418,-2.436333393750923,-3.7306552613891397,0.2120858441277429,0.46237285073027734,0.8342592965285455,-0.4346542904073206,0.48435626859064845,-2.3150158046120666,-2.561197313799608,-3.6088718026314535,-3.8552110203741776,2.607985263650224,-0.6211782689252774
15.722122192382812,-0.016954652965068817,-2.439954996109009,-3.7700724601745605,0.04070533232196933,0.0028486251831054688,0.06837153434753418,-2.4322610840848213,-3.7276080032637458,0.2320858441277429,0.46237738088861347,0.8845511741530818,-0.5442580032851244,0.6421781342953242,-2.2787666993505313,-2.590008576304962,-3.57376428373848,-3.8845929796246876,2.607985263650224,-0.6211782689252774
15.729750156402588,-0.016954652965068817,-2.439954996109009,-3.7700724601745605,0.04070533232196933,0.002705097198486328,0.06837153434753418,-2.427433031976975,-3.724169741801506,0.25208584412774293,0.4623814100596816,0.9360483850012367,-0.6209806022995871,0.7210890671476622,-2.234654909591592,-2.625236250737091,-3.53129191948017,-3.9205874216014642,2.607985263650224,-0.6211782689252774
15.739874839782715,-0.019325973466038704,-2.4366772174835205,-3.77227520942688,0.041592973692610516,0.002863168716430664,0.06837153434753418,-2.421784737492726,-3.7203086014472637,0.27208584412774295,0.4623401098135016,0.857797206309794,-0.6746864216097109,0.7605445335738311,-2.1807122095882168,-2.6687186043818443,-3.479570061012766,-3.9650182182697717,2.607985263650224,-0.6211782689252774
15.749630451202393,-0.019325973466038704,-2.4366772174835205,-3.77227520942688,0.041592973692610516,0.0028967857360839844,0.06837153434753418,-2.4152527382138826,-3.7159897438094287,0.2911898534140247,0.4623422694870405,0.9116183945220789,-0.7122804951267977,0.7802722667869156,-2.1142857814417653,-2.7229804664426087,-3.4160532888905464,-4.020364071000141,0.04912955602951374,-1.420553327700281
15.759875297546387,-0.021130528301000595,-2.4340462684631348,-3.7738397121429443,0.04222540825301937,0.0030243396759033203,0.06837153434753418,-2.407766256988472,-3.7111899796303325,0.3060172362599818,0.46248201142101575,0.8677205968660029,-0.7385963465887584,0.7901361333934579,-2.0318066141189703,-2.7914608444532685,-3.3373214119916352,-4.08997902799317,0.04912955602951374,-1.420553327700281
15.76979398727417,-0.021130528301000595,-2.4340462684631348,-3.7738397121429443,0.04222540825301937,0.0030128955841064453,0.06837153434753418,-2.399250984047182,-3.705909451661025,0.316670043810994,0.46248119387856645,0.9239340308874264,-0.7570174426121309,0.7950680666967289,-1.9286042954018674,-2.8786784514262695,-3.238929412318399,-4.178289417679326,0.04912955602951374,-1.420553327700281
15.780351638793945,-0.0247413981705904,-2.4277284145355225,-3.7762277126312256,0.04568678314491882,0.0029006004333496094,0.06837153434753418,-2.4492677558838043,-3.7430898658102136,0.07208584412774284,0.46297096460329035,0.778413341425205,-0.7699122098284916,0.7975340333483645,-2.437571923074739,-2.461446540222366,-3.731455709769364,-3.755491703389137,0.04912955602951374,-1.420553327700281
15.789773225784302,-0.0247413981705904,-2.4277284145355225,-3.7762277126312256,0.04568678314491882,0.0030553340911865234,0.06837153434753418,-2.4486151226667103,-3.742138845220024,0.09208584412774283,0.4629643411936176,0.8369776428171425,-0.7789385468799441,0.7987670166741823,-2.4296256984607205,-2.468319501698479,-3.7231509138344245,-3.7621395125498234,0.04912955602951374,-1.420553327700281
15.799782752990723,-0.0247413981705904,-2.4277284145355225,-3.7762277126312256,0.04568678314491882,0.0030417442321777344,0.06837153434753418,-2.4476786934840074,-3.740936421817904,0.11208584412774282,0.46295595899397557,0.8968122089594626,-0.7852569828159609,0.7993835083370912,-2.4192314542987723,-2.4771419313412557,-3.712392457948622,-3.7707468880548727,0.04912955602951374,-1.420553327700281
15.810404300689697,-0.026394980028271675,-2.424049139022827,-3.776918411254883,0.04929779370857716,0.003022909164428711,0.06837153434753418,-2.4463896053006633,-3.739471652270837,0.13208584412774282,0.46337272342431524,0.8386234696581172,-0.7896798879711726,0.7996917541685457,-2.406040442623874,-2.4881246062237814,-3.6989065721448244,-3.7815686893246934,0.04912955602951374,-1.420553327700281
15.819792032241821,-0.026394980028271675,-2.424049139022827,-3.776918411254883,0.04929779370857716,0.003198385238647461,0.06837153434753418,-2.44467931360449,-3.737730608917555,0.15208584412774284,0.4633582127374075,0.9009486311382039,-0.7927759215798208,0.7998458770842728,-2.389626998201809,-2.501555759339034,-3.68234275382738,-3.7949305504085604,0.04912955602951374,-1.420553327700281
15.830662488937378,-0.02881501615047455,-2.4176483154296875,-3.777520179748535,0.05730689246235376,0.0030171871185302734,0.06837153434753418,-2.4424796918984066,-3.735696371736872,0.17208584412774286,0.4635482038753497,0.7819238155708186,-0.7949431451058746,0.7999229385421364,-2.3694627109786297,-2.5178271046842324,-3.662246371776087,-3.811256256409284,0.04912955602951374,-1.420553327700281
15.930752992630005,-0.02881501615047455,-2.4176483154296875,-3.777520179748535,0.05730689246235376,0.0030815601348876953,0.08961224555969238,-2.439723132531205,-3.7333490238919147,0.19208584412774288,0.46582259839422147,1.0,-0.7964602015741122,0.7999614692710681,-2.3448803135406786,-2.537470150161609,-3.638021426773968,-3.83110497034596,0.04912955602951374,-1.420553327700281
15.94261884689331,-0.036466024816036224,-2.3861923217773438,-3.7745397090911865,0.10086023200272988,0.004262447357177734,0.08961224555969238,-2.436342648713685,-3.73066565093479,0.2120858441277429,0.468301367993915,0.4367962203406578,-0.7975221411018786,0.7999807346355341,-2.315023253168239,-2.5612068284104494,-3.6088800233499265,-3.8552217561399944,1.2038537451061069,-1.6022845014372418
15.953591346740723,-0.036466024816036224,-2.3861923217773438,-3.7745397090911865,0.10086023200272988,0.003389596939086914,0.08961224555969238,-2.4322719775631123,-3.7276203437488755,0.2320858441277429,0.4682859940631947,0.5045149238644273,-0.798265498771315,0.7999903673177671,-2.278775778179846,-2.5900196155631,-3.5737742548910343,-3.8846056956313997,0.15899354141119448,1.5444601474167572
15.963001728057861,-0.03773951157927513,-2.377668619155884,-3.7725090980529785,0.11084394251356525,0.003350496292114258,0.08961224555969238,-2.4274456840153795,-3.7241842052984553,0.25208584412774293,0.46889577588226994,0.4356120339075735,-0.7987858491399206,0.7999951836588836,-2.2346659050205178,-2.6252487711539225,-3.5313038702156976,-3.920602231681074,0.15899354141119448,1.5444601474167572
15.971405744552612,-0.03773951157927513,-2.377668619155884,-3.7725090980529785,0.11084394251356525,0.0034303665161132812,0.08961224555969238,-2.421799265441078,-3.720325361247786,0.27208584412774295,0.4688745266247526,0.5059877023160833,-0.7991500943979444,0.7999975918294419,-2.180725496825679,-2.6687324681249294,-3.479584257321826,-3.965035201776774,0.15899354141119448,1.5444601474167572
15.979820251464844,-0.03773951157927513,-2.377668619155884,-3.7725090980529785,0.11084394251356525,0.003767728805541992,0.08961224555969238,-2.415269256798828,-3.716008974503937,0.29119265560700613,0.468851600284398,0.5777336057969865,-0.7994050660785611,0.7999987959147209,-2.1143018708676067,-2.7229953951907215,-3.416070057279401,-4.020383249289843,0.15899354141119448,1.5444601474167572
15.989945888519287,-0.039151519536972046,-2.3630876541137695,-3.768698215484619,0.1258829511289815,0.0034635066986083984,0.08961224555969238,-2.447705083238982,-3.7508371597740053,0.05978557724462696,0.46989170067446495,0.45768628792015,-0.7995835462549928,0.7999993979573605,-2.43886183867208,-2.4568008149467935,-3.742044676614124,-3.7600922899947498,0.15899354141119448,1.5444601474167572
16.000107526779175,-0.039151519536972046,-2.3630876541137695,-3.768698215484619,0.1258829511289815,0.0035676956176757812,0.08961224555969238,-2.447312705390655,-3.7501937839808233,0.07978557724462695,0.4698599733088239,0.53214622420891,-0.799708482378495,0.7999996989786803,-2.432191031588696,-2.4628791493503077,-3.7350880985508916,-3.766003541595339,0.15899354141119448,1.5444601474167572
16.010297060012817,-0.03977727144956589,-2.352327346801758,-3.7654736042022705,0.1356927060486971,0.0037505626678466797,0.08961224555969238,-2.4466762241352655,-3.749303977479363,0.09978557724462694,0.47025645265688176,0.4672820614087112,-0.7997959376649465,0.7999998494893402,-2.4232381455153957,-2.470820438379394,-3.7258018317670945,-3.7737585412830073,0.15899354141119448,1.5444601474167572
16.019739389419556,-0.03977727144956589,-2.352327346801758,-3.7654736042022705,0.1356927060486971,0.0035772323608398438,0.08961224555969238,-2.4457266897978642,-3.748158594786234,0.11978557724462693,0.47021718105592614,0.5444960845200986,-0.7998571563654626,0.7999999247446702,-2.4116867368320682,-2.480803041212943,-3.7139438894788253,-3.783583952344667,0.15899354141119448,1.5444601474167572
16.029834747314453,-0.03996661677956581,-2.334458827972412,-3.759921073913574,0.15042023787603576,0.0034639835357666016,0.08961224555969238,-2.4443954108284127,-3.746745513183664,0.13978557724462695,0.47143863095891037,0.44718518643504146,-0.797730745558654,0.7999999623723351,-2.3971538449233583,-2.493072252762664,-3.699206730495874,-3.795766050740398,0.15899354141119448,1.5444601474167572
16.04046106338501,-0.03996661677956581,-2.334458827972412,-3.759921073913574,0.15042023787603576,0.006951332092285156,0.08961224555969238,-2.4426140524760482,-3.7450496225691334,0.15978557724462697,0.4713907247063456,0.527287312638134,-0.7924743973998845,0.7999999811861676,-2.3791682685643747,-2.5079622230986467,-3.681193837518696,-3.8106741230506103,0.15899354141119448,1.5444601474167572
16.147459983825684,-0.03996661677956581,-2.334458827972412,-3.759921073913574,0.15042023787603576,0.0038299560546875,0.0886228084564209,-2.4403147368902833,-3.743052818831084,0.179785577244627,0.4743487931697915,0.5476399881854834,-0.7937760063439689,0.7999999905930838,-2.357140224071791,-2.525926498110881,-3.659387890529014,-3.828792276287723,-0.2106068778910583,1.54157257188632
16.157751321792603,-0.03033091314136982,-2.2385401725769043,-3.7252609729766846,0.20774379266811877,0.0035817623138427734,0.0886228084564209,-2.4374301444983653,-3.7407340008393724,0.199785577244627,0.47878106901278916,-0.15153475921187654,-0.5571366603726181,0.7623916287419934,-2.330318912025987,-2.5475806543038972,-3.6331075237852173,-3.850762671245651,-0.2106068778910583,1.54157257188632
16.166510820388794,-0.03033091314136982,-2.2385401725769043,-3.7252609729766846,0.20774379266811877,0.003902435302734375,0.0886228084564209,-2.433893616503889,-3.738069071131918,0.21978557724462702,0.4787560091384021,-0.17896645734492145,-0.3794275223027992,0.5716456055877756,-2.2977334096194575,-2.5737616103635426,-3.6014487998273217,-3.877444046152509,-0.2106068778910583,1.54157257188632
16.175806045532227,-0.03033091314136982,-2.2385401725769043,-3.7252609729766846,0.20774379266811877,0.0035724639892578125,0.0886228084564209,-2.429639258348023,-3.735030940371597,0.23978557724462704,0.47873051969149005,-0.20566908298905395,-0.21803066896907958,0.36238552590827683,-2.2581109993857265,-2.6056095044280116,-3.5632065173920644,-3.909990413881477,-0.2106068778910583,1.54157257188632
16.184452295303345,-0.03033091314136982,-2.2385401725769043,-3.7252609729766846,0.20774379266811877,0.0035462379455566406,0.0886228084564209,-2.4246020439712668,-3.7315895356398845,0.25978557724462703,0.478704663250756,-0.23163907628298502,-0.06624340456857769,0.14938192441478665,-2.209760688998052,-2.6446843820530392,-3.51676374071167,-3.949961545386901,-0.2106068778910583,1.54157257188632
16.194318771362305,-0.024614345282316208,-2.207716703414917,-3.713467836380005,0.22163414243089097,0.0034799575805664062,0.0886228084564209,-2.41871792071066,-3.727711812626073,0.27978557724462705,0.479915979850589,-0.4416493931264165,0.13903639457263103,-0.09044576683645503,-2.150410281091168,-2.6931293355907484,-3.459938696314681,-3.9994760933725804,-0.2106068778910583,1.54157257188632
16.203206539154053,-0.024614345282316208,-2.207716703414917,-3.713467836380005,0.22163414243089097,0.003872394561767578,0.0886228084564209,-2.447535090469502,-3.750545820073116,0.06978557724462696,0.4798867043384989,-0.46596708768113526,0.32327719796545823,-0.2993043912460299,-2.43886183867208,-2.4568008149467935,-3.742044676614124,-3.7600922899947498,-0.2106068778910583,1.54157257188632
16.21249771118164,-0.024614345282316208,-2.207716703414917,-3.713467836380005,0.22163414243089097,0.0036449432373046875,0.0886228084564209,-2.447029291947395,-3.7497801865250513,0.08978557724462695,0.4798572069930459,-0.4895471407208312,0.46629403857582075,-0.4855464650753376,-2.432191031588696,-2.4628791493503077,-3.7350880985508916,-3.766003541595339,-0.2106068778910583,1.54157257188632
16.222623348236084,-0.02004193514585495,-2.185549259185791,-3.705014944076538,0.2312699406797924,0.0036687850952148438,0.0886228084564209,-2.446244889022506,-3.7487639209117467,0.10978557724462694,0.48062302007725943,-0.6352008686669557,0.5664058270030745,-0.6426358829200495,-2.4232381455153957,-2.470820438379394,-3.7258018317670945,-3.7737585412830073,-0.2106068778910583,1.54157257188632
16.231616497039795,-0.02004193514585495,-2.185549259185791,-3.705014944076538,0.2312699406797924,0.003936052322387695,0.0886228084564209,-2.4451130488430115,-3.747486390618137,0.12978557724462694,0.4805923723127038,-0.6571861573506431,0.6364840789021522,-0.7213179414600248,-2.4116867368320682,-2.480803041212943,-3.7139438894788253,-3.783583952344667,-0.2106068778910583,1.54157257188632
16.242343425750732,-0.011894522234797478,-2.149962902069092,-3.691425323486328,0.24720943611588986,0.003642559051513672,0.0886228084564209,-2.443565245831511,-3.7459339802846543,0.14978557724462696,0.4817928845378673,-0.8080447802039681,0.6855388552315066,-0.7606589707300124,-2.3971538449233583,-2.493072252762664,-3.699206730495874,-3.795766050740398,-0.2106068778910583,1.54157257188632
16.37836790084839,-0.011894522234797478,-2.149962902069092,-3.691425323486328,0.24720943611588986,0.0033075809478759766,0.12404990196228027,-2.4415333610913366,-3.7440900834083695,0.16978557724462698,0.48321595861925315,-1.0,0.7198771986620547,-0.7652574075688919,-2.3791682685643747,-2.5079622230986467,-3.681193837518696,-3.8106741230506103,-2.1807173037632,1.1123925095121063
16.387470722198486,0.049147237092256546,-1.933687448501587,-3.609126567840576,0.29513012928055404,0.003309488296508789,0.12404990196228027,-2.4389497831649427,-3.7419350975154355,0.189785577244627,0.4870196009390414,-1.0,0.7439140390634383,-0.5387792916982947,-2.357140224071791,-2.525926498110881,-3.659387890529014,-3.828792276287723,-2.1807173037632,1.1123925095121063
16.395901441574097,0.049147237092256546,-1.933687448501587,-3.609126567840576,0.29513012928055404,0.003463268280029297,0.12404990196228027,-2.4357475099915007,-3.739446422989917,0.20978557724462701,0.4870745226540554,-1.0,0.7607398273444068,-0.43469531065626454,-2.330318912025987,-2.5475806543038972,-3.6331075237852173,-3.850762671245651,-2.1807173037632,1.1123925095121063
16.404260396957397,0.049147237092256546,-1.933687448501587,-3.609126567840576,0.29513012928055404,0.003443002700805664,0.12404990196228027,-2.43186025190687,-3.7365984656367726,0.22978557724462703,0.48712713341352953,-1.0,0.7725178791410848,-0.3891904674462853,-2.2977334096194575,-2.5737616103635426,-3.6014487998273217,-3.877444046152509,-2.1807173037632,1.1123925095121063
16.413750886917114,0.06041600555181503,-1.9002501964569092,-3.5971105098724365,0.2916479482063846,0.003335714340209961,0.12404990196228027,-2.4272225355255466,-3.733362643049287,0.24978557724462705,0.4873593449474144,-1.0,0.7807625153987594,-0.32678420535549757,-2.2581109993857265,-2.6056095044280116,-3.5632065173920644,-3.909990413881477,-2.1807173037632,1.1123925095121063
16.422012090682983,0.06041600555181503,-1.9002501964569092,-3.5971105098724365,0.2916479482063846,0.0035164356231689453,0.12404990196228027,-2.4217698083409593,-3.7297073948436323,0.26978557724462704,0.48741775149501254,-1.0,0.7865337607791316,-0.30110159008495196,-2.209760688998052,-2.6446843820530392,-3.51676374071167,-3.949961545386901,-2.1807173037632,1.1123925095121063
16.430599212646484,0.06041600555181503,-1.9002501964569092,-3.5971105098724365,0.2916479482063846,0.0036072731018066406,0.12404990196228027,-2.4154385438776336,-3.725598196815508,0.2892729448188164,0.48747348365285403,-1.0,0.7905736325453921,-0.29080217792560425,-2.150410281091168,-2.6931293355907484,-3.459938696314681,-3.9994760933725804,-2.1807173037632,1.1123925095121063
16.44071626663208,0.0851273164153099,-1.8305999040603638,-3.572650194168091,0.28018344297080733,0.0035021305084228516,0.12404990196228027,-2.447312705390655,-3.7501937839808233,0.07978557724462695,0.4876711760945509,-1.0,0.7934015427817745,-0.19616857368491986,-2.43886183867208,-2.4568008149467935,-3.742044676614124,-3.7600922899947498,-2.1807173037632,1.1123925095121063
16.577436208724976,0.0851273164153099,-1.8305999040603638,-3.572650194168091,0.28018344297080733,0.004727363586425781,0.1250627040863037,-2.4466762241352655,-3.749303977479363,0.09978557724462694,0.48089389151035067,-1.0,0.7953810799472422,-0.16083796370068026,-2.432191031588696,-2.4628791493503077,-3.7350880985508916,-3.766003541595339,-1.7315161239754806,-0.18312581257871519
16.59200692176819,0.19960413873195648,-1.5515165328979492,-3.47770094871521,0.2347652568156155,0.003198385238647461,0.1250627040863037,-2.4457266897978642,-3.748158594786234,0.11978557724462693,0.48157013461229226,-0.5786978460003764,0.7967667559630696,0.25176475186091585,-2.4232381455153957,-2.470820438379394,-3.7258018317670945,-3.7737585412830073,-1.7315161239754806,-0.18312581257871519
16.59962248802185,0.19960413873195648,-1.5515165328979492,-3.47770094871521,0.2347652568156155,0.0031473636627197266,0.1250627040863037,-2.4443954108284127,-3.746745513183664,0.13978557724462695,0.48159869147164636,-0.592529285599827,0.7977367291741487,0.13266940751181772,-2.4116867368320682,-2.480803041212943,-3.7139438894788253,-3.783583952344667,-1.7315161239754806,-0.18312581257871519
16.60999631881714,0.21696333587169647,-1.5135514736175537,-3.4649715423583984,0.22922730233010502,0.006489992141723633,0.1250627040863037,-2.4426140524760482,-3.7450496225691334,0.15978557724462697,0.4817577158155629,-0.5339629404961291,0.7984157104219041,0.14901685521122743,-2.3971538449233583,-2.493072252762664,-3.699206730495874,-3.795766050740398,-1.7315161239754806,-0.18312581257871519
16.624022960662842,0.21696333587169647,-1.5135514736175537,-3.4649715423583984,0.22922730233010502,0.0033740997314453125,0.1250627040863037,-2.4403147368902833,-3.743052818831084,0.179785577244627,0.48178489536532254,-0.549943473302861,0.7988909972953329,0.1273351084026098,-2.3791682685643747,-2.5079622230986467,-3.681193837518696,-3.8106741230506103,-1.7315161239754806,-0.18312581257871519
16.632336378097534,0.21696333587169647,-1.5135514736175537,-3.4649715423583984,0.22922730233010502,0.003444671630859375,0.1250627040863037,-2.4374301444983653,-3.7407340008393724,0.199785577244627,0.48180877277214895,-0.5669750093213828,0.799223698106733,0.12895079409256552,-2.357140224071791,-2.525926498110881,-3.659387890529014,-3.828792276287723,-1.7315161239754806,-0.18312581257871519
16.64206314086914,0.24333925545215607,-1.4569613933563232,-3.4453768730163574,0.2203878998911807,0.0035200119018554688,0.1250627040863037,-2.433893616503889,-3.738069071131918,0.21978557724462702,0.4819257180359171,-0.4369421443959536,0.799456588674713,0.1915645454686078,-2.330318912025987,-2.5475806543038972,-3.6331075237852173,-3.850762671245651,-1.7315161239754806,-0.18312581257871519
16.652238845825195,0.24333925545215607,-1.4569613933563232,-3.4453768730163574,0.2203878998911807,0.0034427642822265625,0.1250627040863037,-2.429639258348023,-3.735030940371597,0.23978557724462704,0.4819475688770787,-0.4562017355357074,0.7996196120722991,0.1466587191117533,-2.2977334096194575,-2.5737616103635426,-3.6014487998273217,-3.877444046152509,0.00826379514327824,-1.3774003831626127
16.790003299713135,0.24333925545215607,-1.4569613933563232,-3.4453768730163574,0.2203878998911807,0.0034914016723632812,0.12758731842041016,-2.4246020439712668,-3.7315895356398845,0.25978557724462703,0.4723759109887621,-1.0,0.7997337284506094,0.1456367001173855,-2.2581109993857265,-2.6056095044280116,-3.5632065173920644,-3.909990413881477,0.00826379514327824,-1.3774003831626127
16.800477981567383,0.38069891929626465,-1.1843774318695068,-3.3469207286834717,0.1797600393487476,0.0031561851501464844,0.12758731842041016,-2.41871792071066,-3.727711812626073,0.27978557724462705,0.4742570032395722,-0.4788440568767277,0.7998136099154266,0.47281835005869277,-2.209760688998052,-2.6446843820530392,-3.51676374071167,-3.949961545386901,0.32773060311269375,-2.0622363253442173
16.810049295425415,0.3987138271331787,-1.1509051322937012,-3.333146333694458,0.17534158198621405,0.00345611572265625,0.12758731842041016,-2.4119227686625107,-3.7233635737697925,0.2975989398191031,0.4747086460225787,-0.4421843971815588,0.7998695269407986,0.3173613845937289,-2.150410281091168,-2.6931293355907484,-3.459938696314681,-3.9994760933725804,0.32773060311269375,-2.0622363253442173
16.819735765457153,0.3987138271331787,-1.1509051322937012,-3.333146333694458,0.17534158198621405,0.0035228729248046875,0.12758731842041016,-2.447029291947395,-3.7497801865250513,0.08978557724462695,0.4746896129248199,-0.48371291181979714,0.799908668858559,0.29391719553406626,-2.43886183867208,-2.4568008149467935,-3.742044676614124,-3.7600922899947498,0.32773060311269375,-2.0622363253442173
16.829797744750977,0.42551153898239136,-1.1020959615707397,-3.3117480278015137,0.16911834912048918,0.003450155258178711,0.12758731842041016,-2.446244889022506,-3.7487639209117467,0.10978557724462694,0.47555092676726596,-0.3917230914159616,0.7999360682009914,0.3033155930625048,-2.432191031588696,-2.4628791493503077,-3.7350880985508916,-3.766003541595339,0.32773060311269375,-2.0622363253442173
16.839940547943115,0.42551153898239136,-1.1020959615707397,-3.3117480278015137,0.16911834912048918,0.0038568973541259766,0.12758731842041016,-2.4451130488430115,-3.747486390618137,0.12978557724462694,0.475523135299306,-0.4357336267651416,0.7999552477406939,0.26774851657608667,-2.4232381455153957,-2.470820438379394,-3.7258018317670945,-3.7737585412830073,0.32773060311269375,-2.0622363253442173
16.85115671157837,0.42551153898239136,-1.1020959615707397,-3.3117480278015137,0.16911834912048918,0.003634214401245117,0.12758731842041016,-2.443565245831511,-3.7459339802846543,0.14978557724462696,0.4754927305868657,-0.48105480948384005,0.7999686734184858,0.28360963315561016,-2.4116867368320682,-2.480803041212943,-3.7139438894788253,-3.783583952344667,-1.9204335864962738,-0.2659776755644112
16.859902143478394,0.42551153898239136,-1.1020959615707397,-3.3117480278015137,0.16911834912048918,0.0036182403564453125,0.12758731842041016,-2.4415333610913366,-3.7440900834083695,0.16978557724462698,0.4754597095874632,-0.5276976739731518,0.7999780713929401,0.3025608704888489,-2.3971538449233583,-2.493072252762664,-3.699206730495874,-3.795766050740398,-1.9204335864962738,-0.2659776755644112
16.999423265457153,0.5488993525505066,-0.8951467871665955,-3.193951368331909,0.1511246987789155,0.003369569778442383,0.12802696228027344,-2.4389497831649427,-3.7419350975154355,0.189785577244627,0.47602412843175024,0.3916325854717062,0.799984649975058,0.10426360514742933,-2.3791682685643747,-2.5079622230986467,-3.681193837518696,-3.8106741230506103,-1.9204335864962738,-0.2659776755644112
17.008811473846436,0.5488993525505066,-0.8951467871665955,-3.193951368331909,0.1511246987789155,0.0032510757446289062,0.12802696228027344,-2.4357475099915007,-3.739446422989917,0.20978557724462701,0.4759925872799782,0.407343428540323,0.7999892549825406,-0.06957907860141792,-2.357140224071791,-2.525926498110881,-3.659387890529014,-3.828792276287723,-1.0098710690194443,-0.5623349422213014
17.017569065093994,0.5632558465003967,-0.8731181025505066,-3.176723003387451,0.14943389857619654,0.003240346908569336,0.12802696228027344,-2.43186025190687,-3.7365984656367726,0.22978557724462703,0.47687411409228075,0.5532992136787311,0.7999924784877784,-0.13420861345716742,-2.330318912025987,-2.5475806543038972,-3.6331075237852173,-3.850762671245651,-1.0098710690194443,-0.5623349422213014
17.025357484817505,0.5632558465003967,-0.8731181025505066,-3.176723003387451,0.14943389857619654,0.003299713134765625,0.12802696228027344,-2.4272225355255466,-3.733362643049287,0.24978557724462705,0.47683512918844717,0.5686143136849384,0.7999947349414449,-0.17839171963745576,-2.2977334096194575,-2.5737616103635426,-3.6014487998273217,-3.877444046152509,-1.0098710690194443,-0.5623349422213014
17.033666849136353,0.5632558465003967,-0.8731181025505066,-3.176723003387451,0.14943389857619654,0.0035386085510253906,0.12802696228027344,-2.4217698083409593,-3.7297073948436323,0.26978557724462704,0.47679516716818593,0.5836864242662538,0.7999963144590114,-0.19157574151389087,-2.2581109993857265,-2.6056095044280116,-3.5632065173920644,-3.909990413881477,-1.0098710690194443,-0.5623349422213014
17.04461145401001,0.5898468494415283,-0.8331101536750793,-3.1408941745758057,0.14498164075949665,0.0035173892974853516,0.12802696228027344,-2.4154385438776336,-3.725598196815508,0.2892729448188164,0.4788177124114048,0.8281061528915032,0.799997420121308,-0.24141379370298252,-2.209760688998052,-2.6446843820530392,-3.51676374071167,-3.949961545386901,-1.0098710690194443,-0.5623349422213014
17.054649829864502,0.5898468494415283,-0.8331101536750793,-3.1408941745758057,0.14498164075949665,0.003507852554321289,0.12802696228027344,-2.408160543634223,-3.721007606735308,0.30481480428594315,0.4787646916698278,0.8427315120796965,0.7999981940849157,-0.29579845709083247,-2.150410281091168,-2.6931293355907484,-3.459938696314681,-3.9994760933725804,0.712518419015997,-0.26014816113531397
17.20144248008728,0.6570957899093628,-0.7278375625610352,-2.9955692291259766,0.09595350694820586,0.0036602020263671875,0.13467645645141602,-2.4466762241352655,-3.749303977479363,0.09978557724462694,0.4812292012611915,1.0,0.6091150797540321,-0.491225849593512,-2.43886183867208,-2.4568008149467935,-3.742044676614124,-3.7600922899947498,0.712518419015997,-0.26014816113531397
17.2117702960968,0.6570957899093628,-0.7278375625610352,-2.9955692291259766,0.09595350694820586,0.0033996105194091797,0.13467645645141602,-2.4457266897978642,-3.748158594786234,0.11978557724462693,0.4812809103765334,1.0,0.4865835338060037,-0.5054773547632061,-2.432191031588696,-2.4628791493503077,-3.7350880985508916,-3.766003541595339,-1.0190297987692019,1.4815261654614351
17.221415519714355,0.6611768007278442,-0.7190467715263367,-2.974083423614502,0.08623412211011142,0.0028595924377441406,0.13467645645141602,-2.4443954108284127,-3.746745513183664,0.13978557724462695,0.48263629671015007,1.0,0.3398673286131719,-0.47939513567713576,-2.4232381455153957,-2.470820438379394,-3.7258018317670945,-3.7737585412830073,-1.0190297987692019,1.4815261654614351
17.230710744857788,0.6658092737197876,-0.7079394459724426,-2.941514492034912,0.07142250993743969,0.0027666091918945312,0.13467645645141602,-2.4426140524760482,-3.7450496225691334,0.15978557724462697,0.48433827398865836,1.0,0.16148764093210854,-0.4192511323262374,-2.4116867368320682,-2.480803041212943,-3.7139438894788253,-3.783583952344667,-1.0190297987692019,1.4815261654614351
17.239849090576172,0.6658092737197876,-0.7079394459724426,-2.941514492034912,0.07142250993743969,0.002893686294555664,0.13467645645141602,-2.4403147368902833,-3.743052818831084,0.179785577244627,0.48438645355392007,1.0,0.021330242870400584,-0.3235648221250193,-2.3971538449233583,-2.493072252762664,-3.699206730495874,-3.795766050740398,-1.0190297987692019,1.4815261654614351
17.249963998794556,0.6658092737197876,-0.7079394459724426,-2.941514492034912,0.07142250993743969,0.002897500991821289,0.13467645645141602,-2.4374301444983653,-3.7407340008393724,0.199785577244627,0.48443350205740543,1.0,-0.09449369798571938,-0.22731582022103172,-2.3791682685643747,-2.5079622230986467,-3.681193837518696,-3.8106741230506103,2.982010885032083,7.711384038349902
17.36837410926819,0.6658092737197876,-0.7079394459724426,-2.941514492034912,0.07142250993743969,0.002662181854248047,0.10850286483764648,-2.433893616503889,-3.738069071131918,0.21978557724462702,0.485735094389776,1.0,-0.1899897907581864,-0.14045704070067863,-2.357140224071791,-2.525926498110881,-3.659387890529014,-3.828792276287723,2.982010885032083,7.711384038349902
17.378010749816895,0.6552870869636536,-0.683027982711792,-2.789531707763672,0.013509915381661144,0.002437114715576172,0.10850286483764648,-2.429639258348023,-3.735030940371597,0.23978557724462704,0.4900955559317728,0.7838251783739743,-0.3729928535307305,0.03839644188560769,-2.330318912025987,-2.5475806543038972,-3.6331075237852173,-3.850762671245651,3.7923604954606316,8.998250005233157
17.38479781150818,0.6552870869636536,-0.683027982711792,-2.789531707763672,0.013509915381661144,0.0024209022521972656,0.10850286483764648,-2.4246020439712668,-3.7315895356398845,0.25978557724462703,0.4900961654525917,0.8006416964595962,-0.5010949974715113,0.15924506822542708,-2.2977334096194575,-2.5737616103635426,-3.6014487998273217,-3.877444046152509,3.7923604954606316,8.998250005233157
17.3924458026886,0.6487002372741699,-0.6817845106124878,-2.7650909423828125,0.005580451377881268,0.0022313594818115234,0.10850286483764648,-2.41871792071066,-3.727711812626073,0.27978557724462705,0.49110518479837406,0.7406282839756075,-0.5907664982300579,0.2841348933213122,-2.2581109993857265,-2.6056095044280116,-3.5632065173920644,-3.909990413881477,3.7923604954606316,8.998250005233157
17.399617671966553,0.6487002372741699,-0.6817845106124878,-2.7650909423828125,0.005580451377881268,0.002279996871948242,0.10850286483764648,-2.4119227686625107,-3.7233635737697925,0.2975989398191031,0.49110569670191795,0.7591969056551979,-0.6535365487610405,0.364697750846816,-2.209760688998052,-2.6446843820530392,-3.51676374071167,-3.949961545386901,3.7923604954606316,8.998250005233157
17.409733295440674,0.6407200694084167,-0.6811374425888062,-2.7401375770568848,-0.002397085780981606,0.0024573802947998047,0.10850286483764648,-2.404142718367431,-3.718530479384614,0.3109706254767797,0.4915818061189393,0.6937610458320527,-0.6974755841327284,0.4395587288101953,-2.150410281091168,-2.6931293355907484,-3.459938696314681,-3.9994760933725804,3.7923604954606316,8.998250005233157
17.4197256565094,0.6407200694084167,-0.6811374425888062,-2.7401375770568848,-0.002397085780981606,0.0022878646850585938,0.10850286483764648,-2.446244889022506,-3.7487639209117467,0.10978557724462694,0.49158222906142035,0.7141220167461233,-0.7282329088929098,0.47658227631605826,-2.43886183867208,-2.4568008149467935,-3.742044676614124,-3.7600922899947498,3.7923604954606316,8.998250005233157
17.42961597442627,0.6267600059509277,-0.6809595823287964,-2.702381134033203,-0.013553032651845667,0.002185821533203125,0.10850286483764648,-2.4451130488430115,-3.747486390618137,0.12978557724462694,0.4921847100272343,0.6159813866337043,-0.7497630362250369,0.5231354338349555,-2.432191031588696,-2.4628791493503077,-3.7350880985508916,-3.766003541595339,3.7923604954606316,8.998250005233157
17.439887523651123,0.6267600059509277,-0.6809595823287964,-2.702381134033203,-0.013553032651845667,0.002453327178955078,0.10850286483764648,-2.443565245831511,-3.7459339802846543,0.14978557724462696,0.4921850533578883,0.6381748395405538,-0.7648341253575258,0.5324887487133592,-2.4232381455153957,-2.470820438379394,-3.7258018317670945,-3.7737585412830073,3.7923604954606316,8.998250005233157
17.449694633483887,0.6267600059509277,-0.6809595823287964,-2.702381134033203,-0.013553032651845667,0.002205371856689453,0.10850286483764648,-2.4415333610913366,-3.7440900834083695,0.16978557724462698,0.4921853608149491,0.661299533602259,-0.7753838877502681,0.5437287707265429,-2.4116867368320682,-2.480803041212943,-3.7139438894788253,-3.783583952344667,0.2654142441317333,1.368535537817257
17.45977544784546,0.6160787343978882,-0.6812887191772461,-2.6770801544189453,-0.0196179115017938,0.0022537708282470703,0.10850286483764648,-2.4389497831649427,-3.7419350975154355,0.189785577244627,0.49260361760867766,0.6050382254507742,-0.7827687214251877,0.5628822602361923,-2.3971538449233583,-2.493072252762664,-3.699206730495874,-3.795766050740398,0.2654142441317333,1.368535537817257
17.53848624229431,0.6160787343978882,-0.6812887191772461,-2.6770801544189453,-0.0196179115017938,0.0025587081909179688,0.07092976570129395,-2.4357475099915007,-3.739446422989917,0.20978557724462701,0.49278822864145233,1.0,-0.7879381049976314,0.5630096494362302,-2.3791682685643747,-2.5079622230986467,-3.681193837518696,-3.8106741230506103,0.2654142441317333,1.368535537817257
17.546709299087524,0.5632882714271545,-0.6839766502380371,-2.5746641159057617,-0.024318029790876237,0.002398252487182617,0.07092976570129395,-2.43186025190687,-3.7365984656367726,0.22978557724462703,0.49390035656627784,0.5865920815510643,-0.791556673498342,0.6134986697908222,-2.357140224071791,-2.525926498110881,-3.659387890529014,-3.828792276287723,0.2654142441317333,1.368535537817257
17.5547297000885,0.5632882714271545,-0.6839766502380371,-2.5746641159057617,-0.024318029790876237,0.002286195755004883,0.07092976570129395,-2.4272225355255466,-3.733362643049287,0.24978557724462705,0.4938989346911987,0.580535951626935,-0.7940896714488395,0.5665810710280993,-2.330318912025987,-2.5475806543038972,-3.6331075237852173,-3.850762671245651,0.8422217392809818,2.590432374492061
17.562191009521484,0.5475178956985474,-0.6847591400146484,-2.5494885444641113,-0.02040193694796382,0.002439260482788086,0.07092976570129395,-2.4217698083409593,-3.7297073948436323,0.26978557724462704,0.49315798542175293,0.5183849161478395,-0.7958627700141876,0.5406710938629734,-2.2977334096194575,-2.5737616103635426,-3.6014487998273217,-3.877444046152509,0.8422217392809818,2.590432374492061
17.569856643676758,0.5475178956985474,-0.6847591400146484,-2.5494885444641113,-0.02040193694796382,0.0024154186248779297,0.07092976570129395,-2.4154385438776336,-3.725598196815508,0.2892729448188164,0.49315617891623265,0.5121704016308596,-0.7971039390099314,0.5198174013430844,-2.2581109993857265,-2.6056095044280116,-3.5632065173920644,-3.909990413881477,0.8422217392809818,2.590432374492061
17.579625606536865,0.5222263932228088,-0.6857450604438782,-2.5115575790405273,-0.012238663680681033,0.0022509098052978516,0.07092976570129395,-2.408160543634223,-3.721007606735308,0.30481480428594315,0.49349652506062425,0.3730133763286817,-0.7979727573069519,0.49446660160285955,-2.209760688998052,-2.6446843820530392,-3.51676374071167,-3.949961545386901,0.8422217392809818,2.590432374492061
17.589786529541016,0.5222263932228088,-0.6857450604438782,-2.5115575790405273,-0.012238663680681033,0.002222299575805664,0.07092976570129395,-2.3998610034478,-3.715932910685074,0.3161153117207787,0.4934943615893913,0.36668845563208485,-0.7985809301148664,0.4638050555877823,-2.150410281091168,-2.6931293355907484,-3.459938696314681,-3.9994760933725804,0.8422217392809818,2.590432374492061
17.599849700927734,0.5222263932228088,-0.6857450604438782,-2.5115575790405273,-0.012238663680681033,0.0024254322052001953,0.07092976570129395,-2.4457266897978642,-3.748158594786234,0.11978557724462693,0.4934920303325676,0.3603250095568419,-0.7990066510804065,0.449180614504309,-2.43886183867208,-2.4568008149467935,-3.742044676614124,-3.7600922899947498,0.8422217392809818,2.590432374492061
17.609779119491577,0.5039389133453369,-0.6859850287437439,-2.4866786003112793,-0.0053713938420483776,0.002145051956176758,0.07092976570129395,-2.4443954108284127,-3.746745513183664,0.13978557724462695,0.4929308879237837,0.25634130463601923,-0.7993046557562845,0.42623607280600057,-2.432191031588696,-2.4628791493503077,-3.7350880985508916,-3.766003541595339,0.8422217392809818,2.590432374492061
17.61975908279419,0.5039389133453369,-0.6859850287437439,-2.4866786003112793,-0.0053713938420483776,0.0021333694458007812,0.07092976570129395,-2.4426140524760482,-3.7450496225691334,0.15978557724462697,0.4929282435614778,0.24993160875282572,-0.7995132590293992,0.4033195453700745,-2.4232381455153957,-2.470820438379394,-3.7258018317670945,-3.7737585412830073,0.8422217392809818,2.590432374492061
17.629628896713257,0.4756852686405182,-0.6861798763275146,-2.4500677585601807,0.006029234512601074,0.002273082733154297,0.07092976570129395,-2.4403147368902833,-3.743052818831084,0.179785577244627,0.4934992397008594,0.05859298858870354,-0.7996592813205794,0.3658102839370382,-2.4116867368320682,-2.480803041212943,-3.7139438894788253,-3.783583952344667,0.8422217392809818,2.590432374492061
17.63970685005188,0.4756852686405182,-0.6861798763275146,-2.4500677585601807,0.006029234512601074,0.002175569534301758,0.07092976570129395,-2.4374301444983653,-3.7407340008393724,0.199785577244627,0.49349631876343136,0.052174825931676105,-0.7997614969244056,0.3280891453772565,-2.3971538449233583,-2.493072252762664,-3.699206730495874,-3.795766050740398,0.8422217392809818,2.590432374492061
17.649753093719482,0.4756852686405182,-0.6861798763275146,-2.4500677585601807,0.006029234512601074,0.002094745635986328,0.07092976570129395,-2.433893616503889,-3.738069071131918,0.21978557724462702,0.4934932718599905,0.04576541037374593,-0.7998330478470839,0.31078684546036744,-2.3791682685643747,-2.5079622230986467,-3.681193837518696,-3.8106741230506103,0.2069628343175718,1.2429712680179246
17.659871339797974,0.44566279649734497,-0.6860048174858093,-2.414182662963867,0.018470015013009447,0.002276182174682617,0.07092976570129395,-2.429639258348023,-3.735030940371597,0.23978557724462704,0.49277302218985464,-0.05747777092152517,-0.7998831334929587,0.2868025753988259,-2.357140224071791,-2.525926498110881,-3.659387890529014,-3.828792276287723,0.2069628343175718,1.2429712680179246
17.669768571853638,0.44566279649734497,-0.6860048174858093,-2.414182662963867,0.018470015013009447,0.002187967300415039,0.07092976570129395,-2.4246020439712668,-3.7315895356398845,0.25978557724462703,0.4927697476292744,-0.06384599788353651,-0.7999181934450711,0.26533771774899606,-2.330318912025987,-2.5475806543038972,-3.6331075237852173,-3.850762671245651,0.2069628343175718,1.2429712680179246
17.67958664894104,0.42501384019851685,-0.6854709982872009,-2.390713691711426,0.027493171448493024,0.002046346664428711,0.07092976570129395,-2.41871792071066,-3.727711812626073,0.27978557724462705,0.4919110405624145,-0.10094098644240157,-0.7999427354115498,0.2462177803057667,-2.2977334096194575,-2.5737616103635426,-3.6014487998273217,-3.877444046152509,0.2069628343175718,1.2429712680179246
17.689861536026,0.42501384019851685,-0.6854709982872009,-2.390713691711426,0.027493171448493024,0.002284526824951172,0.07092976570129395,-2.4119227686625107,-3.7233635737697925,0.2975989398191031,0.4919075730642979,-0.10723930061309628,-0.7999599147880849,0.23456439120593647,-2.2581109993857265,-2.6056095044280116,-3.5632065173920644,-3.909990413881477,0.2069628343175718,1.2429712680179246
17.768190145492554,0.42501384019851685,-0.6854709982872009,-2.390713691711426,0.027493171448493024,0.0024471282958984375,0.07068157196044922,-2.404142718367431,-3.718530479384614,0.3109706254767797,0.4919302170842441,-0.28908252862470374,-0.7999719403516594,0.22910214035413476,-2.209760688998052,-2.6446843820530392,-3.51676374071167,-3.949961545386901,0.2069628343175718,1.2429712680179246
17.77708649635315,0.33952000737190247,-0.6803745627403259,-2.3002071380615234,0.06291376677421044,0.0022430419921875,0.07068157196044922,-2.3953079338821386,-3.713216160226198,0.32029657362087305,0.49109254398221414,-0.390411316374205,-0.7999803582461616,0.17044700220045483,-2.150410281091168,-2.6931293355907484,-3.459938696314681,-3.9994760933725804,-1.2671372247895507,-4.031517072523668
17.78341555595398,0.33952000737190247,-0.6803745627403259,-2.3002071380615234,0.06291376677421044,0.002512693405151367,0.07068157196044922,-2.4451130488430115,-3.747486390618137,0.12978557724462694,0.4910874946562732,-0.3933725700020572,-0.7999862507723132,0.13965983426946865,-2.43886183867208,-2.4568008149467935,-3.742044676614124,-3.7600922899947498,-1.2671372247895507,-4.031517072523668
17.791060209274292,0.3069632053375244,-0.6772258281707764,-2.2676937580108643,0.07505309004547421,0.002258777618408203,0.07068157196044922,-2.443565245831511,-3.7459339802846543,0.14978557724462696,0.4903840944381219,-0.42540111874202446,-0.7999903755406192,0.11591950596682228,-2.432191031588696,-2.4628791493503077,-3.7350880985508916,-3.766003541595339,-1.2671372247895507,-4.031517072523668
17.799800872802734,0.3069632053375244,-0.6772258281707764,-2.2676937580108643,0.07505309004547421,0.002321958541870117,0.07068157196044922,-2.4415333610913366,-3.7440900834083695,0.16978557724462698,0.49037938475442755,-0.42809345064035886,-0.7999932628784335,0.10509759915184513,-2.4232381455153957,-2.470820438379394,-3.7258018317670945,-3.7737585412830073,-1.2671372247895507,-4.031517072523668
17.809786319732666,0.28507497906684875,-0.674986720085144,-2.2462589740753174,0.08312017185730154,0.0022020339965820312,0.07068157196044922,-2.4389497831649427,-3.7419350975154355,0.189785577244627,0.490661636853859,-0.42834794335774573,-0.799176974382658,0.09825200989685562,-2.4116867368320682,-2.480803041212943,-3.7139438894788253,-3.783583952344667,-1.2671372247895507,-4.031517072523668
17.81983780860901,0.28507497906684875,-0.674986720085144,-2.2462589740753174,0.08312017185730154,0.0024509429931640625,0.07068157196044922,-2.4357475099915007,-3.739446422989917,0.20978557724462701,0.4906572565125875,-0.4307818492349582,-0.7984542398420397,0.09485487948218388,-2.3971538449233583,-2.493072252762664,-3.699206730495874,-3.795766050740398,-1.2671372247895507,-4.031517072523668
17.829625844955444,0.252455472946167,-0.6707409024238586,-2.214888095855713,0.09482956175033985,0.004378318786621094,0.07068157196044922,-2.43186025190687,-3.7365984656367726,0.22978557724462703,0.49075777543606114,-0.4341058480506279,-0.7501242203314026,0.09339526553760563,-2.3791682685643747,-2.5079622230986467,-3.681193837518696,-3.8106741230506103,-1.2671372247895507,-4.031517072523668
17.839905261993408,0.252455472946167,-0.6707409024238586,-2.214888095855713,0.09482956175033985,0.0029125213623046875,0.07068157196044922,-2.4272225355255466,-3.733362643049287,0.24978557724462705,0.490682050889676,-0.43396552735026533,-0.7204768063383662,0.08234740878041649,-2.357140224071791,-2.525926498110881,-3.659387890529014,-3.828792276287723,-1.2671372247895507,-4.031517072523668
17.849810361862183,0.252455472946167,-0.6707409024238586,-2.214888095855713,0.09482956175033985,0.0032982826232910156,0.07068157196044922,-2.4217698083409593,-3.7297073948436323,0.26978557724462704,0.4906087024603153,-0.4337404642859516,-0.7017739037782735,0.07104576146273758,-2.330318912025987,-2.5475806543038972,-3.6331075237852173,-3.850762671245651,0.7057250397125718,0.04865090497660418
17.8597149848938,0.23132555186748505,-0.6676030158996582,-2.1942882537841797,0.1023893608771793,0.0031540393829345703,0.07068157196044922,-2.4154385438776336,-3.725598196815508,0.2892729448188164,0.49033753826380233,-0.38513528686638365,-0.6424837853213303,0.07070304442546248,-2.2977334096194575,-2.5737616103635426,-3.6014487998273217,-3.877444046152509,0.7057250397125718,0.04865090497660418
17.869825839996338,0.23132555186748505,-0.6676030158996582,-2.1942882537841797,0.1023893608771793,0.003299713134765625,0.07068157196044922,-2.408160543634223,-3.721007606735308,0.30481480428594315,0.4902704360930429,-0.38480565524516014,-0.6061283634682153,0.056006786827836524,-2.2581109993857265,-2.6056095044280116,-3.5632065173920644,-3.909990413881477,0.7057250397125718,0.04865090497660418
17.879822731018066,0.19967955350875854,-0.663093090057373,-2.1647696495056152,0.11371377944896001,0.0035753250122070312,0.07068157196044922,-2.3998610034478,-3.715932910685074,0.3161153117207787,0.4889279031376461,-0.2603974479970678,-0.5346354454872794,0.053649333560688336,-2.209760688998052,-2.6446843820530392,-3.51676374071167,-3.949961545386901,0.7057250397125718,0.04865090497660418
17.889812707901,0.19967955350875854,-0.663093090057373,-2.1647696495056152,0.11371377944896001,0.0036334991455078125,0.07068157196044922,-2.3904768357672,-3.710382025259529,0.32356091030341644,0.48886836202647255,-0.2600740790889012,-0.4900185160864465,0.032021157517117885,-2.150410281091168,-2.6931293355907484,-3.459938696314681,-3.9994760933725804,0.7057250397125718,0.04865090497660418
17.899883270263672,0.19967955350875854,-0.663093090057373,-2.1647696495056152,0.11371377944896001,0.003435850143432617,0.07068157196044922,-2.4443954108284127,-3.746745513183664,0.13978557724462695,0.4888109410527486,-0.25967165729398256,-0.4611283859929613,0.013283142938914541,-2.43886183867208,-2.4568008149467935,-3.742044676614124,-3.7600922899947498,0.7057250397125718,0.04865090497660418
18.026689291000366,0.19967955350875854,-0.663093090057373,-2.1647696495056152,0.11371377944896001,0.0034399032592773438,0.11671614646911621,-2.4426140524760482,-3.7450496225691334,0.15978557724462697,0.49095786958399457,0.34390340277504905,-0.44359734869091144,-0.0010073532284912154,-2.432191031588696,-2.4628791493503077,-3.7350880985508916,-3.766003541595339,0.7057250397125718,0.04865090497660418
18.037210702896118,0.05701771005988121,-0.6399728655815125,-2.023655414581299,0.16939141153862458,0.0033638477325439453,0.11671614646911621,-2.4403147368902833,-3.743052818831084,0.179785577244627,0.4915259818729153,0.7182501256438869,-0.2013470224078662,-0.07743386367288363,-2.4232381455153957,-2.470820438379394,-3.7258018317670945,-3.7737585412830073,-2.4374404826926197,-1.6165304151171904
18.045414686203003,0.05701771005988121,-0.6399728655815125,-2.023655414581299,0.16939141153862458,0.003344297409057617,0.11671614646911621,-2.4374301444983653,-3.7407340008393724,0.199785577244627,0.49153161774544785,0.7087599782536255,-0.035787979215936946,-0.18811324014016917,-2.4116867368320682,-2.480803041212943,-3.7139438894788253,-3.783583952344667,-2.4374404826926197,-1.6165304151171904
18.05509924888611,0.05701771005988121,-0.6399728655815125,-2.023655414581299,0.16939141153862458,0.003247499465942383,0.11671614646911621,-2.433893616503889,-3.738069071131918,0.21978557724462702,0.49153782268281765,0.6994537181717138,0.06837613220355068,-0.2396884377332441,-2.3971538449233583,-2.493072252762664,-3.699206730495874,-3.795766050740398,3.3415469782464173,0.7228012770979437
18.064240217208862,0.04045110568404198,-0.6370531320571899,-2.00496768951416,0.17527116327797604,0.003336668014526367,0.11671614646911621,-2.429639258348023,-3.735030940371597,0.23978557724462704,0.49131739521111595,0.8036336548976837,0.13587994654517993,-0.26707217850250753,-2.3791682685643747,-2.5079622230986467,-3.681193837518696,-3.8106741230506103,3.3415469782464173,0.7228012770979437
18.07262659072876,0.04045110568404198,-0.6370531320571899,-2.00496768951416,0.17527116327797604,0.003641366958618164,0.11671614646911621,-2.4246020439712668,-3.7315895356398845,0.25978557724462703,0.4913254494216732,0.7946433493412036,0.17909194057820688,-0.2819130859035409,-2.357140224071791,-2.525926498110881,-3.659387890529014,-3.828792276287723,3.3415469782464173,0.7228012770979437
18.081125736236572,0.04045110568404198,-0.6370531320571899,-2.00496768951416,0.17527116327797604,0.003470897674560547,0.11671614646911621,-2.41871792071066,-3.727711812626073,0.27978557724462705,0.4913339435993346,0.7858492020493343,0.20583317196395623,-0.28738519366978466,-2.330318912025987,-2.5475806543038972,-3.6331075237852173,-3.850762671245651,3.3415469782464173,0.7228012770979437
18.09090518951416,0.017097190022468567,-0.6329048871994019,-1.9764249324798584,0.1832409688222437,0.003470182418823242,0.11671614646911621,-2.4119227686625107,-3.7233635737697925,0.2975989398191031,0.4914759234963687,0.8136266844609163,0.275387172788725,-0.3160832974178541,-2.2977334096194575,-2.5737616103635426,-3.6014487998273217,-3.877444046152509,3.3415469782464173,0.7228012770979437
18.099717140197754,0.017097190022468567,-0.6329048871994019,-1.9764249324798584,0.1832409688222437,0.003637552261352539,0.11671614646911621,-2.404142718367431,-3.718530479384614,0.3109706254767797,0.49148657377097615,0.8051800239206548,0.3189280053705954,-0.32862395918923193,-2.2581109993857265,-2.6056095044280116,-3.5632065173920644,-3.909990413881477,3.3415469782464173,0.7228012770979437
18.110171794891357,0.0020565344020724297,-0.6301343441009521,-1.9577066898345947,0.18771322448714178,0.0036737918853759766,0.11671614646911621,-2.3953079338821386,-3.713216160226198,0.32029657362087305,0.49155779993200455,0.8145992433080158,0.35767566409048474,-0.3411591660248814,-2.209760688998052,-2.6446843820530392,-3.51676374071167,-3.949961545386901,3.3415469782464173,0.7228012770979437
18.255991458892822,0.0020565344020724297,-0.6301343441009521,-1.9577066898345947,0.18771322448714178,0.0037393569946289062,0.13508915901184082,-2.385361795998715,-3.7074328305922526,0.32595360037386295,0.4906884420586124,0.8577119050111905,0.38014458983961713,-0.34568555345285457,-2.150410281091168,-2.6931293355907484,-3.459938696314681,-3.9994760933725804,3.3415469782464173,0.7228012770979437
18.26761293411255,-0.09008330851793289,-0.6088081002235413,-1.81760573387146,0.2000290948037015,0.0032083988189697266,0.13508915901184082,-2.443565245831511,-3.7459339802846543,0.14978557724462696,0.491372015596372,0.4531690041185732,0.37486325098672907,-0.31508226876727835,-2.43886183867208,-2.4568008149467935,-3.742044676614124,-3.7600922899947498,1.8403539817542258,-0.7543011194944587
18.275445461273193,-0.09008330851793289,-0.6088081002235413,-1.81760573387146,0.2000290948037015,0.003273487091064453,0.13508915901184082,-2.4415333610913366,-3.7440900834083695,0.16978557724462698,0.4913792171127981,0.44630531221060193,0.37420049980021886,-0.315854264865532,-2.432191031588696,-2.4628791493503077,-3.7350880985508916,-3.766003541595339,1.8403539817542258,-0.7543011194944587
18.283517599105835,-0.09008330851793289,-0.6088081002235413,-1.81760573387146,0.2000290948037015,0.003223896026611328,0.13508915901184082,-2.4389497831649427,-3.7419350975154355,0.189785577244627,0.491385370018382,0.4394236566952048,0.37375170888407955,-0.3164214954997916,-2.4232381455153957,-2.470820438379394,-3.7258018317670945,-3.7737585412830073,1.8403539817542258,-0.7543011194944587
18.293351650238037,-0.10398650169372559,-0.6051389575004578,-1.7893397808074951,0.1995136272839872,0.0033631324768066406,0.13508915901184082,-2.4357475099915007,-3.739446422989917,0.20978557724462701,0.4915342271297677,0.3421827707392076,0.3641932650655067,-0.30817302119024703,-2.4116867368320682,-2.480803041212943,-3.7139438894788253,-3.783583952344667,1.8403539817542258,-0.7543011194944587
18.301509618759155,-0.10398650169372559,-0.6051389575004578,-1.7893397808074951,0.1995136272839872,0.00330352783203125,0.13508915901184082,-2.43186025190687,-3.7365984656367726,0.22978557724462703,0.49153941816996916,0.3353513184935095,0.35853980972350913,-0.3072559695272745,-2.3971538449233583,-2.493072252762664,-3.699206730495874,-3.795766050740398,1.8403539817542258,-0.7543011194944587
18.30970311164856,-0.10398650169372559,-0.6051389575004578,-1.7893397808074951,0.1995136272839872,0.003319263458251953,0.13508915901184082,-2.4272225355255466,-3.733362643049287,0.24978557724462705,0.4915435428290921,0.3285365847343454,0.35504041334211983,-0.3070696885295086,-2.3791682685643747,-2.5079622230986467,-3.681193837518696,-3.8106741230506103,1.8403539817542258,-0.7543011194944587
18.319739818572998,-0.11614078283309937,-0.60099196434021,-1.7613437175750732,0.19982637322928248,0.0034134387969970703,0.13508915901184082,-2.4217698083409593,-3.7297073948436323,0.26978557724462704,0.4909860658759695,0.27940874731119736,0.32744105270398716,-0.2995011401953734,-2.357140224071791,-2.525926498110881,-3.659387890529014,-3.828792276287723,1.8403539817542258,-0.7543011194944587
18.329707145690918,-0.12275450676679611,-0.5979273319244385,-1.7428339719772339,0.19999114325847306,0.0035734176635742188,0.13508915901184082,-2.4154385438776336,-3.725598196815508,0.2892729448188164,0.49171282726271703,0.1595149993599193,0.3494833078144677,-0.3016088504661093,-2.330318912025987,-2.5475806543038972,-3.6331075237852173,-3.850762671245651,1.8403539817542258,-0.7543011194944587
18.340051889419556,-0.12275450676679611,-0.5979273319244385,-1.7428339719772339,0.19999114325847306,0.003671407699584961,0.13508915901184082,-2.408160543634223,-3.721007606735308,0.30481480428594315,0.49171483086878676,0.15290354284536795,0.3627513648446754,-0.30341051644309874,-2.2977334096194575,-2.5737616103635426,-3.6014487998273217,-3.877444046152509,1.8403539817542258,-0.7543011194944587
18.44821786880493,-0.12275450676679611,-0.5979273319244385,-1.7428339719772339,0.19999114325847306,0.004435300827026367,0.0952913761138916,-2.3998610034478,-3.715932910685074,0.3161153117207787,0.49237383476417373,0.1722387992910835,0.3702301151163452,-0.3043721310912476,-2.2581109993857265,-2.6056095044280116,-3.5632065173920644,-3.909990413881477,2.694765446847195,-1.3258250673110963
18.45960521697998,-0.15089169144630432,-0.5749558806419373,-1.6260040998458862,0.20286864129884952,0.003874063491821289,0.0952913761138916,-2.3904768357672,-3.710382025259529,0.32356091030341644,0.49160359605687465,-0.059819557393635064,0.3076731075897961,-0.2780633726445124,-2.209760688998052,-2.6446843820530392,-3.51676374071167,-3.949961545386901,2.694765446847195,-1.3258250673110963
18.46868085861206,-0.15089169144630432,-0.5749558806419373,-1.6260040998458862,0.20286864129884952,0.003580331802368164,0.0952913761138916,-2.379957634751996,-3.7043714123698823,0.3275186972102084,0.49159857837551735,-0.06621955820702441,0.27031486555230905,-0.2777463367784287,-2.150410281091168,-2.6931293355907484,-3.459938696314681,-3.9994760933725804,2.694765446847195,-1.3258250673110963
18.477352380752563,-0.15089169144630432,-0.5749558806419373,-1.6260040998458862,0.20286864129884952,0.0036520957946777344,0.0952913761138916,-2.4426140524760482,-3.7450496225691334,0.15978557724462697,0.49159347739600634,-0.07246179121520849,0.24767201792491844,-0.2772323833501731,-2.43886183867208,-2.4568008149467935,-3.742044676614124,-3.7600922899947498,2.694765446847195,-1.3258250673110963
18.486260414123535,-0.15089169144630432,-0.5749558806419373,-1.6260040998458862,0.20286864129884952,0.003918647766113281,0.0952913761138916,-2.4403147368902833,-3.743052818831084,0.179785577244627,0.4915883046184487,-0.07854405690043248,0.23392236555818738,-0.27678542517929605,-2.432191031588696,-2.4628791493503077,-3.7350880985508916,-3.766003541595339,2.694765446847195,-1.3258250673110963
18.496870756149292,-0.15542341768741608,-0.5688146352767944,-1.6001713275909424,0.2051516488245661,0.003710031509399414,0.0952913761138916,-2.4374301444983653,-3.7407340008393724,0.199785577244627,0.4915106771116604,-0.099409792871789,0.2091833997584777,-0.27580641197471145,-2.4232381455153957,-2.470820438379394,-3.7258018317670945,-3.7737585412830073,2.694765446847195,-1.3258250673110963
18.50605535507202,-0.15542341768741608,-0.5688146352767944,-1.6001713275909424,0.2051516488245661,0.003881692886352539,0.0952913761138916,-2.433893616503889,-3.738069071131918,0.21978557724462702,0.49150553043711276,-0.10517829709037252,0.19418581763104964,-0.2753129597929086,-2.4116867368320682,-2.480803041212943,-3.7139438894788253,-3.783583952344667,2.694765446847195,-1.3258250673110963
18.51664638519287,-0.15853069722652435,-0.5646657943725586,-1.5836488008499146,0.2067009807550751,0.003915548324584961,0.0952913761138916,-2.429639258348023,-3.735030940371597,0.23978557724462704,0.4914651662265931,-0.12405678643337364,0.19041283269039044,-0.2758583080330678,-2.3971538449233583,-2.493072252762664,-3.699206730495874,-3.795766050740398,2.694765446847195,-1.3258250673110963
18.5259792804718,-0.15853069722652435,-0.5646657943725586,-1.5836488008499146,0.2067009807550751,0.003811359405517578,0.0952913761138916,-2.4246020439712668,-3.7315895356398845,0.25978557724462703,0.491460220038776,-0.1295083576233281,0.1881010265507943,-0.2762164768718864,-2.3791682685643747,-2.5079622230986467,-3.681193837518696,-3.8106741230506103,2.694765446847195,-1.3258250673110963
18.535301208496094,-0.15853069722652435,-0.5646657943725586,-1.5836488008499146,0.2067009807550751,0.003789663314819336,0.0952913761138916,-2.41871792071066,-3.727711812626073,0.27978557724462705,0.49145525621977393,-0.13479383133447878,0.18667273517616784,-0.27637838117026475,-2.357140224071791,-2.525926498110881,-3.659387890529014,-3.828792276287723,2.694765446847195,-1.3258250673110963
18.545872688293457,-0.16248883306980133,-0.5580006837844849,-1.558979868888855,0.2092716495253245,0.0038166046142578125,0.0952913761138916,-2.4119227686625107,-3.7233635737697925,0.2975989398191031,0.49131240554679567,-0.11610677633433247,0.15221087661637633,-0.27697690603605807,-2.330318912025987,-2.5475806543038972,-3.6331075237852173,-3.850762671245651,2.694765446847195,-1.3258250673110963
