time,x,y,z,yaw,ctrl_comp_time,rollout_comptime,y_ref,z_ref,yaw_ref,throttle,roll_rate,pitch_rate,yaw_rate,save_tube_pyH,save_tube_pyL,save_tube_pzH,save_tube_pzL,wy,wz
15.006547689437866,0.0007815692224539816,-2.4705817699432373,-3.7431366443634033,-0.015714502030888075,0.19329237937927246,0.08394193649291992,-2.4741069797100925,-3.7358588259911896,0.08209204545639615,0.4557418993991894,0.8943680934263887,0.04059463495552211,0.007270536586691363,-2.4580678063661527,-2.490395688628349,-3.7205270909394943,-3.7532092656375458,0.4590502351462833,-0.864077852831835
15.534606695175171,0.0007815692224539816,-2.4705817699432373,-3.7431366443634033,-0.015714502030888075,0.1581254005432129,0.07018184661865234,-2.4736834774652467,-3.733603910946509,0.10209204545639614,0.4567438299761738,1.0,0.0761013933773326,-0.0388548306837115,-2.44792989349491,-2.4999240861947065,-3.7086142802144466,-3.76092771035697,0.4590502351462833,-0.864077852831835
15.683045148849487,-0.01702183485031128,-2.430344343185425,-3.74314546585083,0.02704619241536803,0.002527475357055664,0.06624507904052734,-2.472972717340115,-3.7310279617871775,0.12209204545639613,0.4556514372128273,0.6304281395768694,0.06909493921831204,-0.11545150286857035,-2.433656468702247,-2.513079827895681,-3.6926999494103776,-3.772013278864502,0.6019870652296865,-1.2079793666926324
15.69477653503418,-0.01702183485031128,-2.430344343185425,-3.74314546585083,0.02704619241536803,0.004183292388916016,0.06624507904052734,-2.471908475188295,-3.7281210936683427,0.14209204545639614,0.45541610840019575,0.7191592582566791,0.08226689683469915,-0.16624938690334348,-2.413524486905063,-2.53145333706191,-3.671284028746208,-3.7879492233010876,1.149059280673388,-1.7697543408007008
15.707427501678467,-0.01702183485031128,-2.430344343185425,-3.74314546585083,0.02704619241536803,0.004322052001953125,0.06624507904052734,-2.4704247761212383,-3.7248704573284175,0.16209204545639616,0.4551809270084183,0.812044124932677,0.11224711813651264,-0.22825193009331585,-2.3846492233424095,-2.5577971139983102,-3.6417799568252147,-3.811299374757631,1.149059280673388,-1.7697543408007008
15.723150730133057,-0.017330432310700417,-2.428659677505493,-3.743400812149048,0.02739432553922213,0.004922151565551758,0.06624507904052734,-2.468455997066466,-3.7212602258509477,0.18209204545639618,0.455445150201766,0.9396564940290524,0.1603833598125054,-0.31994040070282354,-2.3420591095018226,-2.5969511034039723,-3.599651222425255,-3.846571571093419,1.149059280673388,-1.7697543408007008
15.846785545349121,-0.019684450700879097,-2.417823314666748,-3.7465767860412598,0.02770821211094307,0.0025920867919921875,0.10631179809570312,-2.465936970959086,-3.7172715854186813,0.2020920454563962,0.45513523310274095,0.8107046112647398,0.22292756121728785,-0.4565087016941826,-2.277134430910787,-2.6574042033764487,-3.536923115882044,-3.901705883043839,1.149059280673388,-1.7697543408007008
15.85821795463562,-0.020118348300457,-2.41618013381958,-3.7469866275787354,0.02757333756001667,0.0025658607482910156,0.10631179809570312,-2.4628030923803768,-3.712882730154932,0.22209204545639621,0.4551905622760857,0.948412434301698,0.3246121829788836,-0.6074620714052917,-2.1755079334549356,-2.7533938689707416,-3.4400246315223586,-3.9902326973600064,1.2002360667996232,-1.4120831309109256
15.865304946899414,-0.020118348300457,-2.41618013381958,-3.7469866275787354,0.02757333756001667,0.0025022029876708984,0.10631179809570312,-2.4589904244531526,-3.7080688611379253,0.24209204545639623,0.45495077713601983,1.0,0.46722852808521853,-0.703731035702646,-2.0162258944503018,-2.905745253709038,-3.284415054913517,-4.136646123394759,1.2002360667996232,-1.4120831309109256
15.875803709030151,-0.02062777616083622,-2.4137966632843018,-3.7478954792022705,0.027101075160176916,0.002593517303466797,0.10631179809570312,-2.4544358068000727,-3.702802189664242,0.26209204545639625,0.4545714667972022,1.0,0.567059969659653,-0.751865517851323,-1.769484696962629,-3.1441348501639417,-3.03519657550144,-4.375791382724565,-0.424513831657223,-2.0311869928839226
15.884732961654663,-0.02062777616083622,-2.4137966632843018,-3.7478954792022705,0.027101075160176916,0.0028302669525146484,0.10631179809570312,-2.449076964367959,-3.697051944827819,0.28209204545639627,0.4543306035562713,1.0,0.6369419787617571,-0.7759327589256616,-1.3844610285094727,-3.5192605080885833,-2.6461144590932113,-4.753864647494007,-0.424513831657223,-2.0311869928839226
15.894798994064331,-0.02062777616083622,-2.4137966632843018,-3.7478954792022705,0.027101075160176916,0.0027494430541992188,0.10631179809570312,-2.4428526169185862,-3.690784385471187,0.3020920454563963,0.45409010759793256,1.0,0.68585938513323,-0.7879663794628308,-0.7775215222128553,-4.114632011629243,-2.0337156601789967,-5.354254447611155,-0.424513831657223,-2.0311869928839226
15.90462064743042,-0.02103925310075283,-2.412046432495117,-3.748450517654419,0.026347232502182107,0.002877950668334961,0.10631179809570312,-2.4698602721878022,-3.7401966066483956,0.07968146177979324,0.454259058240568,1.0,0.720101569593261,-0.7939831897314155,-2.457634694020748,-2.482477533410752,-3.728234763463161,-3.7534565429585767,-0.424513831657223,-2.0311869928839226
15.914868593215942,-0.02103925310075283,-2.412046432495117,-3.748450517654419,0.026347232502182107,0.0030612945556640625,0.10631179809570312,-2.4692911600147336,-3.738653446191127,0.09968146177979323,0.45402011940492215,1.0,0.7440710987152827,-0.7969915948657078,-2.4488506756467783,-2.4903653980188665,-3.718424309102979,-3.760507932598101,-0.424513831657223,-2.0311869928839226
16.025209426879883,-0.02103925310075283,-2.412046432495117,-3.748450517654419,0.026347232502182107,0.002834320068359375,0.10009622573852539,-2.468430521112812,-3.7367776200000318,0.11968146177979322,0.4558391966542794,1.0,0.7608497691006979,-0.7984957974328539,-2.4364843665287217,-2.5013184323064035,-3.7050461432761677,-3.7704691583584014,-0.424513831657223,-2.0311869928839226
16.035890579223633,-0.030444854870438576,-2.3916079998016357,-3.7509775161743164,-0.009589281820951104,0.0024247169494628906,0.10009622573852539,-2.467212536229811,-3.7345594752506686,0.13968146177979324,0.4562755728872465,-0.5717522463938185,0.7725948383704886,-0.799247898716427,-2.4191873800493564,-2.516553225268011,-3.686923761737497,-3.7845003493486424,0.5827658498498072,-1.4939277015886963
16.044751167297363,-0.030444854870438576,-2.3916079998016357,-3.7509775161743164,-0.009589281820951104,0.0031249523162841797,0.10009622573852539,-2.4655716202093894,-3.7319864156077633,0.15968146177979325,0.4560655724574003,-0.4889645785511685,0.7808163868593421,-0.6410457639946406,-2.3947391206737993,-2.538158942878428,-3.6620573058920827,-3.804579119019069,0.5827658498498072,-1.4939277015886963
16.054906129837036,-0.030444854870438576,-2.3916079998016357,-3.7509775161743164,-0.009589281820951104,0.004488706588745117,0.10009622573852539,-2.4634425234957673,-3.729042887105041,0.17968146177979327,0.4558511855918792,-0.4020679384786825,0.7501171637804478,-0.7168504645622891,-2.3593577915533004,-2.569786521679138,-3.626976209665921,-3.8341478861838016,0.5827658498498072,-1.4939277015886963
16.069091320037842,-0.032939303666353226,-2.386984348297119,-3.750938892364502,-0.018396952458910397,0.0026352405548095703,0.10009622573852539,-2.460760435321928,-3.725710367970487,0.1996814617797933,0.45641588202492456,-0.6555825272697646,0.7349907464265806,-0.7377056566666833,-2.306483894222933,-2.6178653738190794,-3.5755938952551776,-3.8792591549510327,0.5827658498498072,-1.4939277015886963
16.077959775924683,-0.032939303666353226,-2.386984348297119,-3.750938892364502,-0.018396952458910397,0.002656221389770508,0.10009622573852539,-2.457461088397007,-3.7219673624948446,0.2196814617797933,0.4561976345715094,-0.5606712734080048,0.743447390196711,-0.5999986089092123,-2.2248994618738323,-2.6934843617046256,-3.497360818756961,-3.9504224527627194,1.013601626212481,-1.2103815892799021
16.08724045753479,-0.03743884339928627,-2.379228353500366,-3.7506673336029053,-0.0323140617600985,0.0027098655700683594,0.10009622573852539,-2.4534808649043645,-3.7177893990318203,0.23968146177979333,0.456549556580247,-0.8362124376506748,0.665957943128345,-0.6878569073592015,-2.096872311597737,-2.8142477564881165,-3.3750836321172923,-4.064785160294383,1.013601626212481,-1.2103815892799021
16.094715118408203,-0.03743884339928627,-2.379228353500366,-3.7506673336029053,-0.0323140617600985,0.002691507339477539,0.10009622573852539,-2.4487569036181234,-3.7131490322089626,0.25968146177979334,0.45632673485724773,-0.733249225844385,0.6562781327257173,-0.49939731281201616,-1.898346762422661,-3.0040847331952785,-3.177851925708265,-4.253205769070482,1.013601626212481,-1.2103815892799021
16.104666233062744,-0.040890228003263474,-2.373828887939453,-3.7503814697265625,-0.041810664435971145,0.0027837753295898438,0.10009622573852539,-2.4432272079427233,-3.708015849418587,0.27968146177979336,0.45614403045427265,-0.7302572025964298,0.5504284422456897,-0.5784153306640535,-1.5905053173013493,-3.3016879039420903,-2.867476720498018,-4.55381539798012,1.013601626212481,-1.2103815892799021
16.239681243896484,-0.040890228003263474,-2.373828887939453,-3.7503814697265625,-0.041810664435971145,0.0026552677154541016,0.12545132637023926,-2.4368307546772856,-3.7023564816483856,0.2996814617797934,0.4599650673881802,1.0,0.5030580377228246,-0.49602465892118414,-1.1085136066168648,-3.771768591282973,-2.3817501398916416,-5.028758138743975,1.013601626212481,-1.2103815892799021
16.250176668167114,-0.09046605974435806,-2.3219101428985596,-3.744776964187622,-0.11761355350019488,0.005501985549926758,0.12545132637023926,-2.4700567803784557,-3.740846350376726,0.06968146177979324,0.4625411798391925,1.0,0.29598082500103917,-0.6326228060222614,-2.460962466803848,-2.4794461596417703,-3.7320368629092826,-3.7507918397739344,-3.4866129013469505,-0.3213119498931034
16.264962434768677,-0.09046605974435806,-2.3219101428985596,-3.744776964187622,-0.11761355350019488,0.005558013916015625,0.12545132637023926,-2.4696091002814717,-3.739467242106836,0.08968146177979323,0.4623938970331778,1.0,0.13726794359455538,-0.5954911696291547,-2.453629359778267,-2.486092892463888,-3.723723786204856,-3.7566712204387276,-3.4866129013469505,-0.3213119498931034
16.279683589935303,-0.09046605974435806,-2.3219101428985596,-3.744776964187622,-0.11761355350019488,0.003935575485229492,0.12545132637023926,-2.4689029476655926,-3.737759296623259,0.10968146177979322,0.4622517781346207,1.0,-0.02420758120926648,-0.43247542639840125,-2.443185741210561,-2.495399168751406,-3.712241815977991,-3.765067818310928,-3.4866129013469505,-0.3213119498931034
16.290896892547607,-0.10006950795650482,-2.3137357234954834,-3.7431869506835938,-0.12781778325202228,0.0035724639892578125,0.12545132637023926,-2.467872421832623,-3.7357143267010064,0.12968146177979323,0.46396591698373535,1.0,-0.2527092171677229,-0.12625816417926466,-2.428566097635028,-2.5082985907113122,-3.6966796156403694,-3.7768795160766464,0.18681423486974014,-0.9395496506477047
16.427772521972656,-0.10006950795650482,-2.3137357234954834,-3.7431869506835938,-0.12781778325202228,0.0033206939697265625,0.12629342079162598,-2.466451806184846,-3.733321210156508,0.14968146177979325,0.45994461695823696,1.0,-0.416896452017406,0.36451681211598796,-2.4080480857137627,-2.526381859473264,-3.6755079304787173,-3.793616263531427,0.18681423486974014,-0.9395496506477047
16.438069581985474,-0.2049366682767868,-2.2248387336730957,-3.727407693862915,-0.20281491495465148,0.003086566925048828,0.12629342079162598,-2.4645756688173495,-3.7305658737969063,0.16968146177979326,0.4616569738891002,-0.9050965409018255,-0.5318275164121843,0.582258406057994,-2.378744173391074,-2.5524053332120364,-3.646097789986586,-3.8178818393363296,2.0925366225255764,0.6991083666397752
16.44569993019104,-0.2049366682767868,-2.2248387336730957,-3.727407693862915,-0.20281491495465148,0.0031266212463378906,0.12629342079162598,-2.462178964884585,-3.7274312812625787,0.18968146177979328,0.46145380799268554,-0.780300585023525,-0.612279261488529,0.37003375281939355,-2.3356775961424847,-2.5912152739023426,-3.603854776311701,-3.854239554335648,2.0925366225255764,0.6991083666397752
16.454544067382812,-0.22174857556819916,-2.2112441062927246,-3.724785089492798,-0.20909825945316324,0.003160715103149414,0.12629342079162598,-2.4591971405591027,-3.7238974248653065,0.2096814617797933,0.4621594578432652,-1.0,-0.6685954830419703,0.4321212962106545,-2.270229835372289,-2.651300575292656,-3.5407356356052433,-3.9106956198638616,2.0925366225255764,0.6991083666397752
16.46485447883606,-0.22174857556819916,-2.2112441062927246,-3.724785089492798,-0.20909825945316324,0.003337860107421875,0.12629342079162598,-2.4555662383959795,-3.719941321515259,0.22968146177979332,0.4619580851433126,-0.8772909446745003,-0.7080168381293792,0.3434200523106277,-2.16806819128717,-2.7468653994018934,-3.4431163230318824,-4.00083109047864,2.0925366225255764,0.6991083666397752
16.474652528762817,-0.22174857556819916,-2.2112441062927246,-3.724785089492798,-0.20909825945316324,0.003299236297607422,0.12629342079162598,-2.451223003912521,-3.715537012820537,0.24968146177979333,0.4617556089128122,-0.7393679697587832,-0.7356117866905655,0.4160797992103589,-2.008352517768287,-2.898622653639515,-3.288192593849859,-4.147401268887535,0.3984827357330867,0.16462665868575133
16.622995853424072,-0.40750935673713684,-2.074368715286255,-3.6917972564697266,-0.21701411896298817,0.003396749496459961,0.1372509002685547,-2.4461049931893513,-3.7106555694334764,0.26968146177979335,0.46855104998502883,0.022807052150512486,-0.7549282506833959,0.253170470834662,-1.7614235920813297,-3.136105835325133,-3.039792323321997,-4.386523390465469,0.3984827357330867,0.16462665868575133
16.632643938064575,-0.40750935673713684,-2.074368715286255,-3.6917972564697266,-0.21701411896298817,0.003142833709716797,0.1372509002685547,-2.4401506812960054,-3.7052650997082304,0.28968146177979337,0.4683919593369976,0.19174217467192545,-0.768449775478377,0.526585235417331,-1.37673831587538,-3.50973404676589,-2.652009303577402,-4.764042839382011,-0.7466936551861207,-0.8291739193520238
16.640488862991333,-0.40750935673713684,-2.074368715286255,-3.6917972564697266,-0.21701411896298817,0.0033164024353027344,0.1372509002685547,-2.4698611261210783,-3.740197503321791,0.07968146177979324,0.4682366927508108,0.3653583726716255,-0.777914842834864,0.6632926177086655,-2.460962466803848,-2.4794461596417703,-3.7320368629092826,-3.7507918397739344,-0.7466936551861207,-0.8291739193520238
16.648475408554077,-0.40750935673713684,-2.074368715286255,-3.6917972564697266,-0.21701411896298817,0.0032122135162353516,0.1372509002685547,-2.4692924549809843,-3.7386548171444587,0.09968146177979323,0.46808549383607323,0.5436869204428048,-0.7845403899844049,0.7316463088543328,-2.453629359778267,-2.486092892463888,-3.723723786204856,-3.7566712204387276,-0.7466936551861207,-0.8291739193520238
16.657615661621094,-0.43124428391456604,-2.057353973388672,-3.6871562004089355,-0.21294267844325637,0.0033631324768066406,0.1372509002685547,-2.4684323441731713,-3.736779565858507,0.11968146177979322,0.46869856796672604,0.7631278429181201,-0.7891782729890835,0.7658231544271664,-2.443185741210561,-2.495399168751406,-3.712241815977991,-3.765067818310928,-0.7466936551861207,-0.8291739193520238
16.79024338722229,-0.43124428391456604,-2.057353973388672,-3.6871562004089355,-0.21294267844325637,0.003412008285522461,0.12259626388549805,-2.4672149725935144,-3.734562097005071,0.13968146177979324,0.4641961531469856,1.0,-0.7924247910923584,0.7829115772135832,-2.428566097635028,-2.5082985907113122,-3.6966796156403694,-3.7768795160766464,-0.7466936551861207,-0.8291739193520238
16.800821542739868,-0.6176215410232544,-1.915222406387329,-3.647937059402466,-0.16169235514467703,0.003186941146850586,0.12259626388549805,-2.4655747533015564,-3.7319898146614565,0.15968146177979325,0.46696347211877054,-0.4372286700486365,-0.7946973537646509,0.7914557886067917,-2.4080480857137627,-2.526381859473264,-3.6755079304787173,-3.793616263531427,-0.44133057597262626,1.0620964222354645
16.808512926101685,-0.6176215410232544,-1.915222406387329,-3.647937059402466,-0.16169235514467703,0.003231048583984375,0.12259626388549805,-2.4634464350224143,-3.729047165323673,0.17968146177979327,0.4667672556899739,-0.35316865847115786,-0.7962881476352557,0.14636349366953982,-2.378744173391074,-2.5524053332120364,-3.646097789986586,-3.8178818393363296,-0.44133057597262626,1.0620964222354645
16.81635880470276,-0.6176215410232544,-1.915222406387329,-3.647937059402466,-0.16169235514467703,0.0032205581665039062,0.12259626388549805,-2.4607652053324736,-3.725715627734551,0.1996814617797933,0.46657169471219995,-0.28879011815842714,-0.797401703344679,0.29451548943704897,-2.3356775961424847,-2.5912152739023426,-3.603854776311701,-3.854239554335648,-0.44133057597262626,1.0620964222354645
16.825696229934692,-0.6558606028556824,-1.8841062784194946,-3.639357089996338,-0.14712052156950822,0.003602266311645508,0.12259626388549805,-2.4574667953445326,-3.7219737067552603,0.2196814617797933,0.46577016705888674,-0.6228323198489107,-0.7981811923412753,0.3281010661825382,-2.270229835372289,-2.651300575292656,-3.5407356356052433,-3.9106956198638616,-0.44133057597262626,1.0620964222354645
16.834725379943848,-0.6558606028556824,-1.8841062784194946,-3.639357089996338,-0.14712052156950822,0.003580331802368164,0.12259626388549805,-2.453487585703902,-3.7177969313686963,0.23968146177979333,0.4655821725075815,-0.5591206893159062,-0.7987268346388927,0.07695281561356639,-2.16806819128717,-2.7468653994018934,-3.4431163230318824,-4.00083109047864,-0.44133057597262626,1.0620964222354645
16.844639539718628,-0.6558606028556824,-1.8841062784194946,-3.639357089996338,-0.14712052156950822,0.0035369396209716797,0.12259626388549805,-2.4487647137032322,-3.7131578568937327,0.25968146177979334,0.465394295380288,-0.4957603380858767,-0.7991087842472249,0.1699013210260787,-2.008352517768287,-2.898622653639515,-3.288192593849859,-4.147401268887535,-0.44133057597262626,1.0620964222354645
16.96194338798523,-0.6558606028556824,-1.8841062784194946,-3.639357089996338,-0.14712052156950822,0.003782987594604492,0.10563230514526367,-2.4432361813206356,-3.7080260714797064,0.27968146177979336,0.4662361604751597,0.20861500524130933,-0.7993761489730575,0.1997058359851707,-1.7614235920813297,-3.136105835325133,-3.039792323321997,-4.386523390465469,-0.44133057597262626,1.0620964222354645
16.972898960113525,-0.8513355255126953,-1.7152425050735474,-3.5895321369171143,-0.08363487950290895,0.002582550048828125,0.10563230514526367,-2.4368409639828923,-3.7023682069407977,0.2996814617797934,0.46946725615740126,-0.5097459666085278,-0.7995633042811402,0.45438097349672046,-1.37673831587538,-3.50973404676589,-2.652009303577402,-4.764042839382011,-0.7573077140209503,-1.844411870495376
16.98001003265381,-0.8513355255126953,-1.7152425050735474,-3.5895321369171143,-0.08363487950290895,0.0025832653045654297,0.10563230514526367,-2.4696091002814717,-3.739467242106836,0.08968146177979323,0.46928756919957837,-0.45773885315701135,-0.7996943129967982,-0.10705813454014167,-2.460962466803848,-2.4794461596417703,-3.7320368629092826,-3.7507918397739344,-0.7573077140209503,-1.844411870495376
16.987346410751343,-0.8513355255126953,-1.7152425050735474,-3.5895321369171143,-0.08363487950290895,0.0026865005493164062,0.10563230514526367,-2.4689029476655926,-3.737759296623259,0.10968146177979322,0.4691076060641851,-0.40636206009081094,-0.7997860190977587,0.09174555974241864,-2.453629359778267,-2.486092892463888,-3.723723786204856,-3.7566712204387276,-0.7573077140209503,-1.844411870495376
16.994840145111084,-0.8513355255126953,-1.7152425050735474,-3.5895321369171143,-0.08363487950290895,0.002668619155883789,0.10563230514526367,-2.467872421832623,-3.7357143267010064,0.12968146177979323,0.46892735669711283,-0.3556380656765194,-0.7998502133684311,0.08577318549803122,-2.443185741210561,-2.495399168751406,-3.712241815977991,-3.765067818310928,-0.7573077140209503,-1.844411870495376
17.004825830459595,-0.8738718628883362,-1.6936641931533813,-3.582760810852051,-0.07861252867332855,0.002760171890258789,0.10563230514526367,-2.466451806184846,-3.733321210156508,0.14968146177979325,0.46941095045585646,-0.33943824319554966,-0.7998951493579017,0.0848103509853189,-2.428566097635028,-2.5082985907113122,-3.6966796156403694,-3.7768795160766464,-0.7573077140209503,-1.844411870495376
17.014723539352417,-0.8738718628883362,-1.6936641931533813,-3.582760810852051,-0.07861252867332855,0.0027456283569335938,0.10563230514526367,-2.4645756688173495,-3.7305658737969063,0.16968146177979326,0.46923021984855795,-0.2900785580713432,-0.7999266045505312,0.095024634272223,-2.4080480857137627,-2.526381859473264,-3.6755079304787173,-3.793616263531427,-0.7573077140209503,-1.844411870495376
17.024722576141357,-0.906474232673645,-1.6609480381011963,-3.571815013885498,-0.07149506854363341,0.0028510093688964844,0.10563230514526367,-2.462178964884585,-3.7274312812625787,0.18968146177979328,0.470307021978983,-0.10389510728677354,-0.7999486231853719,0.09550504592104771,-2.378744173391074,-2.5524053332120364,-3.646097789986586,-3.8178818393363296,-0.7573077140209503,-1.844411870495376
17.034685134887695,-0.906474232673645,-1.6609480381011963,-3.571815013885498,-0.07149506854363341,0.002928018569946289,0.10563230514526367,-2.4591971405591027,-3.7238974248653065,0.2096814617797933,0.4701258844531542,-0.05596460481722915,-0.7999640362297603,0.20166809088653953,-2.3356775961424847,-2.5912152739023426,-3.603854776311701,-3.854239554335648,-0.7573077140209503,-1.844411870495376
17.124386310577393,-0.906474232673645,-1.6609480381011963,-3.571815013885498,-0.07149506854363341,0.0026214122772216797,0.08019733428955078,-2.4555662383959795,-3.719941321515259,0.22968146177979332,0.4684355469376883,0.14630185802626253,-0.7999748253608322,0.21307629311142426,-2.270229835372289,-2.651300575292656,-3.5407356356052433,-3.9106956198638616,-0.7573077140209503,-1.844411870495376
17.133687019348145,-1.001744031906128,-1.5513683557510376,-3.533205986022949,-0.048157638613976615,0.0023446083068847656,0.08019733428955078,-2.451223003912521,-3.715537012820537,0.24968146177979333,0.47155157013135496,0.1287689539139272,-0.7999823777525826,0.22011071951663064,-2.16806819128717,-2.7468653994018934,-3.4431163230318824,-4.00083109047864,-2.287374523061459,-2.265884050275651
17.140079736709595,-1.001744031906128,-1.5513683557510376,-3.533205986022949,-0.048157638613976615,0.0023369789123535156,0.08019733428955078,-2.4461049931893513,-3.7106555694334764,0.26968146177979335,0.47137009193458657,0.16754429764500087,-0.7999876644268078,0.2099771765880527,-2.008352517768287,-2.898622653639515,-3.288192593849859,-4.147401268887535,-2.287374523061459,-2.265884050275651
17.147040128707886,-1.001744031906128,-1.5513683557510376,-3.533205986022949,-0.048157638613976615,0.002391338348388672,0.08019733428955078,-2.4401506812960054,-3.7052650997082304,0.28968146177979337,0.47118809814066864,0.2058462226725961,-0.7999913650987655,0.22959712295785636,-1.7614235920813297,-3.136105835325133,-3.039792323321997,-4.386523390465469,-2.287374523061459,-2.265884050275651
17.154639720916748,-1.0181118249893188,-1.5294017791748047,-3.52458119392395,-0.04277974142307224,0.0023250579833984375,0.08019733428955078,-2.433299571341625,-3.6993307627244176,0.3094680251697755,0.47204044135212264,0.2666825691460025,-0.7999939555691358,0.23789073628096596,-1.37673831587538,-3.50973404676589,-2.652009303577402,-4.764042839382011,-2.287374523061459,-2.265884050275651
17.164674043655396,-1.0181118249893188,-1.5294017791748047,-3.52458119392395,-0.04277974142307224,0.0022673606872558594,0.08019733428955078,-2.4692924549809843,-3.7386548171444587,0.09968146177979323,0.47185776988865236,0.3039989289226625,-0.7999957688983951,0.26389263807217683,-2.460962466803848,-2.4794461596417703,-3.7320368629092826,-3.7507918397739344,-2.287374523061459,-2.265884050275651
17.17477011680603,-1.0403892993927002,-1.4968817234039307,-3.511479616165161,-0.034368807676208604,0.0024671554565429688,0.08019733428955078,-2.4684323441731713,-3.736779565858507,0.11968146177979322,0.4723694220303354,0.260262953128833,-0.7999970382288766,0.26088302192073265,-2.453629359778267,-2.486092892463888,-3.723723786204856,-3.7566712204387276,-0.9906096044162811,-1.2335927029279614
17.184706211090088,-1.0403892993927002,-1.4968817234039307,-3.511479616165161,-0.034368807676208604,0.0022552013397216797,0.08019733428955078,-2.4672149725935144,-3.734562097005071,0.13968146177979324,0.4721861900351628,0.2965509973746543,-0.7999979267602136,0.24333524263947282,-2.443185741210561,-2.495399168751406,-3.712241815977991,-3.765067818310928,-0.9906096044162811,-1.2335927029279614
17.194698333740234,-1.0403892993927002,-1.4968817234039307,-3.511479616165161,-0.034368807676208604,0.0023043155670166016,0.08019733428955078,-2.4655747533015564,-3.7319898146614565,0.15968146177979325,0.47200267138377017,0.33231194889657034,-0.7999985487321496,0.25791718750460585,-2.428566097635028,-2.5082985907113122,-3.6966796156403694,-3.7768795160766464,-0.9906096044162811,-1.2335927029279614
17.204613208770752,-1.0540506839752197,-1.4751880168914795,-3.502150774002075,-0.028446662807079165,0.0022051334381103516,0.08019733428955078,-2.4634464350224143,-3.729047165323673,0.17968146177979327,0.47337241281180653,0.2900179980351183,-0.7999989841125048,0.26048841638459863,-2.4080480857137627,-2.526381859473264,-3.6755079304787173,-3.793616263531427,-0.9906096044162811,-1.2335927029279614
17.214742183685303,-1.0540506839752197,-1.4751880168914795,-3.502150774002075,-0.028446662807079165,0.002287149429321289,0.08019733428955078,-2.4607652053324736,-3.725715627734551,0.1996814617797933,0.473188722364296,0.3247045683046723,-0.7999992888787534,0.2448246489052757,-2.378744173391074,-2.5524053332120364,-3.646097789986586,-3.8178818393363296,-0.9906096044162811,-1.2335927029279614
17.224690675735474,-1.0720958709716797,-1.442887306213379,-3.487632989883423,-0.019241189983079336,0.002186298370361328,0.08019733428955078,-2.4574667953445326,-3.7219737067552603,0.2196814617797933,0.47388181362301474,0.30019282201911235,-0.7999995022151274,0.24862167352437978,-2.3356775961424847,-2.5912152739023426,-3.603854776311701,-3.854239554335648,-0.9906096044162811,-1.2335927029279614
17.306867599487305,-1.0720958709716797,-1.442887306213379,-3.487632989883423,-0.019241189983079336,0.0024993419647216797,0.07444119453430176,-2.453487585703902,-3.7177969313686963,0.23968146177979333,0.4713058590974707,0.293499610922148,-0.7999996515505892,0.24081200192558389,-2.270229835372289,-2.651300575292656,-3.5407356356052433,-3.9106956198638616,-0.9906096044162811,-1.2335927029279614
17.315857648849487,-1.102954626083374,-1.368404507637024,-3.4502694606781006,0.002473715831322297,0.0022153854370117188,0.07444119453430176,-2.4487647137032322,-3.7131578568937327,0.25968146177979334,0.4759798440105629,0.2807324462705549,-0.7999997560854124,0.25728694423351783,-2.16806819128717,-2.7468653994018934,-3.4431163230318824,-4.00083109047864,0.7313237039771694,-0.4192874024110317
17.324573278427124,-1.110839605331421,-1.3370553255081177,-3.4326372146606445,0.011869536317302306,0.0025136470794677734,0.07444119453430176,-2.4432361813206356,-3.7080260714797064,0.27968146177979336,0.4786383034242737,0.09366886043663061,-0.7658282767435687,0.2684897183764415,-2.008352517768287,-2.898622653639515,-3.288192593849859,-4.147401268887535,0.7313237039771694,-0.4192874024110317
17.33473563194275,-1.110839605331421,-1.3370553255081177,-3.4326372146606445,0.011869536317302306,0.002337932586669922,0.07444119453430176,-2.4368409639828923,-3.7023682069407977,0.2996814617797934,0.4784637821571631,0.122124365160701,-0.740976900369602,0.2520174795623616,-1.7614235920813297,-3.136105835325133,-3.039792323321997,-4.386523390465469,0.7313237039771694,-0.4192874024110317
17.34470009803772,-1.110839605331421,-1.3370553255081177,-3.4326372146606445,0.011869536317302306,0.0022475719451904297,0.07444119453430176,-2.4295184406114743,-3.6961487609394177,0.31794041511269305,0.4782880297103823,0.15034109992163833,-0.7214926160062926,0.24080915752591894,-1.37673831587538,-3.50973404676589,-2.652009303577402,-4.764042839382011,0.7313237039771694,-0.4192874024110317
17.35470199584961,-1.1140942573547363,-1.3161594867706299,-3.4201102256774902,0.017881478727545256,0.0022039413452148438,0.07444119453430176,-2.4191085183558583,-3.738968412228987,0.09160945413813051,0.4791634416555707,0.05363085022401867,-0.6429837914930597,0.2488882914986862,-2.39441419577882,-2.4457207991778196,-3.7136174514156384,-3.7660309727009844,0.7313237039771694,-0.4192874024110317
17.364798307418823,-1.1140942573547363,-1.3161594867706299,-3.4201102256774902,0.017881478727545256,0.002245664596557617,0.07444119453430176,-2.4169873861352706,-3.736986351816883,0.1116094541381305,0.47898573383559684,0.0813326840665832,-0.584503849629338,0.22802945311990447,-2.3789557197935265,-2.457213349586709,-3.6982547228825537,-3.777790831622332,0.7313237039771694,-0.4192874024110317
17.374614477157593,-1.1156998872756958,-1.2853630781173706,-3.4008805751800537,0.026992143249067797,0.002126932144165039,0.07444119453430176,-2.414541001158361,-3.7346363914133804,0.1316094541381305,0.48048884699880545,0.07096093826830484,-0.45487296050246534,0.22996733968903493,-2.3577451618696803,-2.4738726808386624,-3.6772982367830496,-3.7944177578998466,1.2426708115578964,-2.0320004747176763
17.384675979614258,-1.1156998872756958,-1.2853630781173706,-3.4008805751800537,0.026992143249067797,0.0021309852600097656,0.07444119453430176,-2.4117043175573407,-3.731907213434796,0.1516094541381305,0.48030966466080116,0.09810435049517047,-0.35719928003993323,0.1940722945792286,-2.3279123421127474,-2.498438661242412,-3.6481456038972513,-3.8184944506737386,1.2426708115578964,-2.0320004747176763
17.394681930541992,-1.1156998872756958,-1.2853630781173706,-3.4008805751800537,0.026992143249067797,0.0021300315856933594,0.07444119453430176,-2.4084125859301397,-3.728784544380321,0.17160945413813053,0.48012971128105075,0.12495445468853297,-0.28054827467597304,0.1511997122398779,-2.284506549002522,-2.5357321813638465,-3.606248780475118,-3.8545433658910504,1.2426708115578964,-2.0320004747176763
17.404558420181274,-1.1145981550216675,-1.265201210975647,-3.387639284133911,0.03335232660731487,0.00214385986328125,0.07444119453430176,-2.4046014568967213,-3.725251143707825,0.19160945413813055,0.4810902578595849,0.10634762124777461,-0.16357808174118504,0.11806140826516526,-2.218939857571012,-2.5942120413009366,-3.543631234151326,-3.9105095241516987,1.2426708115578964,-2.0320004747176763
17.414680004119873,-1.1145981550216675,-1.265201210975647,-3.387639284133911,0.03335232660731487,0.0021593570709228516,0.07444119453430176,-2.4002070861758447,-3.72128679677294,0.21160945413813056,0.48090917218703155,0.13258705128240222,-0.07256704354017961,0.07645565747253678,-2.1168819676165542,-2.688080321149518,-3.4467215910761073,-3.9999268453690995,1.2426708115578964,-2.0320004747176763
17.493783235549927,-1.1145981550216675,-1.265201210975647,-3.387639284133911,0.03335232660731487,0.002422332763671875,0.07133364677429199,-2.3951662409929946,-3.716868311920392,0.23160945413813058,0.4757432705029725,0.17917510057529806,-0.002246668205884643,0.0362027191530435,-1.9573886419173743,-2.838154154322227,-3.2922641359071294,-4.146007638787648,1.2426708115578964,-2.0320004747176763
17.502659559249878,-1.0857280492782593,-1.166285514831543,-3.313263416290283,0.06216999352960793,0.0021452903747558594,0.07133364677429199,-2.389416407626481,-3.7119695218070237,0.2516094541381306,0.4848873442273882,0.1479594436481463,0.344082680889609,0.005891539458482976,-1.7109975543491613,-3.0737700934336365,-3.0449608519423896,-4.384000561245514,0.5405397013827435,-1.1994874088461986
17.508644580841064,-1.0857280492782593,-1.166285514831543,-3.313263416290283,0.06216999352960793,0.002148151397705078,0.07133364677429199,-2.3828958998954612,-3.7065612890263187,0.2716094541381306,0.4847002318313254,0.17239261081873192,0.48085787662272633,-0.0627812499262075,-1.327320963008718,-3.4451916532601543,-2.658713577447604,-4.759948467778573,0.5405397013827435,-1.1994874088461986
17.51470184326172,-1.0857280492782593,-1.166285514831543,-3.313263416290283,0.06216999352960793,0.0021479129791259766,0.07133364677429199,-2.3755439683908617,-3.700611516094471,0.29107222669892746,0.4845124124857674,0.19657383458286215,0.5766005136359085,-0.12625698481489417,-0.7233704151512997,-4.035284823571694,-2.050677423133044,-5.35663500974036,0.5405397013827435,-1.1994874088461986
17.524631023406982,-1.0688890218734741,-1.1371876001358032,-3.2883684635162354,0.06817791397177785,0.0023801326751708984,0.07133364677429199,-2.3672919439900415,-3.6940972169747974,0.3062761001225703,0.4874366810739802,0.32658374865491485,0.643620359545136,-0.18415643699633522,0.2387852183157408,-4.981856828626364,-1.082510265875628,-6.31233947112322,0.5405397013827435,-1.1994874088461986
17.534709930419922,-1.0688890218734741,-1.1371876001358032,-3.2883684635162354,0.06817791397177785,0.002203702926635742,0.07133364677429199,-2.418084534690117,-3.738022777252443,0.10160945413813051,0.48724823915190996,0.35024073800570776,0.6905342516815952,-0.2486485481959205,-2.39441419577882,-2.4457207991778196,-3.7136174514156384,-3.7660309727009844,0.5405397013827435,-1.1994874088461986
17.544681072235107,-1.0688890218734741,-1.1371876001358032,-3.2883684635162354,0.06817791397177785,0.0021123886108398438,0.07133364677429199,-2.4158089213541705,-3.735857997341448,0.1216094541381305,0.4870592904135391,0.3736266854456022,0.7233739761771166,-0.29517917912541364,-2.3789557197935265,-2.457213349586709,-3.6982547228825537,-3.777790831622332,0.5405397013827435,-1.1994874088461986
17.554684162139893,-1.048120379447937,-1.1083859205245972,-3.2623679637908936,0.07318264365922711,0.002138853073120117,0.07133364677429199,-2.4131755016775793,-3.7333200272854947,0.1416094541381305,0.4896057326632769,0.32317501784638203,0.7463617833239817,-0.3384625587316663,-2.3577451618696803,-2.4738726808386624,-3.6772982367830496,-3.7944177578998466,0.5405397013827435,-1.1994874088461986
17.564789056777954,-1.048120379447937,-1.1083859205245972,-3.2623679637908936,0.07318264365922711,0.0021669864654541016,0.07133364677429199,-2.4101193651831836,-3.7303960731830843,0.16160945413813052,0.4894164415693931,0.346003966772517,0.7624532483267872,-0.3525458345832039,-2.3279123421127474,-2.498438661242412,-3.6481456038972513,-3.8184944506737386,0.5405397013827435,-1.1994874088461986
17.574681997299194,-1.0322315692901611,-1.089145302772522,-3.244410276412964,0.07541502700005875,0.0021059513092041016,0.07133364677429199,-2.406575949435974,-3.7270703791515123,0.18160945413813054,0.49147855415127384,0.2994678919859137,0.773717273828751,-0.3681116135321238,-2.284506549002522,-2.5357321813638465,-3.606248780475118,-3.8545433658910504,0.36526032322066815,0.0737264013645873
17.584667205810547,-1.0322315692901611,-1.089145302772522,-3.244410276412964,0.07541502700005875,0.002096414566040039,0.07133364677429199,-2.4024811443830356,-3.7233242182226034,0.20160945413813056,0.49128901784706147,0.3217235874163088,0.7816020916801257,-0.3652974863319437,-2.218939857571012,-2.5942120413009366,-3.543631234151326,-3.9105095241516987,0.36526032322066815,0.0737264013645873
17.594736099243164,-1.0322315692901611,-1.089145302772522,-3.244410276412964,0.07541502700005875,0.0021872520446777344,0.07133364677429199,-2.3977713981198003,-3.7191358873473885,0.22160945413813057,0.4910992119634213,0.34368783519422835,0.787121464176088,-0.3693352788221818,-2.1168819676165542,-2.688080321149518,-3.4467215910761073,-3.9999268453690995,0.36526032322066815,0.0737264013645873
17.669761896133423,-1.0322315692901611,-1.089145302772522,-3.244410276412964,0.07541502700005875,0.0024788379669189453,0.06739521026611328,-2.392383823891399,-3.7144807065939522,0.2416094541381306,0.48240561998968745,0.31663989035010787,0.7909850249232616,-0.37702898738486534,-1.9573886419173743,-2.838154154322227,-3.2922641359071294,-4.146007638787648,0.36526032322066815,0.0737264013645873
17.678850650787354,-0.916696310043335,-0.984562873840332,-3.141007661819458,0.07053983725395056,0.0023005008697509766,0.06739521026611328,-2.3862563081344366,-3.7093310226130884,0.2616094541381306,0.487321471771047,-0.33913498558612654,0.7936895174462831,-0.3674361084474744,-1.7109975543491613,-3.0737700934336365,-3.0449608519423896,-4.384000561245514,1.0094453565968247,2.148166445507112
17.685290098190308,-0.916696310043335,-0.984562873840332,-3.141007661819458,0.07053983725395056,0.0022902488708496094,0.06739521026611328,-2.3793276193614976,-3.703656216436703,0.2816094541381306,0.48712519962228895,-0.3185541453108107,0.7955826622123983,-0.14403339240098884,-1.327320963008718,-3.4451916532601543,-2.658713577447604,-4.759948467778573,1.0094453565968247,2.148166445507112
17.694602966308594,-0.916696310043335,-0.984562873840332,-3.141007661819458,0.07053983725395056,0.002363443374633789,0.06739521026611328,-2.3715358051553124,-3.6974248684994246,0.2992746640052722,0.4869277766406537,-0.2981121452132161,0.7969078635486788,-0.03221369901171256,-0.7233704151512997,-4.035284823571694,-2.050677423133044,-5.35663500974036,1.0094453565968247,2.148166445507112
17.70470142364502,-0.8904915452003479,-0.9657701253890991,-3.121582508087158,0.06794668850907244,0.0022611618041992188,0.06739521026611328,-2.3628021608471967,-3.6906299987675784,0.3121344122189094,0.4877925853934244,-0.3745413503172604,0.7978355044840751,0.023066011482045748,0.2387852183157408,-4.981856828626364,-1.082510265875628,-6.31233947112322,1.0094453565968247,2.148166445507112
17.71476459503174,-0.8904915452003479,-0.9657701253890991,-3.121582508087158,0.06794668850907244,0.0024073123931884766,0.06739521026611328,-2.4169873861352706,-3.736986351816883,0.1116094541381305,0.4875934279008518,-0.3544011990458303,0.7984848531388525,0.07678795344733179,-2.39441419577882,-2.4457207991778196,-3.7136174514156384,-3.7660309727009844,1.0094453565968247,2.148166445507112
17.724756002426147,-0.8489473462104797,-0.9378106594085693,-3.0923123359680176,0.0638332829702777,0.0022859573364257812,0.06739521026611328,-2.414541001158361,-3.7346363914133804,0.1316094541381305,0.48902133387641633,-0.4859903365049142,0.7989393971971969,0.1058319459541167,-2.3789557197935265,-2.457213349586709,-3.6982547228825537,-3.777790831622332,1.0094453565968247,2.148166445507112
17.734697580337524,-0.8489473462104797,-0.9378106594085693,-3.0923123359680176,0.0638332829702777,0.0022246837615966797,0.06739521026611328,-2.4117043175573407,-3.731907213434796,0.1516094541381305,0.48882097249444334,-0.46618091252262484,0.7992575780380379,0.1689907617964128,-2.3577451618696803,-2.4738726808386624,-3.6772982367830496,-3.7944177578998466,1.0094453565968247,2.148166445507112
17.744792699813843,-0.8489473462104797,-0.9378106594085693,-3.0923123359680176,0.0638332829702777,0.0023810863494873047,0.06739521026611328,-2.4084125859301397,-3.728784544380321,0.17160945413813053,0.4886199858291703,-0.4465464842561731,0.7994803046266266,0.18808220272677062,-2.3279123421127474,-2.498438661242412,-3.6481456038972513,-3.8184944506737386,1.0094453565968247,2.148166445507112
17.754570960998535,-0.8193531036376953,-0.9194230437278748,-3.0726635456085205,0.0619123832567321,0.0022301673889160156,0.06739521026611328,-2.4046014568967213,-3.725251143707825,0.19160945413813055,0.48827259518570487,-0.5332931970295122,0.7996362132386386,0.19844870743404536,-2.284506549002522,-2.5357321813638465,-3.606248780475118,-3.8545433658910504,1.0094453565968247,2.148166445507112
17.764756441116333,-0.8193531036376953,-0.9194230437278748,-3.0726635456085205,0.0619123832567321,0.002274036407470703,0.06739521026611328,-2.4002070861758447,-3.72128679677294,0.21160945413813056,0.488070565318355,-0.5140257623056131,0.799745349267047,0.23766349378335697,-2.218939857571012,-2.5942120413009366,-3.543631234151326,-3.9105095241516987,1.0094453565968247,2.148166445507112
17.774587154388428,-0.7727695107460022,-0.892323911190033,-3.043084144592285,0.06067705115183267,0.0022656917572021484,0.06739521026611328,-2.3951662409929946,-3.716868311920392,0.23160945413813058,0.489072056809837,-0.4803178603128797,0.7998217444869329,0.25200836093480244,-2.1168819676165542,-2.688080321149518,-3.4467215910761073,-3.9999268453690995,-0.11144700158431164,-0.5308834433930936
17.85379195213318,-0.7727695107460022,-0.892323911190033,-3.043084144592285,0.06067705115183267,0.0025529861450195312,0.07137346267700195,-2.389416407626481,-3.7119695218070237,0.2516094541381306,0.4847693580869049,-0.13347698025841792,0.7998752211408531,0.2429143751280449,-1.9573886419173743,-2.838154154322227,-3.2922641359071294,-4.146007638787648,-0.11144700158431164,-0.5308834433930936
17.862024068832397,-0.6537462472915649,-0.8305936455726624,-2.975015163421631,0.06651702022060456,0.002595663070678711,0.07137346267700195,-2.3828958998954612,-3.7065612890263187,0.2716094541381306,0.485987178636317,0.009287309145720679,0.7999126547985972,0.12579087361764493,-1.7109975543491613,-3.0737700934336365,-3.0449608519423896,-4.384000561245514,-0.11144700158431164,-0.5308834433930936
17.869020223617554,-0.6537462472915649,-0.8305936455726624,-2.975015163421631,0.06651702022060456,0.0022873878479003906,0.07137346267700195,-2.3755439683908617,-3.700611516094471,0.29107222669892746,0.48578195716247863,0.024128113622093134,0.799938858359018,0.01997773594995924,-1.327320963008718,-3.4451916532601543,-2.658713577447604,-4.759948467778573,-0.11144700158431164,-0.5308834433930936
17.87700343132019,-0.6537462472915649,-0.8305936455726624,-2.975015163421631,0.06651702022060456,0.002292633056640625,0.07137346267700195,-2.3672919439900415,-3.6940972169747974,0.3062761001225703,0.48557740490127654,0.0386654505225911,0.7999572008513126,-0.02752877164012538,-0.7233704151512997,-4.035284823571694,-2.050677423133044,-5.35663500974036,2.0053294419711625,0.5495559100438117
17.884549617767334,-0.6175726652145386,-0.8132559657096863,-2.9556667804718018,0.0694467278182288,0.0023109912872314453,0.07137346267700195,-2.3580571560294805,-3.6870251640689573,0.31690599338480335,0.48620754039203673,0.14561757582808643,0.7999700405959188,-0.04564471231404951,0.2387852183157408,-4.981856828626364,-1.082510265875628,-6.31233947112322,2.0053294419711625,0.5495559100438117
17.894715547561646,-0.6175726652145386,-0.8132559657096863,-2.9556667804718018,0.0694467278182288,0.0022776126861572266,0.07137346267700195,-2.4158089213541705,-3.735857997341448,0.1216094541381305,0.48600446095905103,0.15956522331940198,0.7999790284171432,-0.10216594503493882,-2.39441419577882,-2.4457207991778196,-3.7136174514156384,-3.7660309727009844,2.0053294419711625,0.5495559100438117
17.904740810394287,-0.5616517066955566,-0.7881088852882385,-2.9274632930755615,0.07451336610959065,0.002291440963745117,0.07137346267700195,-2.4131755016775793,-3.7333200272854947,0.1416094541381305,0.4850751932706633,0.2571434418803195,0.7999853198920003,-0.11260845036093144,-2.3789557197935265,-2.457213349586709,-3.6982547228825537,-3.777790831622332,2.0053294419711625,0.5495559100438117
17.91457200050354,-0.5616517066955566,-0.7881088852882385,-2.9274632930755615,0.07451336610959065,0.0023012161254882812,0.07137346267700195,-2.4101193651831836,-3.7303960731830843,0.16160945413813052,0.4848732242400652,0.27052443170908663,0.7999897239244003,-0.16418031571104313,-2.3577451618696803,-2.4738726808386624,-3.6772982367830496,-3.7944177578998466,2.0053294419711625,0.5495559100438117
17.924684286117554,-0.5235728621482849,-0.7715878486633301,-2.909125566482544,0.07760991232962922,0.0021750926971435547,0.07137346267700195,-2.406575949435974,-3.7270703791515123,0.18160945413813054,0.48439946097045716,0.24128291976366034,0.7999928067470802,-0.17555289107695812,-2.3279123421127474,-2.498438661242412,-3.6481456038972513,-3.8184944506737386,2.0053294419711625,0.5495559100438117
17.934647798538208,-0.5235728621482849,-0.7715878486633301,-2.909125566482544,0.07760991232962922,0.0022618770599365234,0.07137346267700195,-2.4024811443830356,-3.7233242182226034,0.20160945413813056,0.4841986422188477,0.2541202322153352,0.7999949647229562,-0.1648486154853735,-2.284506549002522,-2.5357321813638465,-3.606248780475118,-3.8545433658910504,2.0053294419711625,0.5495559100438117
17.944690227508545,-0.5235728621482849,-0.7715878486633301,-2.909125566482544,0.07760991232962922,0.002176523208618164,0.07137346267700195,-2.3977713981198003,-3.7191358873473885,0.22160945413813057,0.4839984055106151,0.26669427967553455,0.7999964753060693,-0.16768470722409173,-2.218939857571012,-2.5942120413009366,-3.543631234151326,-3.9105095241516987,2.0053294419711625,0.5495559100438117
17.954679012298584,-0.46521732211112976,-0.7465564012527466,-2.8818936347961426,0.080811547208437,0.0021088123321533203,0.07137346267700195,-2.392383823891399,-3.7144807065939522,0.2416094541381306,0.4831999301379488,0.15091167003446704,0.7999975327142486,-0.16238064412608746,-2.1168819676165542,-2.688080321149518,-3.4467215910761073,-3.9999268453690995,2.0053294419711625,0.5495559100438117
17.96476697921753,-0.46521732211112976,-0.7465564012527466,-2.8818936347961426,0.080811547208437,0.0021071434020996094,0.07137346267700195,-2.3862563081344366,-3.7093310226130884,0.2616094541381306,0.48300069620662656,0.16297619641582878,0.7999982728999739,-0.10036904001642856,-1.9573886419173743,-2.838154154322227,-3.2922641359071294,-4.146007638787648,2.0053294419711625,0.5495559100438117
18.040687322616577,-0.46521732211112976,-0.7465564012527466,-2.8818936347961426,0.080811547208437,0.002282857894897461,0.06711006164550781,-2.3793276193614976,-3.703656216436703,0.2816094541381306,0.48372711885273934,0.14267273109126544,0.7999987910299817,-0.08823098991150155,-1.7109975543491613,-3.0737700934336365,-3.0449608519423896,-4.384000561245514,0.3982878390830793,-3.4492151881511353
18.047940731048584,-0.2629190683364868,-0.6664565205574036,-2.79622483253479,0.07716415488710035,0.0021843910217285156,0.06711006164550781,-2.3715358051553124,-3.6974248684994246,0.2992746640052722,0.4823309219057472,-0.12729985081097672,0.7999991537209872,-0.08520574289610112,-1.327320963008718,-3.4451916532601543,-2.658713577447604,-4.759948467778573,0.3982878390830793,-3.4492151881511353
18.054555654525757,-0.2629190683364868,-0.6664565205574036,-2.79622483253479,0.07716415488710035,0.002190828323364258,0.06711006164550781,-2.3628021608471967,-3.6906299987675784,0.3121344122189094,0.48215607137088423,-0.11837219916459601,0.7999994076046911,0.06463679229843115,-0.7233704151512997,-4.035284823571694,-2.050677423133044,-5.35663500974036,0.3982878390830793,-3.4492151881511353
18.06484580039978,-0.2629190683364868,-0.6664565205574036,-2.79622483253479,0.07716415488710035,0.0023844242095947266,0.06711006164550781,-2.3530485199936577,-3.6832851839012806,0.32064573266730995,0.48198052534627356,-0.10951062145616725,0.7999995853232837,0.08539790821474375,0.2387852183157408,-4.981856828626364,-1.082510265875628,-6.31233947112322,0.3982878390830793,-3.4492151881511353
18.074585437774658,-0.20127104222774506,-0.6441043019294739,-2.7715773582458496,0.07392813642062732,0.002218008041381836,0.06711006164550781,-2.414541001158361,-3.7346363914133804,0.1316094541381305,0.48422245042057155,-0.09989693456310372,0.7999997097262987,0.0742415050997977,-2.39441419577882,-2.4457207991778196,-3.7136174514156384,-3.7660309727009844,-1.8617090875124993,-3.9809885279703336
18.084693908691406,-0.20127104222774506,-0.6441043019294739,-2.7715773582458496,0.07392813642062732,0.002203702926635742,0.06711006164550781,-2.4117043175573407,-3.731907213434796,0.1516094541381305,0.4840460361693064,-0.0911675149199537,0.799999796808409,0.06726142284415126,-2.3789557197935265,-2.457213349586709,-3.6982547228825537,-3.777790831622332,-1.8617090875124993,-3.9809885279703336
18.094579696655273,-0.20127104222774506,-0.6441043019294739,-2.7715773582458496,0.07392813642062732,0.0023505687713623047,0.06711006164550781,-2.4084125859301397,-3.728784544380321,0.17160945413813053,0.4838690224788136,-0.08250417372486626,0.7999998577658863,0.061584347968790004,-2.3577451618696803,-2.4738726808386624,-3.6772982367830496,-3.7944177578998466,-1.8617090875124993,-3.9809885279703336
18.104621171951294,-0.15985529124736786,-0.6297000050544739,-2.7555928230285645,0.07167909224826219,0.0021772384643554688,0.06711006164550781,-2.4046014568967213,-3.725251143707825,0.19160945413813055,0.4830030018986241,-0.06976276444365898,0.7999999004361205,0.05413829613675393,-2.3279123421127474,-2.498438661242412,-3.6481456038972513,-3.8184944506737386,-1.8617090875124993,-3.9809885279703336
18.114747524261475,-0.15985529124736786,-0.6297000050544739,-2.7555928230285645,0.07167909224826219,0.0021736621856689453,0.06711006164550781,-2.4002070861758447,-3.72128679677294,0.21160945413813056,0.48282475544324255,-0.061231559104432814,0.7999999303052843,0.046392766403415595,-2.284506549002522,-2.5357321813638465,-3.606248780475118,-3.8545433658910504,-1.8617090875124993,-3.9809885279703336
18.12470293045044,-0.11883646249771118,-0.6154764890670776,-2.739168405532837,0.06982374807119754,0.002255678176879883,0.06711006164550781,-2.3951662409929946,-3.716868311920392,0.23160945413813058,0.48399811659828273,-0.008096649969195263,0.799999951213699,0.035516869940491635,-2.218939857571012,-2.5942120413009366,-3.543631234151326,-3.9105095241516987,-1.8617090875124993,-3.9809885279703336
18.134560585021973,-0.11883646249771118,-0.6154764890670776,-2.739168405532837,0.06982374807119754,0.0021581649780273438,0.06711006164550781,-2.389416407626481,-3.7119695218070237,0.2516094541381306,0.48381911388629895,0.0003024818793225803,0.7999999658495893,0.006243097367794017,-2.1168819676165542,-2.688080321149518,-3.4467215910761073,-3.9999268453690995,-1.8617090875124993,-3.9809885279703336
18.144686937332153,-0.11883646249771118,-0.6154764890670776,-2.739168405532837,0.06982374807119754,0.002370595932006836,0.06711006164550781,-2.3828958998954612,-3.7065612890263187,0.2716094541381306,0.48363965352705207,0.008635615442730893,0.7999999760947125,-0.0019459397774664795,-1.9573886419173743,-2.838154154322227,-3.2922641359071294,-4.146007638787648,-1.8617090875124993,-3.9809885279703336
18.2238187789917,-0.11883646249771118,-0.6154764890670776,-2.739168405532837,0.06982374807119754,0.0023751258850097656,0.07105684280395508,-2.3755439683908617,-3.700611516094471,0.29107222669892746,0.48325694537076025,0.055399979256911536,0.7999999832662987,-0.00719983874888527,-1.7109975543491613,-3.0737700934336365,-3.0449608519423896,-4.384000561245514,-1.8617090875124993,-3.9809885279703336
18.23249053955078,0.10324835032224655,-0.5429628491401672,-2.6525752544403076,0.0655105207155967,0.002156972885131836,0.07105684280395508,-2.3672919439900415,-3.6940972169747974,0.3062761001225703,0.485583344124602,0.17530026349331163,0.7999999882864092,-0.04281223835922854,-1.327320963008718,-3.4451916532601543,-2.658713577447604,-4.759948467778573,-2.7581729101000905,-3.153074768082883
18.238529920578003,0.10324835032224655,-0.5429628491401672,-2.6525752544403076,0.0655105207155967,0.002134561538696289,0.07105684280395508,-2.3580571560294805,-3.6870251640689573,0.31690599338480335,0.48540331547364024,0.18353157733721825,0.7999999918004864,-0.1019165892612903,-0.7233704151512997,-4.035284823571694,-2.050677423133044,-5.35663500974036,-2.7581729101000905,-3.153074768082883
18.244706392288208,0.10324835032224655,-0.5429628491401672,-2.6525752544403076,0.0655105207155967,0.0021767616271972656,0.07105684280395508,-2.3477687020988496,-3.679413048359269,0.32340700182370924,0.48522322461632705,0.19166387700258036,0.7999999942603405,-0.11065221312917971,0.2387852183157408,-4.981856828626364,-1.082510265875628,-6.31233947112322,-2.7581729101000905,-3.153074768082883
18.254697799682617,0.1615217924118042,-0.5249450206756592,-2.629138708114624,0.06424272439120432,0.002229452133178711,0.07105684280395508,-2.4131755016775793,-3.7333200272854947,0.1416094541381305,0.4845026828420178,0.2021956113221841,0.7999999959822384,-0.11057557177391708,-2.39441419577882,-2.4457207991778196,-3.7136174514156384,-3.7660309727009844,-2.7581729101000905,-3.153074768082883
18.264763355255127,0.1615217924118042,-0.5249450206756592,-2.629138708114624,0.06424272439120432,0.0022630691528320312,0.07105684280395508,-2.4101193651831836,-3.7303960731830843,0.16160945413813052,0.48432239656608156,0.21013382639844935,0.7999999971875669,-0.1155622959107677,-2.3789557197935265,-2.457213349586709,-3.6982547228825537,-3.777790831622332,-2.7581729101000905,-3.153074768082883
18.274617195129395,0.21850043535232544,-0.5075889229774475,-2.606213092803955,0.06254553229784895,0.002162456512451172,0.07105684280395508,-2.406575949435974,-3.7270703791515123,0.18160945413813054,0.48589214592564733,0.3292158983403554,0.7999999980312968,-0.1206406506283659,-2.3577451618696803,-2.4738726808386624,-3.6772982367830496,-3.7944177578998466,2.1463612631042555,-1.0301008274903278
18.284709453582764,0.21850043535232544,-0.5075889229774475,-2.606213092803955,0.06254553229784895,0.0022766590118408203,0.07105684280395508,-2.4024811443830356,-3.7233242182226034,0.20160945413813056,0.48571210739512427,0.33696524206825845,0.7999999986219078,-0.17143116133579242,-2.3279123421127474,-2.498438661242412,-3.6481456038972513,-3.8184944506737386,2.1463612631042555,-1.0301008274903278
18.294707775115967,0.21850043535232544,-0.5075889229774475,-2.606213092803955,0.06254553229784895,0.002234935760498047,0.07105684280395508,-2.3977713981198003,-3.7191358873473885,0.22160945413813057,0.48553204856724475,0.3446220854202458,0.7999999990353356,-0.17886381893047792,-2.284506549002522,-2.5357321813638465,-3.606248780475118,-3.8545433658910504,2.1463612631042555,-1.0301008274903278
18.304712772369385,0.2557234764099121,-0.496378093957901,-2.5906131267547607,0.061195667202990654,0.002184629440307617,0.07105684280395508,-2.392383823891399,-3.7144807065939522,0.2416094541381306,0.4850801041026094,0.43079145202122715,0.799999999324735,-0.18132910561646096,-2.218939857571012,-2.5942120413009366,-3.543631234151326,-3.9105095241516987,2.1463612631042555,-1.0301008274903278
18.314698219299316,0.2557234764099121,-0.496378093957901,-2.5906131267547607,0.061195667202990654,0.002378225326538086,0.07105684280395508,-2.3862563081344366,-3.7093310226130884,0.2616094541381306,0.48489997968956966,0.4382671200526683,0.7999999995273145,-0.2177483098697444,-2.1168819676165542,-2.688080321149518,-3.4467215910761073,-3.9999268453690995,2.1463612631042555,-1.0301008274903278
18.324633359909058,0.30979570746421814,-0.4803418219089508,-2.5679094791412354,0.05796492428499439,0.0023441314697265625,0.07105684280395508,-2.3793276193614976,-3.703656216436703,0.2816094541381306,0.4858904637666538,0.4150117518464656,0.7999999996691202,-0.2123227141346957,-1.9573886419173743,-2.838154154322227,-3.2922641359071294,-4.146007638787648,2.1463612631042555,-1.0301008274903278
18.33472204208374,0.30979570746421814,-0.4803418219089508,-2.5679094791412354,0.05796492428499439,0.0021834373474121094,0.07105684280395508,-2.3715358051553124,-3.6974248684994246,0.2992746640052722,0.4857105620470973,0.4223112779682744,0.7999999997683841,-0.2028356016809996,-1.7109975543491613,-3.0737700934336365,-3.0449608519423896,-4.384000561245514,2.1463612631042555,-1.0301008274903278
18.411815643310547,0.30979570746421814,-0.4803418219089508,-2.5679094791412354,0.05796492428499439,0.0024199485778808594,0.06957769393920898,-2.3628021608471967,-3.6906299987675784,0.3121344122189094,0.4836918258564734,0.28577883319456343,0.7999999998378688,-0.2048611601861797,-1.327320963008718,-3.4451916532601543,-2.658713577447604,-4.759948467778573,2.1463612631042555,-1.0301008274903278
18.420570850372314,0.42865267395973206,-0.4456903636455536,-2.515092134475708,0.04618913366856457,0.002151966094970703,0.06957769393920898,-2.3530485199936577,-3.6832851839012806,0.32064573266730995,0.48577145290934853,0.34389520651424343,0.7999999998865082,-0.15553943801439513,-0.7233704151512997,-4.035284823571694,-2.050677423133044,-5.35663500974036,2.364064249440939,0.6312739699850152
18.427429676055908,0.47588852047920227,-0.43208086490631104,-2.4925854206085205,0.03938967355862827,0.0021398067474365234,0.06957769393920898,-2.342210982084573,-3.6754122565599294,0.32524164825450047,0.48555086742927855,0.2943960188670034,0.7999999999205557,-0.15287244334557853,0.2387852183157408,-4.981856828626364,-1.082510265875628,-6.31233947112322,2.364064249440939,0.6312739699850152
18.434722185134888,0.47588852047920227,-0.43208086490631104,-2.4925854206085205,0.03938967355862827,0.002199888229370117,0.06957769393920898,-2.4117043175573407,-3.731907213434796,0.1516094541381305,0.4853719341196082,0.30296580936946693,0.799999999944389,-0.14242966670122087,-2.39441419577882,-2.4457207991778196,-3.7136174514156384,-3.7660309727009844,2.364064249440939,0.6312739699850152
18.444631576538086,0.47588852047920227,-0.43208086490631104,-2.4925854206085205,0.03938967355862827,0.002195119857788086,0.06957769393920898,-2.4084125859301397,-3.728784544380321,0.17160945413813053,0.48519267977098346,0.31156285885653867,0.7999999999610723,-0.14167169450020864,-2.3789557197935265,-2.457213349586709,-3.6982547228825537,-3.777790831622332,2.364064249440939,0.6312739699850152
18.454731225967407,0.5053640604019165,-0.42360034584999084,-2.4771530628204346,0.03430354954237641,0.0021390914916992188,0.06957769393920898,-2.4046014568967213,-3.725251143707825,0.19160945413813055,0.4856280272654855,0.3370210374472587,0.7999999999727506,-0.1401867554115622,-2.3577451618696803,-2.4738726808386624,-3.6772982367830496,-3.7944177578998466,2.364064249440939,0.6312739699850152
18.46477961540222,0.5053640604019165,-0.42360034584999084,-2.4771530628204346,0.03430354954237641,0.002164602279663086,0.06957769393920898,-2.4002070861758447,-3.72128679677294,0.21160945413813056,0.48544842303664903,0.34565230517186707,0.7999999999809254,-0.1439035324732925,-2.3279123421127474,-2.498438661242412,-3.6481456038972513,-3.8184944506737386,2.364064249440939,0.6312739699850152
18.474695205688477,0.5343276262283325,-0.4151400029659271,-2.46223783493042,0.0292768386424255,0.0021452903747558594,0.06957769393920898,-2.3951662409929946,-3.716868311920392,0.23160945413813058,0.48598220689062877,0.37467249330610164,0.7999999999866478,-0.14223473698865488,-2.284506549002522,-2.5357321813638465,-3.606248780475118,-3.8545433658910504,1.5142493545878124,-3.3622124285343404
18.48468828201294,0.5343276262283325,-0.4151400029659271,-2.46223783493042,0.0292768386424255,0.0021491050720214844,0.06957769393920898,-2.389416407626481,-3.7119695218070237,0.2516094541381306,0.4858024845966793,0.3833126188266559,0.7999999999906535,-0.14482843198325585,-2.218939857571012,-2.5942120413009366,-3.543631234151326,-3.9105095241516987,1.5142493545878124,-3.3622124285343404
18.494666814804077,0.5343276262283325,-0.4151400029659271,-2.46223783493042,0.0292768386424255,0.0020918846130371094,0.06957769393920898,-2.3828958998954612,-3.7065612890263187,0.2716094541381306,0.48562271001549573,0.39194829026481004,0.7999999999934575,-0.14667760867590146,-2.1168819676165542,-2.688080321149518,-3.4467215910761073,-3.9999268453690995,1.5142493545878124,-3.3622124285343404
