time,x,y,z,yaw,ctrl_comp_time,rollout_comptime,y_ref,z_ref,yaw_ref,throttle,roll_rate,pitch_rate,yaw_rate,save_tube_pyH,save_tube_pyL,save_tube_pzH,save_tube_pzL,wy,wz
15.108941793441772,-0.028638802468776703,-2.5338618755340576,-3.764510154724121,0.05509685847232763,0.15040230751037598,0.11920762062072754,-2.529980410007536,-3.7585646669459716,0.1259326712836342,0.45657768696589396,1.0,-0.044524602709449315,-0.03751822426006033,-2.4978023734019263,-2.5634371046321625,-3.7263552852687587,-3.7926992443482006,0.0,0.0
15.646943092346191,-0.01744076982140541,-2.5385279655456543,-3.7603561878204346,0.03780749777843724,0.19753289222717285,0.07976865768432617,-2.5284083323141053,-3.7563725045370258,0.1459326712836342,0.45630493798116134,0.9865332093468739,-0.05812842455911073,-0.010125304506605164,-2.4798208613452073,-2.578671133757963,-3.7078850681602824,-3.8071421548875692,0.0,0.0
15.76474404335022,-0.01744076982140541,-2.5385279655456543,-3.7603561878204346,0.03780749777843724,0.002483844757080078,0.09497737884521484,-2.5263906668222726,-3.753812839216085,0.16593267128363423,0.45625361533699504,1.0,-0.08269807143910574,0.03357107314554541,-2.4543451022043716,-2.600573426708458,-3.6823351621493345,-3.8279439737116463,0.0,0.0
15.77433180809021,-0.003815501695498824,-2.5297515392303467,-3.7535765171051025,0.024621623677432855,0.002613544464111328,0.09497737884521484,-2.523862506307079,-3.7508692314727465,0.18593267128363425,0.4610023594256254,0.3431803089854355,-0.04806630026322272,0.06529989738371109,-2.417254002359532,-2.6331348739398472,-3.645915886975789,-3.858864455324028,0.0,0.0
15.781857967376709,-0.003815501695498824,-2.5297515392303467,-3.7535765171051025,0.024621623677432855,0.002283334732055664,0.09497737884521484,-2.520759409813107,-3.7475222820578504,0.20593267128363427,0.4607764387694099,0.44066959571310305,-0.02619056405108394,0.06321185099658402,-2.3613100716925817,-2.6834635914120164,-3.591906548161294,-3.90658845726612,0.0,0.0
15.788222312927246,-0.003815501695498824,-2.5297515392303467,-3.7535765171051025,0.024621623677432855,0.0022346973419189453,0.09497737884521484,-2.5170175072628327,-3.743749626734578,0.22593267128363428,0.4605489368959368,0.5424484243552407,-0.005952306002161685,0.044682155513374816,-2.274080175622698,-2.763864376352418,-3.5085928015675147,-3.982788560989399,0.0,0.0
15.796586751937866,-0.0023254668340086937,-2.5275633335113525,-3.7515366077423096,0.02469848618402084,0.0024499893188476562,0.09497737884521484,-2.512573605340177,-3.7395259351651826,0.2459326712836343,0.46196523853109006,0.3496660054746368,0.023873966464549364,0.010558168496756982,-2.1362448559606273,-2.893529596941374,-3.3765613196837796,-4.106830399185069,0.0,0.0
15.806113481521606,-0.0023254668340086937,-2.5275633335113525,-3.7515366077423096,0.02469848618402084,0.002533435821533203,0.09497737884521484,-2.5073652944567573,-3.7348229140106692,0.2659326712836343,0.4617376819470862,0.4599090003470575,0.05908496112018133,-0.03861101338003443,-1.9213096142395256,-3.0988281218795843,-3.161919340609692,-4.312553108769733,0.0,0.0
15.817365884780884,0.0002861387620214373,-2.523426055908203,-3.7469189167022705,0.02551392922394142,0.0024445056915283203,0.09497737884521484,-2.5013310566052054,-3.7296093143111073,0.2859326712836343,0.4643622140031529,0.13723388055977637,0.10834131171209437,-0.11430805797407421,-1.584476635579099,-3.4244338113928174,-2.8228247925723076,-4.641739216832493,0.0,0.0
15.826093435287476,0.0002861387620214373,-2.523426055908203,-3.7469189167022705,0.02551392922394142,0.0025620460510253906,0.09497737884521484,-2.49441037390122,-3.72385094320455,0.3059326712836343,0.4641337458979975,0.25599332619694826,0.16765586069107946,-0.18706782804639507,-1.0508559938427837,-3.9451145285199822,-2.285712974452657,-5.167887979194392,0.0,0.0
15.836096048355103,0.0002861387620214373,-2.523426055908203,-3.7469189167022705,0.02551392922394142,0.0025968551635742188,0.09497737884521484,-2.486543010455749,-3.7175117138780767,0.32409472678321793,0.46390348789548486,0.37927198539183704,0.2411237731778908,-0.2969905792750834,-0.19516340794160097,-4.786034600431964,-1.4249450875173935,-6.01656687649057,0.0,0.0
15.846101760864258,0.0021836496889591217,-2.5203797817230225,-3.74277925491333,0.02675938973616593,0.003725767135620117,0.09497737884521484,-2.477651851596952,-3.71057889540572,0.33719440813145674,0.46553579379812926,0.3276917906110953,0.33907046742026964,-0.46243742563016804,1.1956946323380402,-6.160156270819062,-0.026947106515567754,-7.401290691727925,0.0,0.0
15.992212772369385,0.0021836496889591217,-2.5203797817230225,-3.74277925491333,0.02675938973616593,0.0027828216552734375,0.13613653182983398,-2.532050489621179,-3.761898913886456,0.08593267128363422,0.4631899680463136,1.0,0.46713022885954175,-0.631218712815084,-2.51985947263201,-2.5449228539623325,-3.749784018708519,-3.775255267887808,0.0,0.0
16.00232243537903,0.013923357240855694,-2.4893953800201416,-3.694249391555786,0.024270345493590584,0.002292633056640625,0.13613653182983398,-2.5311742093049507,-3.7604049739887015,0.1059326712836342,0.47680825471480914,-0.34517788472291144,0.5669911602016793,-0.715609356407542,-2.510674578084137,-2.5526205761009706,-3.7399046506290756,-3.7824839727997284,0.0,0.0
16.00864291191101,0.013923357240855694,-2.4893953800201416,-3.694249391555786,0.024270345493590584,0.0023398399353027344,0.13613653182983398,-2.5299832806226608,-3.7585677305412974,0.1259326712836342,0.47659686948885016,-0.19454028143404978,0.6368938121411755,-0.7035676858430875,-2.497804495780789,-2.5634398580138376,-3.72635751360036,-3.792702198416047,0.0,0.0
16.01711130142212,0.0151752894744277,-2.4831442832946777,-3.6852331161499023,0.021626216167831697,0.002536296844482422,0.13613653182983398,-2.528412168685497,-3.756376632243267,0.1459326712836342,0.47835651730743667,-0.2583643741130013,0.6858256684988229,-0.7517838429215438,-2.4798238707789393,-2.578674798117486,-3.7078881889703834,-3.8071461855529347,0.0,0.0
16.026083946228027,0.0151752894744277,-2.4831442832946777,-3.6852331161499023,0.021626216167831697,0.0025501251220703125,0.13613653182983398,-2.5263956003423207,-3.7538181906795685,0.16593267128363423,0.47814630309755723,-0.09789406531875366,0.720077967949176,-0.7758919214607719,-2.4543492584490494,-2.6005780078490477,-3.6823393436289926,-3.8279492314021213,0.0,0.0
16.15237069129944,0.0151752894744277,-2.4831442832946777,-3.6852331161499023,0.021626216167831697,0.0025947093963623047,0.11697840690612793,-2.5238686656708667,-3.750875967075086,0.18593267128363425,0.47159442432009013,1.0,0.7440545775644232,-0.7879459607303859,-2.417259700167355,-2.6331402371713715,-3.6459212996339057,-3.8588710895378466,0.0,0.0
16.161975860595703,0.018728816881775856,-2.4295871257781982,-3.6163322925567627,-0.00802865526291055,0.0023109912872314453,0.11697840690612793,-2.5207669211181765,-3.747530563001508,0.20593267128363427,0.481972159066837,0.07359987190468142,0.7306691521467931,-0.7939729803651929,-2.3613179753665303,-2.6834693271996297,-3.5919133883998686,-3.906596593163374,0.0,0.0
16.168415784835815,0.018728816881775856,-2.4295871257781982,-3.6163322925567627,-0.00802865526291055,0.004304170608520508,0.11697840690612793,-2.517026494105503,-3.7437596151332846,0.22593267128363428,0.4818047473329665,0.267301426302223,0.6809580340255152,-0.7969864901825965,-2.274091504371921,-2.7638695151571513,-3.508601433926603,-3.9827981573229922,0.0,0.0
16.183696508407593,0.018152665346860886,-2.4189653396606445,-3.6039581298828125,-0.014853310212484441,0.004326343536376953,0.11697840690612793,-2.51258418890884,-3.7395377941394936,0.2459326712836343,0.4829243186883527,0.29866984742458336,0.624937355095369,-0.7984932450912983,-2.1362619493918475,-2.8935320439182375,-3.376574356316205,-4.106839169011913,0.0,0.0
16.193620443344116,0.018152665346860886,-2.4189653396606445,-3.6039581298828125,-0.014853310212484441,0.0024886131286621094,0.11697840690612793,-2.5073775936225795,-3.7348368077889447,0.2659326712836343,0.48277097951042913,0.5028216725062771,0.5818242963854943,-0.7992466225456492,-1.921336701314487,-3.098823888104005,-3.1619425488626134,-4.312555612065634,0.0,0.0
16.32315230369568,-0.0011422265088185668,-2.3153977394104004,-3.4967803955078125,-0.08446713016646379,0.0030732154846191406,0.1188352108001709,-2.501345188010674,-3.7296254083362395,0.2859326712836343,0.489276299737773,-0.8655773351976259,0.32017032191626105,-0.7089745116111776,-1.5845217080963054,-3.4244151405580436,-2.8228664104438894,-4.641727545243115,0.0,0.0
16.33320641517639,-0.0011422265088185668,-2.3153977394104004,-3.4967803955078125,-0.08446713016646379,0.002559185028076172,0.1188352108001709,-2.4944264520469766,-3.7238694042467753,0.3059326712836343,0.4891348456347052,-0.6647631986890388,0.16232813627884632,-0.3531574464654463,-1.0509352306908566,-3.9450654728589925,-2.285789243887597,-5.167846222959174,0.0,0.0
16.340089797973633,-0.0011422265088185668,-2.3153977394104004,-3.4967803955078125,-0.08446713016646379,0.00254058837890625,0.1188352108001709,-2.5328153689298802,-3.756985941215971,0.09516055678338628,0.48899805380743,-0.45884589235522055,-0.04169945281365006,-0.20171781048950982,-2.512839535969599,-2.554196233614796,-3.7366437164209265,-3.7788039140127028,0.0,0.0
16.347116947174072,-0.0011422265088185668,-2.3153977394104004,-3.4967803955078125,-0.08446713016646379,0.0025932788848876953,0.1188352108001709,-2.531194128429242,-3.755245003023951,0.11516055678338627,0.4888661903634133,-0.24779142263459408,-0.2214450856417473,-0.022894684837220222,-2.499708834371769,-2.56437818076487,-3.7233226213229402,-3.7889974041297685,0.0,0.0
16.35611915588379,-0.009470373392105103,-2.287543535232544,-3.470182180404663,-0.10259371022981967,0.003964662551879883,0.1188352108001709,-2.5292301805017114,-3.7531427188528523,0.1351605567833863,0.4913154801865879,-0.5862721154890127,-0.3950115599492231,0.1867477707646225,-2.481572943149287,-2.5789451951903923,-3.705116656877817,-3.8033627484221086,0.0,0.0
16.488768577575684,-0.009470373392105103,-2.287543535232544,-3.470182180404663,-0.10259371022981967,0.004143476486206055,0.1222987174987793,-2.526858401977459,-3.750667210591144,0.1551605567833863,0.48388752548680325,0.6181402411846721,-0.5165080919644562,0.31465292611909945,-2.4560742869734393,-2.6001243717054683,-3.679894708766246,-3.8240102414141273,0.0,0.0
16.50537657737732,-0.06656116247177124,-2.1523263454437256,-3.3465046882629395,-0.1667477979574492,0.0030667781829833984,0.1222987174987793,-2.5240139799780557,-3.747803652964933,0.17516055678338632,0.492196312251585,-0.08228991364892124,-0.6015556643751194,0.5573264630595497,-2.4191355226633173,-2.631863091923807,-3.643912493153726,-3.8546574668072826,0.0,0.0
16.512689352035522,-0.06656116247177124,-2.1523263454437256,-3.3465046882629395,-0.1667477979574492,0.003092050552368164,0.1222987174987793,-2.5206325148160897,-3.7445342625147493,0.19516055678338634,0.4921018346213334,0.008045602983474898,-0.6610889650625836,0.6481989104812536,-2.3635881136108585,-2.6812006539625077,-3.5905225620049688,-3.901919266159625,0.0,0.0
16.520496129989624,-0.06656116247177124,-2.1523263454437256,-3.3465046882629395,-0.1667477979574492,0.003187417984008789,0.1222987174987793,-2.5166501244267487,-3.740838290605225,0.21516055678338636,0.49201074738453376,0.09706866598186015,-0.7027622755438085,0.7240994552406268,-2.2770865220699648,-2.760354287530658,-3.508108599796075,-3.9773734241364385,0.0,0.0
16.52906584739685,-0.08156510442495346,-2.1230883598327637,-3.320643663406372,-0.16993000803719888,0.0031423568725585938,0.1222987174987793,-2.5120035501432554,-3.7366920205575913,0.23516055678338638,0.4940752936599453,0.09152722696552051,-0.731933592880666,0.7620497276203134,-2.1403459719641464,-2.8884816013762227,-3.377268007473784,-4.100378074671863,0.0,0.0
16.648700714111328,-0.08156510442495346,-2.1230883598327637,-3.320643663406372,-0.16993000803719888,0.004315376281738281,0.10995984077453613,-2.506630263624295,-3.732068768985429,0.2551605567833864,0.4851431628083175,0.2851048716516714,-0.7523535150164662,0.7810248638101568,-1.9270186589676799,-3.091804585956155,-3.164441630759249,-4.3044419711144535,0.0,0.0
16.663390398025513,-0.16267377138137817,-1.9784464836120605,-3.195572853088379,-0.1492274790612732,0.003180980682373047,0.10995984077453613,-2.500468574738256,-3.726938891404509,0.2751605567833864,0.4930555243760909,-0.5692879610111539,-0.7666474605115263,0.7374960000781212,-1.592676075335084,-3.4146275034677585,-2.8280675826773938,-4.631070670626909,0.0,0.0
16.671269178390503,-0.16267377138137817,-1.9784464836120605,-3.195572853088379,-0.1492274790612732,0.0034520626068115234,0.10995984077453613,-2.4934577402062765,-3.721269792177857,0.29516055678338643,0.4928832843646588,-0.5029808630080645,-0.7766532223580684,0.4251622610845933,-1.0628565949845616,-3.931289519342347,-2.2949087897837575,-5.153439003500078,0.0,0.0
16.68045210838318,-0.17702603340148926,-1.954067587852478,-3.1746315956115723,-0.14037544334702196,0.0031909942626953125,0.10995984077453613,-2.485538072803756,-3.715025938847381,0.31417904392766727,0.4940826541153248,-0.5780728102842652,-0.7836572556506479,0.36461595647270073,-0.2129738593388073,-4.766256534299341,-1.4400115318936058,-5.9964325576889275,0.0,0.0
16.68842887878418,-0.17702603340148926,-1.954067587852478,-3.1746315956115723,-0.14037544334702196,0.0032608509063720703,0.10995984077453613,-2.5320435075683188,-3.756160012726354,0.10516055678338627,0.49391376796665065,-0.5138432946957483,-0.7885600789554535,0.3283361177228261,-2.512839535969599,-2.554196233614796,-3.7366437164209265,-3.7788039140127028,0.0,0.0
16.696512937545776,-0.17702603340148926,-1.954067587852478,-3.1746315956115723,-0.14037544334702196,0.0032012462615966797,0.10995984077453613,-2.530259069169839,-3.7542397026499628,0.12516055678338628,0.4937460586233947,-0.45070312789171596,-0.7919920552688174,0.3405473414278669,-2.499708834371769,-2.56437818076487,-3.7233226213229402,-3.7889974041297685,0.0,0.0
16.707064628601074,-0.19163353741168976,-1.9295892715454102,-3.153400421142578,-0.13114731401402696,0.003254413604736328,0.10995984077453613,-2.528099329339453,-3.751952475090187,0.1451605567833863,0.4949694855573863,-0.5161938269618834,-0.7943944386881723,0.3448212608356185,-2.481572943149287,-2.5789451951903923,-3.705116656877817,-3.8033627484221086,0.0,0.0
16.84668493270874,-0.19163353741168976,-1.9295892715454102,-3.153400421142578,-0.13114731401402696,0.004088163375854492,0.1296553611755371,-2.525499307293561,-3.7492849799805046,0.16516055678338631,0.48724904753601417,-0.18653409603675591,-0.7960761070817206,0.3266826090375903,-2.4560742869734393,-2.6001243717054683,-3.679894708766246,-3.8240102414141273,0.0,0.0
16.859870672225952,-0.31563055515289307,-1.729713797569275,-2.963383674621582,-0.043980467415989224,0.002594470977783203,0.1296553611755371,-2.5223943837866822,-3.746220914082297,0.18516055678338633,0.5006100826631293,0.11317548337146296,-0.7972532749572044,0.31382163754686054,-2.4191355226633173,-2.631863091923807,-3.643912493153726,-3.8546574668072826,0.0,0.0
16.867367267608643,-0.31563055515289307,-1.729713797569275,-2.963383674621582,-0.043980467415989224,0.002716541290283203,0.1296553611755371,-2.5187204048003102,-3.742741011966257,0.20516055678338635,0.5004032878429718,0.15803742179985855,-0.7980772924700431,0.34749118642509713,-2.3635881136108585,-2.6812006539625077,-3.5905225620049688,-3.901919266159625,0.0,0.0
16.876020431518555,-0.3284350335597992,-1.7091883420944214,-2.941534996032715,-0.03425355264277637,0.0025985240936279297,0.1296553611755371,-2.5144137866701834,-3.7388230410728234,0.22516055678338637,0.5017603043512949,0.311425034895295,-0.7986541047290302,0.362382680319266,-2.2770865220699648,-2.760354287530658,-3.508108599796075,-3.9773734241364385,0.0,0.0
16.886144161224365,-0.3284350335597992,-1.7091883420944214,-2.941534996032715,-0.03425355264277637,0.0025475025177001953,0.1296553611755371,-2.5094116224619167,-3.7344418009368505,0.24516055678338639,0.5015552826272739,0.35441351206064653,-0.7990578733103212,0.38445988289972793,-2.1403459719641464,-2.8884816013762227,-3.377268007473784,-4.100378074671863,0.0,0.0
16.89623236656189,-0.3515133857727051,-1.6716558933258057,-2.9004201889038086,-0.017746626461835703,0.0026683807373046875,0.1296553611755371,-2.5036517894014207,-3.7295691266521502,0.2651605567833864,0.5042252925200374,0.5649774749730004,-0.7993405113172248,0.3892527189090623,-1.9270186589676799,-3.091804585956155,-3.164441630759249,-4.3044419711144535,0.0,0.0
17.018296480178833,-0.3515133857727051,-1.6716558933258057,-2.9004201889038086,-0.017746626461835703,0.002460002899169922,0.1114804744720459,-2.4970730571634543,-3.7241738966419162,0.2851605567833864,0.493297301509537,0.46421599361778365,-0.7995383579220574,0.4045540395448072,-1.592676075335084,-3.4146275034677585,-2.8280675826773938,-4.631070670626909,0.0,0.0
17.025930881500244,-0.42336225509643555,-1.5469188690185547,-2.753338098526001,0.04244908519018882,0.0021979808807373047,0.1114804744720459,-2.489615196819074,-3.718222044791265,0.30516055678338644,0.4999760202696232,0.4384293502025428,-0.681164675899804,0.38145056038933195,-1.0628565949845616,-3.931289519342347,-2.2949087897837575,-5.153439003500078,0.0,0.0
17.036072254180908,-0.42336225509643555,-1.5469188690185547,-2.753338098526001,0.04244908519018882,0.002424955368041992,0.1114804744720459,-2.481215804879829,-3.7116808177378857,0.32191440675294414,0.4997784205435507,0.4747801241686222,-0.6012089485662996,0.330141812739222,-0.2129738593388073,-4.766256534299341,-1.4400115318936058,-5.9964325576889275,0.0,0.0
17.046133279800415,-0.4429832994937897,-1.5068089962005615,-2.702684164047241,0.06530919866275237,0.002140045166015625,0.1114804744720459,-2.531194128429242,-3.755245003023951,0.11516055678338627,0.5031211248337607,0.569069475483769,-0.4816378579043799,0.271257593252954,-2.512839535969599,-2.554196233614796,-3.7366437164209265,-3.7788039140127028,0.0,0.0
17.056158781051636,-0.4429832994937897,-1.5068089962005615,-2.702684164047241,0.06530919866275237,0.002173900604248047,0.1114804744720459,-2.5292301805017114,-3.7531427188528523,0.1351605567833863,0.5029230759540495,0.6046545326843112,-0.3959169996078718,0.2018696677025957,-2.499708834371769,-2.56437818076487,-3.7233226213229402,-3.7889974041297685,0.0,0.0
17.066272020339966,-0.45258697867393494,-1.4858512878417969,-2.6751489639282227,0.07750923343810254,0.0019505023956298828,0.1114804744720459,-2.526858401977459,-3.750667210591144,0.1551605567833863,0.5040531480045898,0.552356054398256,-0.2974294208312889,0.1289647640571515,-2.481572943149287,-2.5789451951903923,-3.705116656877817,-3.8033627484221086,0.0,0.0
17.07599687576294,-0.45258697867393494,-1.4858512878417969,-2.6751489639282227,0.07750923343810254,0.001913309097290039,0.1114804744720459,-2.5240139799780557,-3.747803652964933,0.17516055678338632,0.5038548971881401,0.5871208477842622,-0.22722799541003755,0.07277643767753292,-2.4560742869734393,-2.6001243717054683,-3.679894708766246,-3.8240102414141273,0.0,0.0
17.086121082305908,-0.45258697867393494,-1.4858512878417969,-2.6751489639282227,0.07750923343810254,0.002043485641479492,0.1114804744720459,-2.5206325148160897,-3.7445342625147493,0.19516055678338634,0.5036566238592561,0.6214578431696415,-0.17568728025351965,0.028284533512589208,-2.4191355226633173,-2.631863091923807,-3.643912493153726,-3.8546574668072826,0.0,0.0
17.17602801322937,-0.48991265892982483,-1.3849456310272217,-2.5310657024383545,0.14186671962631242,0.0033283233642578125,0.08192276954650879,-2.5166501244267487,-3.740838290605225,0.21516055678338636,0.506519889140107,0.35696322152282267,-0.02603139039676728,-0.0781226786874732,-2.3635881136108585,-2.6812006539625077,-3.5905225620049688,-3.901919266159625,0.0,0.0
17.186105966567993,-0.48991265892982483,-1.3849456310272217,-2.5310657024383545,0.14186671962631242,0.002893686294555664,0.08192276954650879,-2.5120035501432554,-3.7366920205575913,0.23516055678338638,0.5062073416870132,0.38535930017843967,0.07156397582774453,-0.133470431539583,-2.2770865220699648,-2.760354287530658,-3.508108599796075,-3.9773734241364385,0.0,0.0
17.19623112678528,-0.49807974696159363,-1.3560614585876465,-2.486635208129883,0.1573971670993508,0.0029468536376953125,0.08192276954650879,-2.506630263624295,-3.732068768985429,0.2551605567833864,0.5084237577562422,0.3147809290039031,0.1520360559947181,-0.18966165868747142,-2.1403459719641464,-2.8884816013762227,-3.377268007473784,-4.100378074671863,0.0,0.0
17.206128358840942,-0.49807974696159363,-1.3560614585876465,-2.486635208129883,0.1573971670993508,0.003041982650756836,0.08192276954650879,-2.500468574738256,-3.726938891404509,0.2751605567833864,0.5081209824006754,0.3428756841302688,0.20656365508477956,-0.2259551688486112,-1.9270186589676799,-3.091804585956155,-3.164441630759249,-4.3044419711144535,0.0,0.0
17.21655774116516,-0.502840518951416,-1.3369587659835815,-2.4568586349487305,0.16623121783264794,0.00322723388671875,0.08192276954650879,-2.4934577402062765,-3.721269792177857,0.29516055678338643,0.5089873043638249,0.21714557484183025,0.2496958399219591,-0.2570663693919029,-1.592676075335084,-3.4146275034677585,-2.8280675826773938,-4.631070670626909,0.0,0.0
17.22612237930298,-0.502840518951416,-1.3369587659835815,-2.4568586349487305,0.16623121783264794,0.003186464309692383,0.08192276954650879,-2.485538072803756,-3.715025938847381,0.31417904392766727,0.5086942850831514,0.24496237568945758,0.2786635596272797,-0.2748787475055506,-1.0628565949845616,-3.931289519342347,-2.2949087897837575,-5.153439003500078,0.0,0.0
17.236068964004517,-0.502840518951416,-1.3369587659835815,-2.4568586349487305,0.16623121783264794,0.003301382064819336,0.08192276954650879,-2.4766373663019685,-3.708187974769029,0.32842811524068666,0.5084033168622598,0.2725283967366714,0.29858906674857577,-0.28841933712305606,-0.2129738593388073,-4.766256534299341,-1.4400115318936058,-5.9964325576889275,0.0,0.0
17.246062755584717,-0.5071237087249756,-1.3178627490997314,-2.427031993865967,0.17485533198641734,0.0037374496459960938,0.08192276954650879,-2.530259069169839,-3.7542397026499628,0.12516055678338628,0.5090014315811731,0.1810929053418921,0.2958617689675429,-0.29922774292058796,-2.512839535969599,-2.554196233614796,-3.7366437164209265,-3.7788039140127028,0.0,0.0
17.256166219711304,-0.5071237087249756,-1.3178627490997314,-2.427031993865967,0.17485533198641734,0.0034232139587402344,0.08192276954650879,-2.528099329339453,-3.751952475090187,0.1451605567833863,0.508720782228444,0.20832567896115722,0.2944582668123056,-0.30402982340952484,-2.499708834371769,-2.56437818076487,-3.7233226213229402,-3.7889974041297685,0.0,0.0
17.26651120185852,-0.5128907561302185,-1.2895033359527588,-2.382340669631958,0.18499751949748264,0.003265380859375,0.08192276954650879,-2.525499307293561,-3.7492849799805046,0.16516055678338631,0.5100549646195248,0.01975964343635861,0.2814906667427665,-0.30766091845772164,-2.481572943149287,-2.5789451951903923,-3.705116656877817,-3.8033627484221086,0.0,0.0
17.384349822998047,-0.5128907561302185,-1.2895033359527588,-2.382340669631958,0.18499751949748264,0.0059909820556640625,0.10806918144226074,-2.5223943837866822,-3.746220914082297,0.18516055678338633,0.49825381487567244,-0.07998733743831535,0.272310020410206,-0.30752138112827043,-2.4560742869734393,-2.6001243717054683,-3.679894708766246,-3.8240102414141273,0.0,0.0
17.40377688407898,-0.5313593745231628,-1.1784616708755493,-2.19598126411438,0.20198255413736554,0.003726482391357422,0.10806918144226074,-2.5187204048003102,-3.742741011966257,0.20516055678338635,0.5075183983437573,-0.3317905032233842,0.09068152129785365,-0.3249689661095277,-2.4191355226633173,-2.631863091923807,-3.643912493153726,-3.8546574668072826,0.0,0.0
17.412121772766113,-0.5313593745231628,-1.1784616708755493,-2.19598126411438,0.20198255413736554,0.0033147335052490234,0.10806918144226074,-2.5144137866701834,-3.7388230410728234,0.22516055678338637,0.5072566218582942,-0.3141010638066014,-0.014946454177671788,-0.31057304486896103,-2.3635881136108585,-2.6812006539625077,-3.5905225620049688,-3.901919266159625,0.0,0.0
17.42015767097473,-0.5313593745231628,-1.1784616708755493,-2.19598126411438,0.20198255413736554,0.0031752586364746094,0.10806918144226074,-2.5094116224619167,-3.7344418009368505,0.24516055678338639,0.5069963473509811,-0.29677406099960274,-0.08047471377675836,-0.2810885832911376,-2.2770865220699648,-2.760354287530658,-3.508108599796075,-3.9773734241364385,0.0,0.0
17.428951501846313,-0.5341812968254089,-1.1583991050720215,-2.1608316898345947,0.2006496839644008,0.003276348114013672,0.10806918144226074,-2.5036517894014207,-3.7295691266521502,0.2651605567833864,0.5078262199216771,-0.3790117795889453,-0.1640040661120268,-0.2609869100721228,-2.1403459719641464,-2.8884816013762227,-3.377268007473784,-4.100378074671863,0.0,0.0
17.436962842941284,-0.5341812968254089,-1.1583991050720215,-2.1608316898345947,0.2006496839644008,0.003270864486694336,0.10806918144226074,-2.4970730571634543,-3.7241738966419162,0.2851605567833864,0.5075672541412074,-0.3624772036714948,-0.21580539646320157,-0.23442214061114008,-1.9270186589676799,-3.091804585956155,-3.164441630759249,-4.3044419711144535,0.0,0.0
17.446101903915405,-0.5378970503807068,-1.1339530944824219,-2.117587089538574,0.19819287979468336,0.003259897232055664,0.10806918144226074,-2.489615196819074,-3.718222044791265,0.30516055678338644,0.5099287187761073,-0.4171996045104474,-0.29610722999079864,-0.2206115985451251,-1.592676075335084,-3.4146275034677585,-2.8280675826773938,-4.631070670626909,0.0,0.0
17.456106185913086,-0.5378970503807068,-1.1339530944824219,-2.117587089538574,0.19819287979468336,0.0031995773315429688,0.10806918144226074,-2.481215804879829,-3.7116808177378857,0.32191440675294414,0.5096730352660875,-0.4014175249255307,-0.3447711789245626,-0.19650661522965332,-1.0628565949845616,-3.931289519342347,-2.2949087897837575,-5.153439003500078,0.0,0.0
17.60546374320984,-0.5378970503807068,-1.1339530944824219,-2.117587089538574,0.19819287979468336,0.0032770633697509766,0.13971781730651855,-2.471792695816138,-3.7045492749836417,0.3337800759537888,0.5021583378823031,-0.21501515051383316,-0.37696188599093644,-0.1750318291653334,-0.2129738593388073,-4.766256534299341,-1.4400115318936058,-5.9964325576889275,0.0,0.0
17.61550807952881,-0.5490934252738953,-1.0109971761703491,-1.8920916318893433,0.1892683607587655,0.0029380321502685547,0.13971781730651855,-2.5292301805017114,-3.7531427188528523,0.1351605567833863,0.5038898367156882,0.9033114081058612,-0.39297399686008455,-0.12895619979662773,-2.512839535969599,-2.554196233614796,-3.7366437164209265,-3.7788039140127028,0.0,0.0
17.624094247817993,-0.5501271486282349,-0.988905668258667,-1.849941611289978,0.19084392086371535,0.003065824508666992,0.13971781730651855,-2.526858401977459,-3.750667210591144,0.1551605567833863,0.5037580132771265,1.0,-0.3884980496634913,-0.13547790879142663,-2.499708834371769,-2.56437818076487,-3.7233226213229402,-3.7889974041297685,0.0,0.0
17.631521224975586,-0.5501271486282349,-0.988905668258667,-1.849941611289978,0.19084392086371535,0.0030341148376464844,0.13971781730651855,-2.5240139799780557,-3.747803652964933,0.17516055678338632,0.5034575241249232,1.0,-0.38522460399191033,-0.14158641091461982,-2.481572943149287,-2.5789451951903923,-3.705116656877817,-3.8033627484221086,0.0,0.0
17.64004349708557,-0.5501271486282349,-0.988905668258667,-1.849941611289978,0.19084392086371535,0.003135204315185547,0.13971781730651855,-2.5206325148160897,-3.7445342625147493,0.19516055678338634,0.503158006769108,1.0,-0.38319569806510406,-0.14456509583190805,-2.4560742869734393,-2.6001243717054683,-3.679894708766246,-3.8240102414141273,0.0,0.0
17.76786208152771,-0.5501271486282349,-0.988905668258667,-1.849941611289978,0.19084392086371535,0.0034329891204833984,0.11823391914367676,-2.5166501244267487,-3.740838290605225,0.21516055678338636,0.4980961918575607,0.5285425944699619,-0.38302009539888715,-0.14541821296982044,-2.4191355226633173,-2.631863091923807,-3.643912493153726,-3.8546574668072826,0.0,0.0
17.77804732322693,-0.5500641465187073,-0.8916470408439636,-1.664984941482544,0.19749296421252266,0.0032007694244384766,0.11823391914367676,-2.5120035501432554,-3.7366920205575913,0.23516055678338638,0.49538488952305804,0.22885050264990214,-0.2391650524622084,-0.18291910110968268,-2.3635881136108585,-2.6812006539625077,-3.5905225620049688,-3.901919266159625,0.0,0.0
17.786428213119507,-0.5500641465187073,-0.8916470408439636,-1.664984941482544,0.19749296421252266,0.0035834312438964844,0.11823391914367676,-2.506630263624295,-3.732068768985429,0.2551605567833864,0.4951481555501692,0.24025812525985224,-0.15460103068460213,-0.18357396791129427,-2.2770865220699648,-2.760354287530658,-3.508108599796075,-3.9773734241364385,0.0,0.0
17.7962064743042,-0.5474703907966614,-0.8734025359153748,-1.630364179611206,0.1972374325724764,0.003229379653930664,0.11823391914367676,-2.500468574738256,-3.726938891404509,0.2751605567833864,0.4945642705383443,0.028734553994901046,-0.0678108125366555,-0.2042816885809943,-2.1403459719641464,-2.8884816013762227,-3.377268007473784,-4.100378074671863,0.0,0.0
17.805967807769775,-0.5474703907966614,-0.8734025359153748,-1.630364179611206,0.1972374325724764,0.0031299591064453125,0.11823391914367676,-2.4934577402062765,-3.721269792177857,0.29516055678338643,0.49435099639008906,0.041301382640390516,-0.016436373582142758,-0.21257552927921375,-1.9270186589676799,-3.091804585956155,-3.164441630759249,-4.3044419711144535,0.0,0.0
17.816510438919067,-0.5449236035346985,-0.8602933287620544,-1.6050264835357666,0.19783312579076245,0.0033159255981445312,0.11823391914367676,-2.485538072803756,-3.715025938847381,0.31417904392766727,0.4945902113648123,-0.1290234581231165,0.05107700395789996,-0.2279438958704813,-1.592676075335084,-3.4146275034677585,-2.8280675826773938,-4.631070670626909,0.0,0.0
17.972747087478638,-0.5449236035346985,-0.8602933287620544,-1.6050264835357666,0.19783312579076245,0.0032558441162109375,0.14641237258911133,-2.4766373663019685,-3.708187974769029,0.32842811524068666,0.49662790326656225,0.2835487504619648,0.08986274432077708,-0.23772726468248337,-1.0628565949845616,-3.931289519342347,-2.2949087897837575,-5.153439003500078,0.0,0.0
17.983430862426758,-0.5161433219909668,-0.7831357717514038,-1.4432486295700073,0.20452403040930833,0.0029964447021484375,0.14641237258911133,-2.466672661217104,-3.700767166649919,0.3380286078627605,0.49805327237851194,0.5661942130826757,0.23685987821762036,-0.28261465907338257,-0.2129738593388073,-4.766256534299341,-1.4400115318936058,-5.9964325576889275,0.0,0.0
17.990578174591064,-0.5161433219909668,-0.7831357717514038,-1.4432486295700073,0.20452403040930833,0.0028581619262695312,0.14641237258911133,-2.528099329339453,-3.751952475090187,0.1451605567833863,0.4978737687576542,0.584908682227754,0.3262686106435886,-0.322147376011436,-2.512839535969599,-2.554196233614796,-3.7366437164209265,-3.7788039140127028,0.0,0.0
17.999064922332764,-0.5113164782524109,-0.7738635540008545,-1.4229098558425903,0.20381680181434547,0.003153085708618164,0.14641237258911133,-2.525499307293561,-3.7492849799805046,0.16516055678338631,0.4976147519972062,0.6155803524368675,0.3659514497411264,-0.33317559875893493,-2.499708834371769,-2.56437818076487,-3.7233226213229402,-3.7889974041297685,0.0,0.0
18.007835149765015,-0.5113164782524109,-0.7738635540008545,-1.4229098558425903,0.20381680181434547,0.0030815601348876953,0.14641237258911133,-2.5223943837866822,-3.746220914082297,0.18516055678338633,0.49743688646714657,0.6339185777837928,0.38875833141861127,-0.33613525871459404,-2.481572943149287,-2.5789451951903923,-3.705116656877817,-3.8033627484221086,0.0,0.0
18.139394521713257,-0.5113164782524109,-0.7738635540008545,-1.4229098558425903,0.20381680181434547,0.0057332515716552734,0.12120866775512695,-2.5187204048003102,-3.742741011966257,0.20516055678338635,0.4956425619758924,0.4722531493948865,0.4009530543076444,-0.33570913529538776,-2.4560742869734393,-2.6001243717054683,-3.679894708766246,-3.8240102414141273,0.0,0.0
18.155843019485474,-0.48084893822669983,-0.7104171514511108,-1.287314772605896,0.17984486711939907,0.0031583309173583984,0.12120866775512695,-2.5144137866701834,-3.7388230410728234,0.22516055678338637,0.4903791647191228,-0.003656001337281223,0.24750577850941893,-0.26175609985304016,-2.4191355226633173,-2.631863091923807,-3.643912493153726,-3.8546574668072826,0.0,0.0
18.163474559783936,-0.48084893822669983,-0.7104171514511108,-1.287314772605896,0.17984486711939907,0.0031685829162597656,0.12120866775512695,-2.5094116224619167,-3.7344418009368505,0.24516055678338639,0.49023726431101955,0.01857821905532825,0.16066722437812672,-0.26560949753068025,-2.3635881136108585,-2.6812006539625077,-3.5905225620049688,-3.901919266159625,0.0,0.0
18.171306133270264,-0.48084893822669983,-0.7104171514511108,-1.287314772605896,0.17984486711939907,0.0031485557556152344,0.12120866775512695,-2.5036517894014207,-3.7295691266521502,0.2651605567833864,0.4900954349747555,0.04067899406305692,0.11097641314487339,-0.2589458900322461,-2.2770865220699648,-2.760354287530658,-3.508108599796075,-3.9773734241364385,0.0,0.0
18.179815530776978,-0.47532328963279724,-0.6981155276298523,-1.263209581375122,0.1725333944590682,0.003123760223388672,0.12120866775512695,-2.4970730571634543,-3.7241738966419162,0.2851605567833864,0.4902202596103671,-0.09555931584556066,0.02852405061189529,-0.23917324036788762,-2.1403459719641464,-2.8884816013762227,-3.377268007473784,-4.100378074671863,0.0,0.0
18.187501430511475,-0.47532328963279724,-0.6981155276298523,-1.263209581375122,0.1725333944590682,0.003461599349975586,0.12120866775512695,-2.489615196819074,-3.718222044791265,0.30516055678338644,0.4900841920293082,-0.07338112618720394,-0.018779623119117673,-0.228191832454346,-1.9270186589676799,-3.091804585956155,-3.164441630759249,-4.3044419711144535,0.0,0.0
18.19702982902527,-0.47226086258888245,-0.6900128722190857,-1.2477328777313232,0.167817300447734,0.0033617019653320312,0.12120866775512695,-2.481215804879829,-3.7116808177378857,0.32191440675294414,0.4886936005378908,-0.23057100833705035,-0.08625417533450787,-0.2127755189903447,-1.592676075335084,-3.4146275034677585,-2.8280675826773938,-4.631070670626909,0.0,0.0
18.316664218902588,-0.47226086258888245,-0.6900128722190857,-1.2477328777313232,0.167817300447734,0.0035867691040039062,0.10869359970092773,-2.471792695816138,-3.7045492749836417,0.3337800759537888,0.4923442024229071,0.0970753597107421,-0.12587810731707785,-0.20204733064381644,-1.0628565949845616,-3.931289519342347,-2.2949087897837575,-5.153439003500078,0.0,0.0
18.326196670532227,-0.4505271911621094,-0.6435202956199646,-1.1589914560317993,0.13765153698490626,0.003296375274658203,0.10869359970092773,-2.461269026404434,-3.696844681715495,0.34123042575010604,0.49335626181020775,-0.06647745689166201,-0.12595961369216788,-0.1796262725807769,-0.2129738593388073,-4.766256534299341,-1.4400115318936058,-5.9964325576889275,0.0,0.0
18.336146593093872,-0.4505271911621094,-0.6435202956199646,-1.1589914560317993,0.13765153698490626,0.0033385753631591797,0.10869359970092773,-2.526858401977459,-3.750667210591144,0.1551605567833863,0.4932535450134993,-0.0421528772415541,-0.12591289959314905,-0.16677685610238513,-2.512839535969599,-2.554196233614796,-3.7366437164209265,-3.7788039140127028,0.0,0.0
18.34608554840088,-0.443864643573761,-0.6317086815834045,-1.13535475730896,0.130903929796424,0.003386259078979492,0.10869359970092773,-2.5240139799780557,-3.747803652964933,0.17516055678338632,0.49478245171089763,0.049558875553425405,-0.09243077606449732,-0.1588476585979292,-2.499708834371769,-2.56437818076487,-3.7233226213229402,-3.7889974041297685,0.0,0.0
18.35612964630127,-0.443864643573761,-0.6317086815834045,-1.13535475730896,0.130903929796424,0.003340005874633789,0.10869359970092773,-2.5206325148160897,-3.7445342625147493,0.19516055678338634,0.49468161910477015,0.07296083512782649,-0.07372092619046382,-0.15781303688621076,-2.481572943149287,-2.5789451951903923,-3.705116656877817,-3.8033627484221086,0.0,0.0
18.36657166481018,-0.43597257137298584,-0.6208709478378296,-1.11479651927948,0.1257694969805785,0.00331878662109375,0.10869359970092773,-2.5166501244267487,-3.740838290605225,0.21516055678338636,0.4952729344933935,0.09349327514009148,-0.04428611787251289,-0.15698089064044718,-2.4560742869734393,-2.6001243717054683,-3.679894708766246,-3.8240102414141273,0.0,0.0
18.37627387046814,-0.43597257137298584,-0.6208709478378296,-1.11479651927948,0.1257694969805785,0.0035674571990966797,0.10869359970092773,-2.5120035501432554,-3.7366920205575913,0.23516055678338638,0.49517415035875756,0.11594960498993578,-0.027626646750416445,-0.1569643639927871,-2.4191355226633173,-2.631863091923807,-3.643912493153726,-3.8546574668072826,0.0,0.0
18.38617253303528,-0.43597257137298584,-0.6208709478378296,-1.11479651927948,0.1257694969805785,0.0033905506134033203,0.10869359970092773,-2.506630263624295,-3.732068768985429,0.2551605567833864,0.4950761742016264,0.1379914835849194,-0.01817888065098129,-0.1571121641146123,-2.3635881136108585,-2.6812006539625077,-3.5905225620049688,-3.901919266159625,0.0,0.0
18.515219926834106,-0.3933878540992737,-0.5710861086845398,-1.0227735042572021,0.10253719012855278,0.003459453582763672,0.1182241439819336,-2.500468574738256,-3.726938891404509,0.2751605567833864,0.49721054622868033,-0.22281863668890617,0.04714171273754408,-0.15410862270229833,-2.2770865220699648,-2.760354287530658,-3.508108599796075,-3.9773734241364385,0.0,0.0
18.524392127990723,-0.3933878540992737,-0.5710861086845398,-1.0227735042572021,0.10253719012855278,0.003050565719604492,0.1182241439819336,-2.4934577402062765,-3.721269792177857,0.29516055678338643,0.4971176774811621,-0.200341922317535,0.08383146142746108,-0.14272240501199657,-2.1403459719641464,-2.8884816013762227,-3.377268007473784,-4.100378074671863,0.0,0.0
18.532799005508423,-0.38019120693206787,-0.5591243505477905,-1.0017364025115967,0.0968916014580638,0.0030982494354248047,0.1182241439819336,-2.485538072803756,-3.715025938847381,0.31417904392766727,0.49786677047017924,-0.3801791086575599,0.12211056584487466,-0.1359658739090479,-1.9270186589676799,-3.091804585956155,-3.164441630759249,-4.3044419711144535,0.0,0.0
18.540369510650635,-0.38019120693206787,-0.5591243505477905,-1.0017364025115967,0.0968916014580638,0.003191232681274414,0.1182241439819336,-2.4766373663019685,-3.708187974769029,0.32842811524068666,0.497775951226194,-0.35829606848499457,0.1435412187145111,-0.1330510671711264,-1.592676075335084,-3.4146275034677585,-2.8280675826773938,-4.631070670626909,0.0,0.0
18.54923152923584,-0.37125539779663086,-0.5506742000579834,-0.9864141941070557,0.09278860685380041,0.00318145751953125,0.1182241439819336,-2.466672661217104,-3.700767166649919,0.3380286078627605,0.4987632793133502,-0.44155908562122037,0.16981425339695733,-0.12971909698308862,-1.0628565949845616,-3.931289519342347,-2.2949087897837575,-5.153439003500078,0.0,0.0
18.55684518814087,-0.37125539779663086,-0.5506742000579834,-0.9864141941070557,0.09278860685380041,0.0031099319458007812,0.1182241439819336,-2.4555744216962636,-3.692785426761273,0.3434406306098095,0.4986740663081165,-0.4202781233054367,0.18425751671616072,-0.13038463713831838,-0.2129738593388073,-4.766256534299341,-1.4400115318936058,-5.9964325576889275,0.0,0.0
18.566648721694946,-0.3622758984565735,-0.5423164963722229,-0.9710648655891418,0.08853662428312829,0.003287076950073242,0.1182241439819336,-2.525499307293561,-3.7492849799805046,0.16516055678338631,0.49927785652416845,-0.4162189263405316,0.20377410668455342,-0.12828734154653854,-2.512839535969599,-2.554196233614796,-3.7366437164209265,-3.7788039140127028,0.0,0.0
18.692911386489868,-0.3622758984565735,-0.5423164963722229,-0.9710648655891418,0.08853662428312829,0.003518819808959961,0.11685657501220703,-2.5223943837866822,-3.746220914082297,0.18516055678338633,0.49488478440314143,-0.18942512630939168,0.21391052115250503,-0.12956849863869216,-2.499708834371769,-2.56437818076487,-3.7233226213229402,-3.7889974041297685,0.0,0.0
18.703542947769165,-0.28981104493141174,-0.48891952633857727,-0.8672354221343994,0.06366312275646563,0.0025873184204101562,0.11685657501220703,-2.5187204048003102,-3.742741011966257,0.20516055678338635,0.5011563199892044,-0.10727071223270182,0.33875286426324386,-0.11223464626539043,-2.481572943149287,-2.5789451951903923,-3.705116656877817,-3.8033627484221086,0.0,0.0
18.71064519882202,-0.28981104493141174,-0.48891952633857727,-0.8672354221343994,0.06366312275646563,0.0025904178619384766,0.11685657501220703,-2.5144137866701834,-3.7388230410728234,0.22516055678338637,0.5010733195325421,-0.0888088290584747,0.4044451922284025,-0.11237947038868427,-2.4560742869734393,-2.6001243717054683,-3.679894708766246,-3.8240102414141273,0.0,0.0
18.717663764953613,-0.28981104493141174,-0.48891952633857727,-0.8672354221343994,0.06366312275646563,0.0025489330291748047,0.11685657501220703,-2.5094116224619167,-3.7344418009368505,0.24516055678338639,0.500991212070552,-0.07081329784181795,0.4406141380267831,-0.11484440351357261,-2.4191355226633173,-2.631863091923807,-3.643912493153726,-3.8546574668072826,0.0,0.0
18.72606110572815,-0.276502400636673,-0.48058584332466125,-0.8507874011993408,0.05991334811239918,0.002729654312133789,0.11685657501220703,-2.5036517894014207,-3.7295691266521502,0.2651605567833864,0.5018089174319291,-0.03888997542950262,0.46591993004632926,-0.1157055405686593,-2.3635881136108585,-2.6812006539625077,-3.5905225620049688,-3.901919266159625,0.0,0.0
18.736186742782593,-0.276502400636673,-0.48058584332466125,-0.8507874011993408,0.05991334811239918,0.002798795700073242,0.11685657501220703,-2.4970730571634543,-3.7241738966419162,0.2851605567833864,0.5017286925526836,-0.02181674346715967,0.47974516776164067,-0.11612615579939989,-2.2770865220699648,-2.760354287530658,-3.508108599796075,-3.9773734241364385,0.0,0.0
18.746118545532227,-0.25410196185112,-0.4676201343536377,-0.8261693120002747,0.05392284430172489,0.0026657581329345703,0.11685657501220703,-2.489615196819074,-3.718222044791265,0.30516055678338644,0.5025830665991073,-0.07388381264129545,0.5065597029329634,-0.1124440049533893,-2.1403459719641464,-2.8884816013762227,-3.377268007473784,-4.100378074671863,0.0,0.0
18.75629162788391,-0.25410196185112,-0.4676201343536377,-0.8261693120002747,0.05392284430172489,0.002870321273803711,0.11685657501220703,-2.481215804879829,-3.7116808177378857,0.32191440675294414,0.5025047694196243,-0.057716336492520726,0.5211284577843067,-0.1131461368300449,-1.9270186589676799,-3.091804585956155,-3.164441630759249,-4.3044419711144535,0.0,0.0
18.880183935165405,-0.25410196185112,-0.4676201343536377,-0.8261693120002747,0.05392284430172489,0.002483844757080078,0.11463427543640137,-2.471792695816138,-3.7045492749836417,0.3337800759537888,0.4973301460749985,-0.057075575014393684,0.5289883772031179,-0.11365250491026191,-1.592676075335084,-3.4146275034677585,-2.8280675826773938,-4.631070670626909,0.0,0.0
18.888948440551758,-0.1381656527519226,-0.4072197377681732,-0.7178001403808594,0.025544001278029946,0.002300739288330078,0.11463427543640137,-2.461269026404434,-3.696844681715495,0.34123042575010604,0.5020936228135594,-0.22837770750785077,0.5377792686144295,-0.09294920833349754,-1.0628565949845616,-3.931289519342347,-2.2949087897837575,-5.153439003500078,0.0,0.0
18.89646863937378,-0.1178385317325592,-0.3975151777267456,-0.7007731199264526,0.021943924603412063,0.002199411392211914,0.11463427543640137,-2.4495823170816404,-3.6885935658449935,0.3447127064216342,0.5032154994152112,-0.2827074162115803,0.5282405986329618,-0.08780029176182608,-0.2129738593388073,-4.766256534299341,-1.4400115318936058,-5.9964325576889275,0.0,0.0
18.906037092208862,-0.1178385317325592,-0.3975151777267456,-0.7007731199264526,0.021943924603412063,0.0021872520446777344,0.11463427543640137,-2.5240139799780557,-3.747803652964933,0.17516055678338632,0.50313840797443,-0.2690609369496228,0.523059318155071,-0.08650110683642571,-2.512839535969599,-2.554196233614796,-3.7366437164209265,-3.7788039140127028,0.0,0.0
18.916267156600952,-0.08820074796676636,-0.3838329315185547,-0.6771985292434692,0.01659956163919135,0.002061128616333008,0.11463427543640137,-2.5206325148160897,-3.7445342625147493,0.19516055678338634,0.503700422777794,-0.42180842194303064,0.5174381055367155,-0.0769048550881463,-2.499708834371769,-2.56437818076487,-3.7233226213229402,-3.7889974041297685,0.0,0.0
18.925999402999878,-0.08820074796676636,-0.3838329315185547,-0.6771985292434692,0.01659956163919135,0.002012968063354492,0.11463427543640137,-2.5166501244267487,-3.740838290605225,0.21516055678338636,0.5036255683861347,-0.40876061700891686,0.5140667201337048,-0.07784678943128066,-2.481572943149287,-2.5789451951903923,-3.705116656877817,-3.8033627484221086,0.0,0.0
18.93599581718445,-0.08820074796676636,-0.3838329315185547,-0.6771985292434692,0.01659956163919135,0.001997232437133789,0.11463427543640137,-2.5120035501432554,-3.7366920205575913,0.23516055678338638,0.5035518120410174,-0.396010343305229,0.5123900741374011,-0.07719083282638042,-2.4560742869734393,-2.6001243717054683,-3.679894708766246,-3.8240102414141273,0.0,0.0
18.9460027217865,-0.05742637440562248,-0.3700258433818817,-0.6537408828735352,0.011875140120519661,0.001950979232788086,0.11463427543640137,-2.506630263624295,-3.732068768985429,0.2551605567833864,0.5047227348612053,-0.4012443103309305,0.5078259242640708,-0.07348761529672979,-2.4191355226633173,-2.631863091923807,-3.643912493153726,-3.8546574668072826,0.0,0.0
19.034343719482422,-0.05742637440562248,-0.3700258433818817,-0.6537408828735352,0.011875140120519661,0.0023055076599121094,0.08091926574707031,-2.500468574738256,-3.726938891404509,0.2751605567833864,0.4994442412684873,-0.1887445599705983,0.5056153118777106,-0.07084010332136079,-2.3635881136108585,-2.6812006539625077,-3.5905225620049688,-3.901919266159625,0.0,0.0
19.042406797409058,0.05575072020292282,-0.3235122561454773,-0.5722871422767639,0.0007206567514935142,0.002095460891723633,0.08091926574707031,-2.4934577402062765,-3.721269792177857,0.29516055678338643,0.5034171804314177,0.06616905636599163,0.4574343511463447,-0.07209405601622823,-2.2770865220699648,-2.760354287530658,-3.508108599796075,-3.9773734241364385,0.0,0.0
19.04822325706482,0.05575072020292282,-0.3235122561454773,-0.5722871422767639,0.0007206567514935142,0.002115488052368164,0.08091926574707031,-2.485538072803756,-3.715025938847381,0.31417904392766727,0.5033472591423953,0.0743960512006342,0.43293788111971776,-0.05035537143770928,-2.1403459719641464,-2.8884816013762227,-3.377268007473784,-4.100378074671863,0.0,0.0
19.055964946746826,0.05575072020292282,-0.3235122561454773,-0.5722871422767639,0.0007206567514935142,0.0021181106567382812,0.08091926574707031,-2.4766373663019685,-3.708187974769029,0.32842811524068666,0.5032786836836374,0.08234866233265592,0.4199465493483387,-0.03834067530353418,-1.9270186589676799,-3.091804585956155,-3.164441630759249,-4.3044419711144535,0.0,0.0
19.066345930099487,0.07808978110551834,-0.3145766258239746,-0.5551043748855591,-0.0012731044526098096,0.002056598663330078,0.08091926574707031,-2.466672661217104,-3.700767166649919,0.3380286078627605,0.5030316931359885,0.1383666252425242,0.40570022032729613,-0.03253333949986478,-1.592676075335084,-3.4146275034677585,-2.8280675826773938,-4.631070670626909,0.0,0.0
19.07614827156067,0.07808978110551834,-0.3145766258239746,-0.5551043748855591,-0.0012731044526098096,0.002025127410888672,0.08091926574707031,-2.4555744216962636,-3.692785426761273,0.3434406306098095,0.5029657859996239,0.14578860332299232,0.39816616911260866,-0.026580698698319295,-1.0628565949845616,-3.931289519342347,-2.2949087897837575,-5.153439003500078,0.0,0.0
19.086073875427246,0.07808978110551834,-0.3145766258239746,-0.5551043748855591,-0.0012731044526098096,0.0019459724426269531,0.08091926574707031,-2.4432869980421326,-3.684273796490145,0.3450985226642554,0.5029012109243782,0.1529543937753159,0.3942221619133323,-0.023242491138736245,-0.2129738593388073,-4.766256534299341,-1.4400115318936058,-5.9964325576889275,0.0,0.0
19.096072912216187,0.11158517748117447,-0.301349014043808,-0.5289790630340576,-0.004511734239190384,0.0021638870239257812,0.08091926574707031,-2.5223943837866822,-3.746220914082297,0.18516055678338633,0.5044054843994698,0.2436278512228648,0.37036587518825914,-0.020992931383236383,-2.512839535969599,-2.554196233614796,-3.7366437164209265,-3.7788039140127028,0.0,0.0
19.10605764389038,0.11158517748117447,-0.301349014043808,-0.5289790630340576,-0.004511734239190384,0.0018992424011230469,0.08091926574707031,-2.5187204048003102,-3.742741011966257,0.20516055678338635,0.504343644218938,0.2502996128370739,0.3579637528058076,-0.015244675648192594,-2.499708834371769,-2.56437818076487,-3.7233226213229402,-3.7889974041297685,0.0,0.0
19.116146564483643,0.14426948130130768,-0.28832921385765076,-0.5028148889541626,-0.007519319775350726,0.0017969608306884766,0.08091926574707031,-2.5144137866701834,-3.7388230410728234,0.22516055678338637,0.5056582009596822,0.19831464505084273,0.3305838357513297,-0.0074111910232782675,-2.481572943149287,-2.5789451951903923,-3.705116656877817,-3.8033627484221086,0.0,0.0
19.126014947891235,0.14426948130130768,-0.28832921385765076,-0.5028148889541626,-0.007519319775350726,0.0018916130065917969,0.08091926574707031,-2.5094116224619167,-3.7344418009368505,0.24516055678338639,0.5055990444591429,0.20451686173854317,0.31669055598002205,-0.006572783583375779,-2.4560742869734393,-2.6001243717054683,-3.679894708766246,-3.8240102414141273,0.0,0.0
19.136064052581787,0.14426948130130768,-0.28832921385765076,-0.5028148889541626,-0.007519319775350726,0.0018157958984375,0.08091926574707031,-2.5036517894014207,-3.7295691266521502,0.2651605567833864,0.5055411759910468,0.21049346671697602,0.309546922520362,-0.006019580017028438,-2.4191355226633173,-2.631863091923807,-3.643912493153726,-3.8546574668072826,0.0,0.0
19.224377393722534,0.24116316437721252,-0.25028929114341736,-0.4232556223869324,-0.013367435875831975,0.0022897720336914062,0.08063387870788574,-2.4970730571634543,-3.7241738966419162,0.2851605567833864,0.5044032306456363,-0.17152647512121555,0.24146901098786558,0.013426562188032167,-2.3635881136108585,-2.6812006539625077,-3.5905225620049688,-3.901919266159625,0.0,0.0
19.231868505477905,0.24116316437721252,-0.25028929114341736,-0.4232556223869324,-0.013367435875831975,0.0022487640380859375,0.08063387870788574,-2.489615196819074,-3.718222044791265,0.30516055678338644,0.5043453864467639,-0.16501303931863376,0.20692417526798587,0.0010236423081175718,-2.2770865220699648,-2.760354287530658,-3.508108599796075,-3.9773734241364385,0.0,0.0
19.237804174423218,0.24116316437721252,-0.25028929114341736,-0.4232556223869324,-0.013367435875831975,0.0020775794982910156,0.08063387870788574,-2.481215804879829,-3.7116808177378857,0.32191440675294414,0.5042883239674915,-0.1585687728283129,0.18980770012855303,-0.0014354366630022085,-2.1403459719641464,-2.8884816013762227,-3.377268007473784,-4.100378074671863,0.0,0.0
19.245934009552002,0.2731284201145172,-0.23816397786140442,-0.39648228883743286,-0.014072372518259775,0.0020363330841064453,0.08063387870788574,-2.471792695816138,-3.7045492749836417,0.3337800759537888,0.5061379993695674,-0.3112026188376242,0.1678754403651595,0.0005701304521704839,-1.9270186589676799,-3.091804585956155,-3.164441630759249,-4.3044419711144535,0.0,0.0
19.25612163543701,0.2731284201145172,-0.23816397786140442,-0.39648228883743286,-0.014072372518259775,0.002155780792236328,0.08063387870788574,-2.461269026404434,-3.696844681715495,0.34123042575010604,0.5060826480941417,-0.30490316367726517,0.1568683994048581,-0.00042531072843076507,-1.592676075335084,-3.4146275034677585,-2.8280675826773938,-4.631070670626909,0.0,0.0
19.266223907470703,0.3050020933151245,-0.22613970935344696,-0.36933445930480957,-0.015118551902738926,0.0019254684448242188,0.08063387870788574,-2.4495823170816404,-3.6885935658449935,0.3447127064216342,0.5079658132846908,-0.3582189309660497,0.13896787330410582,0.0002544688699527913,-1.0628565949845616,-3.931289519342347,-2.2949087897837575,-5.153439003500078,0.0,0.0
19.276076555252075,0.3050020933151245,-0.22613970935344696,-0.36933445930480957,-0.015118551902738926,0.0019078254699707031,0.08063387870788574,-2.436683543546482,-3.679831319952031,0.34464834193272037,0.507912224148882,-0.3520719176204952,0.13017263623164746,0.0018808556421351934,-0.2129738593388073,-4.766256534299341,-1.4400115318936058,-5.9964325576889275,0.0,0.0
19.28618860244751,0.3050020933151245,-0.22613970935344696,-0.36933445930480957,-0.015118551902738926,0.002031564712524414,0.08063387870788574,-2.4877382154653938,-3.7022138608836004,0.24615164405750103,0.5078594840017091,-0.34600362487020553,0.12583322816282097,0.004059737893990102,-2.4287210980114287,-2.5530606808408156,-3.643872652331696,-3.767320665806447,0.0,0.0
19.296083211898804,0.3269588053226471,-0.21760940551757812,-0.34852707386016846,-0.01630042824716381,0.0018551349639892578,0.08063387870788574,-2.4808760524987696,-3.695106353129564,0.266151644057501,0.5088732172235494,-0.4109940998011466,0.11590286574190917,0.005841136515277709,-2.390686555877815,-2.5781186193332237,-3.6067650777125118,-3.790671602550947,0.0,0.0
19.306031703948975,0.3269588053226471,-0.21760940551757812,-0.34852707386016846,-0.01630042824716381,0.0018377304077148438,0.08063387870788574,-2.473218734789794,-3.6875170885305897,0.28615164405750104,0.5088222545498919,-0.40508755561018905,0.11099542732595255,0.007053148582145717,-2.3358118533679675,-2.618489573970583,-3.554640342551669,-3.8281076028870524,0.0,0.0
19.316338539123535,0.3483840227127075,-0.2098306268453598,-0.33013054728507996,-0.016820386587844682,0.001934051513671875,0.08063387870788574,-2.4647038320635164,-3.6794124532964965,0.30536933887876994,0.509300144712852,-0.3642659059048811,0.10908300797421366,0.008763728585727429,-2.253564561811317,-2.684580124131198,-3.4781017441334328,-3.888961070479536,0.0,0.0
19.404135942459106,0.3483840227127075,-0.2098306268453598,-0.33013054728507996,-0.016820386587844682,0.002249479293823242,0.08096456527709961,-2.455254879446267,-3.670773342363203,0.3199946509006417,0.5035780241522636,-0.16958575897165418,0.10862999471343814,0.010527264645977832,-2.127055535646704,-2.793148938734021,-3.3614688539486823,-3.9888494805808317,0.0,0.0
19.412476062774658,0.4293298125267029,-0.1802675724029541,-0.2611825466156006,-0.01776781615257548,0.0021355152130126953,0.08096456527709961,-2.444777503216888,-3.661613876806712,0.32993859218987714,0.5036941718004903,-0.3382929713227096,0.13780057003580304,0.017897998240286657,-1.9331369409947592,-2.9671633716568406,-3.174479171722411,-4.15803541470874,0.0,0.0
19.418352842330933,0.4293298125267029,-0.1802675724029541,-0.2611825466156006,-0.01776781615257548,0.0021407604217529297,0.08096456527709961,-2.4331911289149297,-3.651959122237571,0.33565894324608647,0.5036349422089625,-0.33373508521914175,0.15206969091879738,0.01850105457293302,-1.6350909403495835,-3.2431637757404035,-2.8756467993559176,-4.438046202622226,0.0,0.0
19.425929069519043,0.46376246213912964,-0.16818082332611084,-0.2503182888031006,-0.0031386984587083028,0.0020318031311035156,0.08096456527709961,-2.4204307268627288,-3.641842847990096,0.33758928274347993,0.456075843533857,-0.9950188534828781,0.3464487836431582,0.04521944519799264,-1.1706050160150232,-3.6833173129851104,-2.4092046976264876,-4.884707770656968,0.0,0.0
19.436124324798584,0.46376246213912964,-0.16818082332611084,-0.2503182888031006,-0.0031386984587083028,0.0020551681518554688,0.08096456527709961,-2.4064458981839345,-3.6313070530499987,0.33613873300088215,0.4560168293405191,-0.9908469263525609,0.48251414855021074,0.11361007360153108,-0.43590876039521204,-4.3912791723033155,-1.671436410864947,-5.601812522489981,0.0,0.0
19.44610834121704,0.5011722445487976,-0.15692658722400665,-0.2564186453819275,0.02543379127585391,0.0019903182983398438,0.08096456527709961,-2.39120009262119,-3.6204010591079685,0.3316920293655493,0.4471362448672829,-0.9107696625536781,0.5777599039851475,0.1740638586743243,0.7448558524439975,-5.54282061321006,-0.48591776348263266,-6.765876223913095,0.0,0.0
19.456092357635498,0.5011722445487976,-0.15692658722400665,-0.2564186453819275,0.02543379127585391,0.0019876956939697266,0.08096456527709961,-2.374669911315425,-3.609180307598343,0.32460984744380506,0.44707976377654846,-0.9069618864146552,0.6444319327896033,0.15157951676197093,2.6757840427233184,-7.4419770741279105,1.452314953025058,-8.681967675027597,0.0,0.0
19.466349840164185,0.5247678756713867,-0.14982128143310547,-0.2610216736793518,0.04119093408644406,0.0018794536590576172,0.08096456527709961,-2.3568444495951435,-3.5977049726704493,0.3152293262055354,0.4486026658052271,-1.0,0.6911023529527224,0.12861536960853945,5.894615644994995,-10.626454248573534,4.6823318815061326,-11.889272996473178,0.0,0.0
19.476128816604614,0.5247678756713867,-0.14982128143310547,-0.2610216736793518,0.04119093408644406,0.0020415782928466797,0.08096456527709961,-2.4844025876055187,-3.6987183401317285,0.256151644057501,0.44854934045504224,-1.0,0.7237716470669057,0.12065458476769714,-2.4287210980114287,-2.5530606808408156,-3.643872652331696,-3.767320665806447,0.0,0.0
19.486119270324707,0.5247678756713867,-0.14982128143310547,-0.2610216736793518,0.04119093408644406,0.0019252300262451172,0.08096456527709961,-2.4771507136692743,-3.6913739727193597,0.27615164405750103,0.4484975222594201,-1.0,0.746640152946834,0.1089489674454486,-2.390686555877815,-2.5781186193332237,-3.6067650777125118,-3.790671602550947,0.0,0.0
19.496058702468872,0.5595360994338989,-0.13905613124370575,-0.26697391271591187,0.06763770696374785,0.0018630027770996094,0.08096456527709961,-2.469072342971257,-3.6835314073064835,0.29615164405750105,0.45066039064909247,-1.0,0.7626481070627837,0.06981751735995732,-2.3358118533679675,-2.618489573970583,-3.554640342551669,-3.8281076028870524,0.0,0.0
19.505993366241455,0.5595360994338989,-0.13905613124370575,-0.26697391271591187,0.06763770696374785,0.0018918514251708984,0.08096456527709961,-2.4601022371903616,-3.675159167264756,0.31329670823357847,0.45061166283100285,-1.0,0.7738536749439486,0.056014524452196957,-2.253564561811317,-2.684580124131198,-3.4781017441334328,-3.888961070479536,0.0,0.0
19.595038175582886,0.5595360994338989,-0.13905613124370575,-0.26697391271591187,0.06763770696374785,0.0022974014282226562,0.08211064338684082,-2.4501501563257997,-3.6662572932155744,0.32552261986411773,0.4800379957065348,-0.7068518464255882,0.7816975724607641,0.05002826200041045,-2.127055535646704,-2.793148938734021,-3.3614688539486823,-3.9888494805808317,0.0,0.0
19.602210521697998,0.6629299521446228,-0.10799521952867508,-0.2787317633628845,0.12425084906602876,0.0029044151306152344,0.08211064338684082,-2.4391273580449937,-3.6568465009890705,0.33329904587235853,0.48611874136458055,-0.02746906767133206,0.7871883007225349,-0.09989100810408401,-1.9331369409947592,-2.9671633716568406,-3.174479171722411,-4.15803541470874,0.0,0.0
19.609824895858765,0.6629299521446228,-0.10799521952867508,-0.2787317633628845,0.12425084906602876,0.002619504928588867,0.08211064338684082,-2.4269611645000677,-3.6469562341417268,0.3370717204936445,0.4861643122694026,-0.030517356289736397,0.7910318105057744,-0.13252612813143452,-1.6350909403495835,-3.2431637757404035,-2.8756467993559176,-4.438046202622226,0.0,0.0
19.616570234298706,0.6629299521446228,-0.10799521952867508,-0.2787317633628845,0.12425084906602876,0.002684354782104492,0.08211064338684082,-2.4135939663492647,-3.636624466677463,0.33726200423197217,0.48620808169265517,-0.03392079347999455,0.7937222673540422,-0.14750499377666865,-1.1706050160150232,-3.6833173129851104,-2.4092046976264876,-4.884707770656968,0.0,0.0
