time,x,y,z,yaw,ctrl_comp_time,rollout_comptime,y_ref,z_ref,yaw_ref,throttle,roll_rate,pitch_rate,yaw_rate,save_tube_pyH,save_tube_pyL,save_tube_pzH,save_tube_pzL,wy,wz
15.116921663284302,0.03820747137069702,-2.584293842315674,-3.76239275932312,-0.0076173236009726385,0.15245914459228516,0.11343598365783691,-2.580760718177047,-3.752545468645272,0.13454374476624226,0.45745682283407485,1.0,0.05772560316239076,0.0009857130392444422,-2.5480216210791373,-2.6147852968389547,-3.7206246282936366,-3.786963485949457,0.0,0.0
15.646198987960815,0.008661829866468906,-2.5947721004486084,-3.7385833263397217,-0.0039324378348616455,0.18808436393737793,0.08112215995788574,-2.5791660395185962,-3.749786185733035,0.15454374476624227,0.4627628107329652,0.0668757259912226,0.06742390886656044,-0.055525389756142525,-2.5297398168788305,-2.6302954764159274,-3.7016753127503828,-3.8007448729254274,0.0,0.0
15.761911869049072,0.008661829866468906,-2.5947721004486084,-3.7385833263397217,-0.0039324378348616455,0.002587556838989258,0.09348249435424805,-2.577104513399416,-3.7466648784657863,0.1745437447662423,0.46169093465719646,1.0,0.08567635988278113,-0.0896806885561848,-2.5038387621499996,-2.6525566661859568,-3.6757076003838907,-3.8208360371599452,0.0,0.0
15.771451473236084,-0.022663664072752,-2.498502016067505,-3.5702600479125977,-0.01914752276638637,0.002369403839111328,0.09348249435424805,-2.5745110033172303,-3.7431638976225714,0.1945437447662423,0.48976320553317,-1.0,0.06701511779717598,-0.07428326588241665,-2.4661482666386356,-2.6856083506937614,-3.6389468704858157,-3.8509792617546896,0.0,0.0
15.77967643737793,-0.022663664072752,-2.498502016067505,-3.5702600479125977,-0.01914752276638637,0.0023956298828125,0.09348249435424805,-2.571320883275526,-3.7392626277971597,0.21454374476624233,0.48972048801630963,-1.0,0.05817703424697273,-0.05443704492028209,-2.409351361655314,-2.736637710075177,-3.584707549368401,-3.8978218572165155,0.0,0.0
15.789808511734009,-0.022663664072752,-2.498502016067505,-3.5702600479125977,-0.01914752276638637,0.0029196739196777344,0.09348249435424805,-2.567470142670698,-3.734937483662775,0.23454374476624235,0.4896771561700616,-1.0,0.04802465034182256,-0.04136202714210876,-2.3209307222464424,-2.8180334063008368,-3.5013696601068642,-3.97293960015592,0.0,0.0
15.799562215805054,-0.02592145837843418,-2.479008436203003,-3.54219388961792,-0.022609875402272828,0.002437114715576172,0.09348249435424805,-2.5628954923958145,-3.7301619103874017,0.25454374476624236,0.49215069896318253,-1.0,0.0417170870996017,-0.027212592293705463,-2.1816766455627024,-2.9488778158465174,-3.369049246979616,-4.096166305506992,0.0,0.0
15.810011625289917,-0.02592145837843418,-2.479008436203003,-3.54219388961792,-0.022609875402272828,0.002953767776489258,0.09348249435424805,-2.55753447196784,-3.7249063882743343,0.2745437447662424,0.4921107525338332,-1.0,0.03478711680305578,-0.01778807465517962,-1.9652566225540025,-3.1553776712778707,-3.1537870544514583,-4.301405152582608,0.0,0.0
15.820938348770142,-0.028101444244384766,-2.4645540714263916,-3.522274971008301,-0.02505282659717492,0.00275421142578125,0.09348249435424805,-2.5513255574821003,-3.7191384416930076,0.2945437447662424,0.49385320849442027,-1.0,0.030994944459403557,-0.008134204609235052,-1.6269598397922653,-3.482119774558716,-2.814667244979066,-4.629509980825281,0.0,0.0
15.829768180847168,-0.028101444244384766,-2.4645540714263916,-3.522274971008301,-0.02505282659717492,0.0028221607208251953,0.09348249435424805,-2.5442082701952438,-3.7128226523553858,0.3145437447662424,0.49381819122744763,-1.0,0.02667284706582511,-0.0020274736031801193,-1.0923781339065708,-4.003390259203295,-2.2785871295096882,-5.153515581503085,0.0,0.0
15.962244987487793,-0.028101444244384766,-2.4645540714263916,-3.522274971008301,-0.02505282659717492,0.0027153491973876953,0.1234138011932373,-2.536121874874256,-3.7059223444500646,0.33240451965102885,0.4912105305597152,0.5833578725675932,0.022570451634201353,0.0026568569434545198,-0.23732758838874637,-4.843253211114686,-1.421163668148132,-5.9977312279763515,0.0,0.0
15.97327995300293,-0.04690078645944595,-2.3183720111846924,-3.3408570289611816,-0.04390217172425956,0.0023636817932128906,0.1234138011932373,-2.5269863881705885,-3.698426635679124,0.34516257509445,0.5018372079413783,-0.19776794237926398,0.02183220106106236,0.023880750489388005,1.1488281102231668,-6.21220975478429,-0.03150137494734418,-7.372995094281225,0.0,0.0
15.979758501052856,-0.04690078645944595,-2.3183720111846924,-3.3408570289611816,-0.04390217172425956,0.0023446083068847656,0.1234138011932373,-2.5824225117993382,-3.756038668779321,0.10454374476624227,0.5021842320990988,-0.07415807652647555,0.02110940100328154,0.032792045820444156,-2.5661561191474602,-2.599470558250538,-3.740329950420653,-3.773740390715073,0.0,0.0
15.989696502685547,-0.04690078645944595,-2.3183720111846924,-3.3408570289611816,-0.04390217172425956,0.0024099349975585938,0.1234138011932373,-2.58140586462421,-3.7537966135953775,0.12454374476624226,0.5025370256736393,0.047445253029061885,0.019532070079776247,0.038793619179355,-2.555104724659105,-2.608807484874743,-3.728181516857423,-3.781737577885117,0.0,0.0
16.116991996765137,-0.04690078645944595,-2.3183720111846924,-3.3408570289611816,-0.04390217172425956,0.0025615692138671875,0.1186819076538086,-2.5800209402384877,-3.7512136213767184,0.14454374476624227,0.4950464448418864,0.17736556050205388,0.017576706621329218,0.04361947168248089,-2.539655250611549,-2.62187185178622,-3.711868079692604,-3.793228903293612,0.0,0.0
16.127137660980225,-0.06343762576580048,-2.1503589153289795,-3.1621158123016357,-0.06388798375292769,0.0027990341186523438,0.1186819076538086,-2.5782020271919257,-3.7482764770088224,0.16454374476624228,0.49949420020998325,-1.0,0.022269022446484984,0.058075388282173186,-2.5179518563743,-2.6403877967339486,-3.689758493503184,-3.8098220252365795,0.0,0.0
16.134172916412354,-0.06343762576580048,-2.1503589153289795,-3.1621158123016357,-0.06388798375292769,0.0024127960205078125,0.1186819076538086,-2.5758837700051544,-3.7449690124684647,0.1845437447662423,0.4996592309553385,-1.0,0.024982420254811667,0.0591518460761388,-2.4868341960178384,-2.66738457324378,-3.659010630053712,-3.834329691755807,0.0,0.0
16.14085078239441,-0.06343762576580048,-2.1503589153289795,-3.1621158123016357,-0.06388798375292769,0.0023193359375,0.1186819076538086,-2.5730012718737068,-3.741272097028038,0.20454374476624232,0.4998256847189493,-1.0,0.02653795761270511,0.0585292099057483,-2.440778261669383,-2.7082559110324356,-3.614600419151508,-3.871740676243827,0.0,0.0
16.149657487869263,-0.0668235644698143,-2.113008975982666,-3.125197649002075,-0.06802555107544497,0.002427816390991211,0.1186819076538086,-2.5694901988721286,-3.7371636314808714,0.22454374476624234,0.5002274797002471,-1.0,0.034270108333988,0.06374986845117477,-2.370148482465097,-2.7725081240098666,-3.5476680476036213,-3.9308735628931895,0.0,0.0
16.293340921401978,-0.0668235644698143,-2.113008975982666,-3.125197649002075,-0.06802555107544497,0.0025107860565185547,0.13382577896118164,-2.5652868854704343,-3.7326185464764765,0.24454374476624235,0.4970895124645943,-0.7556430803139307,0.03824049483611991,0.062886118818047,-2.2590933258271537,-2.875864718770183,-3.4432844350945233,-4.026610263358279,0.0,0.0
16.302053689956665,-0.08517854660749435,-1.8997080326080322,-2.920916795730591,-0.07536111265378169,0.0023012161254882812,0.13382577896118164,-2.560328441171425,-3.7276088050451923,0.2645437447662424,0.5007433006018642,-1.0,0.012352368272829515,0.05855512147663386,-2.0853813467543576,-3.0404305575031008,-3.2740700557884246,-4.186277195994213,0.0,0.0
16.309637308120728,-0.08517854660749435,-1.8997080326080322,-2.920916795730591,-0.07536111265378169,0.0028252601623535156,0.13382577896118164,-2.554552858074132,-3.722103409382115,0.2845437447662424,0.500799098610119,-1.0,-0.004237708101076942,0.06061143527930274,-1.815158666674453,-3.2999345933914555,-3.0033480450979244,-4.446492188380505,0.0,0.0
16.320797204971313,-0.08927599340677261,-1.8560361862182617,-2.8789710998535156,-0.07266503182809896,0.002393484115600586,0.13382577896118164,-2.547899119165848,-3.7160684119504976,0.3045437447662424,0.5020561807601138,-0.8414387955322574,-0.03612696574191884,0.05180092115196813,-1.3905322272499376,-3.712146832710557,-2.5775828681945026,-4.86072582668407,0.0,0.0
16.467815160751343,-0.08927599340677261,-1.8560361862182617,-2.8789710998535156,-0.07266503182809896,0.002533435821533203,0.1386713981628418,-2.5403073071429105,-3.709466930955046,0.3241467863175359,0.49409875923383373,-0.7837718519785151,-0.05410088749868645,0.06511069749426929,-0.71557102945927,-4.372877312910008,-1.900715117112517,-5.524966685120548,0.0,0.0
16.477325916290283,-0.11324210464954376,-1.6418108940124512,-2.663935899734497,-0.05083507588001533,0.0021958351135253906,0.1386713981628418,-2.5797076571607267,-3.715836459167006,0.16790392076586103,0.5016667395800951,0.4287757803137322,-0.15853075611521572,-0.013174830585484193,-2.557617697256326,-2.6054024110940794,-3.6945077444234267,-3.7421397768978504,0.0,0.0
16.48344326019287,-0.11324210464954376,-1.6418108940124512,-2.663935899734497,-0.05083507588001533,0.0022704601287841797,0.1386713981628418,-2.575734999965406,-3.7105872417977332,0.18790392076586104,0.5014864981535317,0.4484220532370592,-0.21141329863146438,0.05974318539019538,-2.540071446310135,-2.615499329101536,-3.675952133285068,-3.750564651364398,0.0,0.0
16.489734888076782,-0.11324210464954376,-1.6418108940124512,-2.663935899734497,-0.05083507588001533,0.0022993087768554688,0.1386713981628418,-2.571217051960165,-3.7049554926870365,0.20790392076586106,0.5013034022278988,0.46722031625907745,-0.2536079916512676,0.1082870136835804,-2.5161740326432254,-2.6309225285529547,-3.651634184936469,-3.7640068241730957,0.0,0.0
16.499691009521484,-0.11706668883562088,-1.6150192022323608,-2.634455442428589,-0.04701050951409511,0.0024607181549072266,0.1386713981628418,-2.5660885541042395,-3.6989189683952945,0.22790392076586108,0.5022377372208636,0.7444755348137825,-0.29231044094746944,0.14132038976835198,-2.482857179356139,-2.6546091712874547,-3.6189015603672976,-3.7850771062083193,0.0,0.0
16.509759664535522,-0.11706668883562088,-1.6150192022323608,-2.634455442428589,-0.04701050951409511,0.002567291259765625,0.1386713981628418,-2.560284921930163,-3.692452465109898,0.2479039207658611,0.5020351934318826,0.76119997122664,-0.3233018582724401,0.1724833757544976,-2.4347983529371526,-2.6917519213359067,-3.5731135474287212,-3.8183687625691065,0.0,0.0
16.636460542678833,-0.11706668883562088,-1.6150192022323608,-2.634455442428589,-0.04701050951409511,0.002672433853149414,0.11815094947814941,-2.5537423500218828,-3.685527819885817,0.2679039207658611,0.49067893145670294,-0.003915545561480993,-0.3470904956590497,0.1945559960150011,-2.3627663081494625,-2.7514536077911167,-3.506108913406574,-3.871989658386832,0.0,0.0
16.646944999694824,-0.15097983181476593,-1.4235252141952515,-2.400209426879883,-0.004477627107346713,0.0028867721557617188,0.11815094947814941,-2.5463979175483775,-3.6781139160336482,0.28790392076586113,0.4993907362596607,0.036791484238730084,-0.3478822898759197,0.17034038347719,-2.2515510711366686,-2.848797451762137,-3.40387601111459,-3.959892159342323,0.0,0.0
16.655223846435547,-0.15097983181476593,-1.4235252141952515,-2.400209426879883,-0.004477627107346713,0.0025420188903808594,0.11815094947814941,-2.5381896946590135,-3.670176692723395,0.30790392076586115,0.4992041871201687,0.04045708281915739,-0.345512830616843,0.159044392387179,-2.0796294050880495,-3.005181812686773,-3.239293742825059,-4.109132182711173,0.0,0.0
16.663681268692017,-0.15097983181476593,-1.4235252141952515,-2.400209426879883,-0.004477627107346713,0.002546548843383789,0.11815094947814941,-2.5290519218128957,-3.6616845084018568,0.3243299655799955,0.49901925170894335,0.04406093000949345,-0.34276385166270745,0.15369457508251091,-1.8150124318937686,-3.252472780181747,-2.9749897382083246,-4.357011042892696,0.0,0.0
16.67066717147827,-0.15097983181476593,-1.4235252141952515,-2.400209426879883,-0.004477627107346713,0.0025517940521240234,0.11815094947814941,-2.5188912786594715,-3.6526421026824103,0.3358345925587188,0.4988359088478166,0.04761174302306111,-0.3404397576775745,0.15068325327185172,-1.402801235282716,-3.6454092718686852,-2.5618981819488513,-4.752563680319375,0.0,0.0
16.679607629776,-0.15797647833824158,-1.3927679061889648,-2.356640100479126,0.00353257979290747,0.002536773681640625,0.11815094947814941,-2.507621222017122,-3.6430713458658643,0.3428941766610924,0.500397669068075,0.00033914176720334366,-0.3343725071276089,0.14407645181572984,-0.7521743594839376,-4.274625044737837,-1.909822694668092,-5.386019388973525,0.0,0.0
16.68967056274414,-0.15797647833824158,-1.3927679061889648,-2.356640100479126,0.00353257979290747,0.002797842025756836,0.11815094947814941,-2.495171122379032,-3.6330032814131843,0.34595989687397477,0.5002400624236437,0.003846011397536264,-0.32997223066899917,0.1382689499795675,0.28951725097079395,-5.292612246915372,-0.8658978469558875,-6.410296520961601,0.0,0.0
16.831206798553467,-0.19480113685131073,-1.2517056465148926,-2.1123664379119873,0.05898964533785796,0.002418994903564453,0.13022589683532715,-2.577785387705835,-3.713258392324733,0.17790392076586103,0.5069159074707389,0.7609237070099907,-0.2793255123192723,0.12130164593191037,-2.557617697256326,-2.6054024110940794,-3.6945077444234267,-3.7421397768978504,0.0,0.0
16.839474201202393,-0.19480113685131073,-1.2517056465148926,-2.1123664379119873,0.05898964533785796,0.0023267269134521484,0.13022589683532715,-2.5735482805980894,-3.7078205045547823,0.19790392076586105,0.5067752612813248,0.7643483423998665,-0.24246476820655696,0.07511266498949228,-2.540071446310135,-2.615499329101536,-3.675952133285068,-3.750564651364398,0.0,0.0
16.849846124649048,-0.20165561139583588,-1.2271809577941895,-2.0605251789093018,0.07350761422412164,0.0025267601013183594,0.13022589683532715,-2.568733175321796,-3.7019893332878087,0.21790392076586107,0.5086912038060997,1.0,-0.19369913043531373,0.03399574574866406,-2.5161740326432254,-2.6309225285529547,-3.651634184936469,-3.7640068241730957,0.0,0.0
16.859691381454468,-0.20165561139583588,-1.2271809577941895,-2.0605251789093018,0.07350761422412164,0.002534151077270508,0.13022589683532715,-2.563275137136529,-3.695741154998914,0.2379039207658611,0.5085475646085184,1.0,-0.15844116417863888,-0.005205048397897691,-2.482857179356139,-2.6546091712874547,-3.6189015603672976,-3.7850771062083193,0.0,0.0
16.870854139328003,-0.20607906579971313,-1.2115422487258911,-2.0256083011627197,0.08330338333089929,0.002538442611694336,0.13022589683532715,-2.557109957970289,-3.6890492858967034,0.2579039207658611,0.5098498916650805,1.0,-0.11637171870156372,-0.040803705012710745,-2.4347983529371526,-2.6917519213359067,-3.5731135474287212,-3.8183687625691065,0.0,0.0
17.000842332839966,-0.20607906579971313,-1.2115422487258911,-2.0256083011627197,0.08330338333089929,0.002740144729614258,0.12138795852661133,-2.550174261449402,-3.681884085228457,0.2779039207658611,0.5040042193813805,0.6106445526687438,-0.0897966203416493,-0.06280295153168627,-2.3627663081494625,-2.7514536077911167,-3.506108913406574,-3.871989658386832,0.0,0.0
17.01138973236084,-0.23348668217658997,-1.1256234645843506,-1.8126991987228394,0.12858652222599964,0.003795623779296875,0.12138795852661133,-2.54240560888741,-3.6742129627681166,0.29790392076586114,0.5119934855662541,-0.08637658591523256,-0.07015439810753038,-0.10483519007870058,-2.2515510711366686,-2.848797451762137,-3.40387601111459,-3.959892159342323,0.0,0.0
17.019538164138794,-0.23348668217658997,-1.1256234645843506,-1.8126991987228394,0.12858652222599964,0.0031185150146484375,0.12138795852661133,-2.5337426060377566,-3.6660003905505105,0.3167628611961308,0.5119376793798893,-0.07553612921138064,-0.05947957948198276,-0.11318561500169079,-2.0796294050880495,-3.005181812686773,-3.239293742825059,-4.109132182711173,0.0,0.0
17.029712438583374,-0.24035535752773285,-1.1068378686904907,-1.7605220079421997,0.13521770849996584,0.0030219554901123047,0.12138795852661133,-2.5241052535757,-3.6572309311341136,0.3306670986691227,0.5134923345139633,-0.16410550988708916,-0.055787301674176344,-0.12678332196537542,-1.8150124318937686,-3.252472780181747,-2.9749897382083246,-4.357011042892696,0.0,0.0
17.039809703826904,-0.24035535752773285,-1.1068378686904907,-1.7605220079421997,0.13521770849996584,0.003302335739135742,0.12138795852661133,-2.513399702110887,-3.647921041820809,0.3398912202683811,0.5134577635435865,-0.15205247848975012,-0.05267954149183541,-0.13231771606947237,-1.402801235282716,-3.6454092718686852,-2.5618981819488513,-4.752563680319375,0.0,0.0
17.049710988998413,-0.24770471453666687,-1.0866607427597046,-1.7031831741333008,0.14067362184076673,0.003115415573120117,0.12138795852661133,-2.5015474979722883,-3.6380971839587444,0.3448990661848682,0.5148252611089472,-0.45566912424185635,-0.06494007543147878,-0.14359526540629602,-0.7521743594839376,-4.274625044737837,-1.909822694668092,-5.386019388973525,0.0,0.0
17.19159173965454,-0.24770471453666687,-1.0866607427597046,-1.7031831741333008,0.14067362184076673,0.0034799575805664062,0.13098859786987305,-2.488485594223953,-3.6277948964781315,0.34612908002184584,0.5127125023710164,0.1704488854159001,-0.07122683622221129,-0.14022178618855274,0.28951725097079395,-5.292612246915372,-0.8658978469558875,-6.410296520961601,0.0,0.0
17.200814962387085,-0.28608569502830505,-0.9951472878456116,-1.4027729034423828,0.16704202215288574,0.0037336349487304688,0.13098859786987305,-2.575734999965406,-3.7105872417977332,0.18790392076586104,0.5192255692726754,0.1806482233152666,-0.11176797069708459,-0.16214371273016548,-2.557617697256326,-2.6054024110940794,-3.6945077444234267,-3.7421397768978504,0.0,0.0
17.209563493728638,-0.28608569502830505,-0.9951472878456116,-1.4027729034423828,0.16704202215288574,0.0031440258026123047,0.13098859786987305,-2.571217051960165,-3.7049554926870365,0.20790392076586106,0.519202045891565,0.20170326715124984,-0.1314604491579251,-0.17076731432568032,-2.540071446310135,-2.615499329101536,-3.675952133285068,-3.750564651364398,0.0,0.0
17.220216274261475,-0.29062163829803467,-0.9838924407958984,-1.3633949756622314,0.16891568456966316,0.0031926631927490234,0.13098859786987305,-2.5660885541042395,-3.6989189683952945,0.22790392076586108,0.5200947068736409,0.2603673731463405,-0.15427861722533917,-0.17340899031202875,-2.5161740326432254,-2.6309225285529547,-3.651634184936469,-3.7640068241730957,0.0,0.0
17.229753732681274,-0.29062163829803467,-0.9838924407958984,-1.3633949756622314,0.16891568456966316,0.003726482391357422,0.13098859786987305,-2.560284921930163,-3.692452465109898,0.2479039207658611,0.5200671481382722,0.2805156347057138,-0.16610921193283135,-0.17415455103002442,-2.482857179356139,-2.6546091712874547,-3.6189015603672976,-3.7850771062083193,0.0,0.0
17.349182605743408,-0.29062163829803467,-0.9838924407958984,-1.3633949756622314,0.16891568456966316,0.0035724639892578125,0.10901427268981934,-2.5537423500218828,-3.685527819885817,0.2679039207658611,0.5166688290784269,0.23207878848457555,-0.1728641965331471,-0.17427869174532493,-2.4347983529371526,-2.6917519213359067,-3.5731135474287212,-3.8183687625691065,0.0,0.0
17.360624074935913,-0.3186553120613098,-0.9175882339477539,-1.1314728260040283,0.1710593992397718,0.003470182418823242,0.10901427268981934,-2.5463979175483775,-3.6781139160336482,0.28790392076586113,0.5176712298476288,0.19622533906199488,-0.28679524195173334,-0.16241887989085074,-2.3627663081494625,-2.7514536077911167,-3.506108913406574,-3.871989658386832,0.0,0.0
17.370169401168823,-0.32758408784866333,-0.8984246253967285,-1.0659666061401367,0.1673880870050825,0.0033998489379882812,0.10901427268981934,-2.5381896946590135,-3.670176692723395,0.30790392076586115,0.5179400974661823,0.14018065772873228,-0.35391618779672085,-0.1469610873023824,-2.2515510711366686,-2.848797451762137,-3.40387601111459,-3.959892159342323,0.0,0.0
17.37974262237549,-0.32758408784866333,-0.8984246253967285,-1.0659666061401367,0.1673880870050825,0.0033464431762695312,0.10901427268981934,-2.5290519218128957,-3.6616845084018568,0.3243299655799955,0.5179211116510599,0.16169277775490884,-0.3881418302042761,-0.13376017622821615,-2.0796294050880495,-3.005181812686773,-3.239293742825059,-4.109132182711173,0.0,0.0
17.389786958694458,-0.32758408784866333,-0.8984246253967285,-1.0659666061401367,0.1673880870050825,0.00351715087890625,0.10901427268981934,-2.5188912786594715,-3.6526421026824103,0.3358345925587188,0.5179026933676044,0.1829294856460927,-0.4059450852692131,-0.12521782164874912,-1.8150124318937686,-3.252472780181747,-2.9749897382083246,-4.357011042892696,0.0,0.0
17.399536848068237,-0.3336610496044159,-0.8861590623855591,-1.024150013923645,0.16410210250890603,0.0033643245697021484,0.10901427268981934,-2.507621222017122,-3.6430713458658643,0.3428941766610924,0.5185796261576174,-0.007345778658984031,-0.424584319288873,-0.12331318934481113,-1.402801235282716,-3.6454092718686852,-2.5618981819488513,-4.752563680319375,0.0,0.0
17.40976858139038,-0.3336610496044159,-0.8861590623855591,-1.024150013923645,0.16410210250890603,0.0032129287719726562,0.10901427268981934,-2.495171122379032,-3.6330032814131843,0.34595989687397477,0.518565850733226,0.013696696796677468,-0.4338944940096149,-0.11205790822947814,-0.7521743594839376,-4.274625044737837,-1.909822694668092,-5.386019388973525,0.0,0.0
17.42057967185974,-0.33775660395622253,-0.8783097863197327,-0.996540904045105,0.16148235257637736,0.0033712387084960938,0.10901427268981934,-2.4814852949333197,-3.6224777907359105,0.345457434931376,0.5188657285084328,0.08872188651499516,-0.43682365296118536,-0.10524159367426766,0.28951725097079395,-5.292612246915372,-0.8658978469558875,-6.410296520961601,0.0,0.0
17.56776714324951,-0.33775660395622253,-0.8783097863197327,-0.996540904045105,0.16148235257637736,0.003347158432006836,0.13720989227294922,-2.5735482805980894,-3.7078205045547823,0.19790392076586105,0.5171619372177846,0.16045831326402632,-0.43936869081721525,-0.10574094771012658,-2.557617697256326,-2.6054024110940794,-3.6945077444234267,-3.7421397768978504,0.0,0.0
17.5778169631958,-0.3762262463569641,-0.8018420934677124,-0.7239789962768555,0.13942303169162826,0.003163576126098633,0.13720989227294922,-2.568733175321796,-3.7019893332878087,0.21790392076586107,0.5178939947496035,0.16252812460112287,-0.34536219884271746,-0.10629487765417013,-2.540071446310135,-2.615499329101536,-3.675952133285068,-3.750564651364398,0.0,0.0
17.585282802581787,-0.3762262463569641,-0.8018420934677124,-0.7239789962768555,0.13942303169162826,0.0031151771545410156,0.13720989227294922,-2.563275137136529,-3.695741154998914,0.2379039207658611,0.5178866601862379,0.1820382995207377,-0.3007855775440426,-0.11093594861279434,-2.5161740326432254,-2.6309225285529547,-3.651634184936469,-3.7640068241730957,0.0,0.0
17.59319233894348,-0.3762262463569641,-0.8018420934677124,-0.7239789962768555,0.13942303169162826,0.003354310989379883,0.13720989227294922,-2.557109957970289,-3.6890492858967034,0.2579039207658611,0.5178798776025274,0.2012735503705808,-0.279319364238401,-0.11655080713652823,-2.482857179356139,-2.6546091712874547,-3.6189015603672976,-3.7850771062083193,0.0,0.0
17.600927591323853,-0.3762262463569641,-0.8018420934677124,-0.7239789962768555,0.13942303169162826,0.003047943115234375,0.13720989227294922,-2.550174261449402,-3.681884085228457,0.2779039207658611,0.5178736382595487,0.2202282388021462,-0.2688699490412022,-0.12117304712777563,-2.4347983529371526,-2.6917519213359067,-3.5731135474287212,-3.8183687625691065,0.0,0.0
17.60966467857361,-0.3811784088611603,-0.7884605526924133,-0.6761823296546936,0.13657581238883687,0.003372669219970703,0.13720989227294922,-2.54240560888741,-3.6742129627681166,0.29790392076586114,0.5186749740486771,0.24548572862248053,-0.20961560833918605,-0.12952542711826082,-2.3627663081494625,-2.7514536077911167,-3.506108913406574,-3.871989658386832,0.0,0.0
17.763633251190186,-0.3811784088611603,-0.7884605526924133,-0.6761823296546936,0.13657581238883687,0.0031702518463134766,0.14409232139587402,-2.5337426060377566,-3.6660003905505105,0.3167628611961308,0.5169267234979066,0.20426054144369127,-0.1822160703862101,-0.1362511313772993,-2.2515510711366686,-2.848797451762137,-3.40387601111459,-3.959892159342323,0.0,0.0
nan,nan,nan,nan,nan,nan,nan,-2.5241052535757,-3.6572309311341136,0.3306670986691227,nan,nan,nan,nan,-2.0796294050880495,-3.005181812686773,-3.239293742825059,-4.109132182711173,nan,nan
nan,nan,nan,nan,nan,nan,nan,-2.513399702110887,-3.647921041820809,0.3398912202683811,nan,nan,nan,nan,-1.8150124318937686,-3.252472780181747,-2.9749897382083246,-4.357011042892696,nan,nan
nan,nan,nan,nan,nan,nan,nan,-2.5015474979722883,-3.6380971839587444,0.3448990661848682,nan,nan,nan,nan,-1.402801235282716,-3.6454092718686852,-2.5618981819488513,-4.752563680319375,nan,nan
nan,nan,nan,nan,nan,nan,nan,-2.488485594223953,-3.6277948964781315,0.34612908002184584,nan,nan,nan,nan,-0.7521743594839376,-4.274625044737837,-1.909822694668092,-5.386019388973525,nan,nan
nan,nan,nan,nan,nan,nan,nan,-2.474165465903478,-3.6170581942391817,0.3439941981562915,nan,nan,nan,nan,0.28951725097079395,-5.292612246915372,-0.8658978469558875,-6.410296520961601,nan,nan
nan,nan,nan,nan,nan,nan,nan,-2.571217051960165,-3.7049554926870365,0.20790392076586106,nan,nan,nan,nan,-2.557617697256326,-2.6054024110940794,-3.6945077444234267,-3.7421397768978504,nan,nan
nan,nan,nan,nan,nan,nan,nan,-2.5660885541042395,-3.6989189683952945,0.22790392076586108,nan,nan,nan,nan,-2.540071446310135,-2.615499329101536,-3.675952133285068,-3.750564651364398,nan,nan
nan,nan,nan,nan,nan,nan,nan,-2.560284921930163,-3.692452465109898,0.2479039207658611,nan,nan,nan,nan,-2.5161740326432254,-2.6309225285529547,-3.651634184936469,-3.7640068241730957,nan,nan
nan,nan,nan,nan,nan,nan,nan,-2.5537423500218828,-3.685527819885817,0.2679039207658611,nan,nan,nan,nan,-2.482857179356139,-2.6546091712874547,-3.6189015603672976,-3.7850771062083193,nan,nan
nan,nan,nan,nan,nan,nan,nan,-2.5463979175483775,-3.6781139160336482,0.28790392076586113,nan,nan,nan,nan,-2.4347983529371526,-2.6917519213359067,-3.5731135474287212,-3.8183687625691065,nan,nan
nan,nan,nan,nan,nan,nan,nan,-2.5381896946590135,-3.670176692723395,0.30790392076586115,nan,nan,nan,nan,-2.3627663081494625,-2.7514536077911167,-3.506108913406574,-3.871989658386832,nan,nan
nan,nan,nan,nan,nan,nan,nan,-2.5290519218128957,-3.6616845084018568,0.3243299655799955,nan,nan,nan,nan,-2.2515510711366686,-2.848797451762137,-3.40387601111459,-3.959892159342323,nan,nan
nan,nan,nan,nan,nan,nan,nan,-2.5188912786594715,-3.6526421026824103,0.3358345925587188,nan,nan,nan,nan,-2.0796294050880495,-3.005181812686773,-3.239293742825059,-4.109132182711173,nan,nan
nan,nan,nan,nan,nan,nan,nan,-2.507621222017122,-3.6430713458658643,0.3428941766610924,nan,nan,nan,nan,-1.8150124318937686,-3.252472780181747,-2.9749897382083246,-4.357011042892696,nan,nan
nan,nan,nan,nan,nan,nan,nan,-2.495171122379032,-3.6330032814131843,0.34595989687397477,nan,nan,nan,nan,-1.402801235282716,-3.6454092718686852,-2.5618981819488513,-4.752563680319375,nan,nan
nan,nan,nan,nan,nan,nan,nan,-2.4814852949333197,-3.6224777907359105,0.345457434931376,nan,nan,nan,nan,-0.7521743594839376,-4.274625044737837,-1.909822694668092,-5.386019388973525,nan,nan
nan,nan,nan,nan,nan,nan,nan,-2.4665221873042515,-3.6115427663826045,0.341787036666475,nan,nan,nan,nan,0.28951725097079395,-5.292612246915372,-0.8658978469558875,-6.410296520961601,nan,nan
nan,nan,nan,nan,nan,nan,nan,-2.568733175321796,-3.7019893332878087,0.21790392076586107,nan,nan,nan,nan,-2.557617697256326,-2.6054024110940794,-3.6945077444234267,-3.7421397768978504,nan,nan
nan,nan,nan,nan,nan,nan,nan,-2.563275137136529,-3.695741154998914,0.2379039207658611,nan,nan,nan,nan,-2.540071446310135,-2.615499329101536,-3.675952133285068,-3.750564651364398,nan,nan
nan,nan,nan,nan,nan,nan,nan,-2.557109957970289,-3.6890492858967034,0.2579039207658611,nan,nan,nan,nan,-2.5161740326432254,-2.6309225285529547,-3.651634184936469,-3.7640068241730957,nan,nan
nan,nan,nan,nan,nan,nan,nan,-2.550174261449402,-3.681884085228457,0.2779039207658611,nan,nan,nan,nan,-2.482857179356139,-2.6546091712874547,-3.6189015603672976,-3.7850771062083193,nan,nan
nan,nan,nan,nan,nan,nan,nan,-2.54240560888741,-3.6742129627681166,0.29790392076586114,nan,nan,nan,nan,-2.4347983529371526,-2.6917519213359067,-3.5731135474287212,-3.8183687625691065,nan,nan
nan,nan,nan,nan,nan,nan,nan,-2.5337426060377566,-3.6660003905505105,0.3167628611961308,nan,nan,nan,nan,-2.3627663081494625,-2.7514536077911167,-3.506108913406574,-3.871989658386832,nan,nan
nan,nan,nan,nan,nan,nan,nan,-2.5241052535757,-3.6572309311341136,0.3306670986691227,nan,nan,nan,nan,-2.2515510711366686,-2.848797451762137,-3.40387601111459,-3.959892159342323,nan,nan
nan,nan,nan,nan,nan,nan,nan,-2.513399702110887,-3.647921041820809,0.3398912202683811,nan,nan,nan,nan,-2.0796294050880495,-3.005181812686773,-3.239293742825059,-4.109132182711173,nan,nan
nan,nan,nan,nan,nan,nan,nan,-2.5015474979722883,-3.6380971839587444,0.3448990661848682,nan,nan,nan,nan,-1.8150124318937686,-3.252472780181747,-2.9749897382083246,-4.357011042892696,nan,nan
nan,nan,nan,nan,nan,nan,nan,-2.488485594223953,-3.6277948964781315,0.34612908002184584,nan,nan,nan,nan,-1.402801235282716,-3.6454092718686852,-2.5618981819488513,-4.752563680319375,nan,nan
nan,nan,nan,nan,nan,nan,nan,-2.474165465903478,-3.6170581942391817,0.3439941981562915,nan,nan,nan,nan,-0.7521743594839376,-4.274625044737837,-1.909822694668092,-5.386019388973525,nan,nan
nan,nan,nan,nan,nan,nan,nan,-2.4585523577698387,-3.6059385534073662,0.3388820643976304,nan,nan,nan,nan,0.28951725097079395,-5.292612246915372,-0.8658978469558875,-6.410296520961601,nan,nan
nan,nan,nan,nan,nan,nan,nan,-2.5660885541042395,-3.6989189683952945,0.22790392076586108,nan,nan,nan,nan,-2.557617697256326,-2.6054024110940794,-3.6945077444234267,-3.7421397768978504,nan,nan
nan,nan,nan,nan,nan,nan,nan,-2.560284921930163,-3.692452465109898,0.2479039207658611,nan,nan,nan,nan,-2.540071446310135,-2.615499329101536,-3.675952133285068,-3.750564651364398,nan,nan
nan,nan,nan,nan,nan,nan,nan,-2.5537423500218828,-3.685527819885817,0.2679039207658611,nan,nan,nan,nan,-2.5161740326432254,-2.6309225285529547,-3.651634184936469,-3.7640068241730957,nan,nan
nan,nan,nan,nan,nan,nan,nan,-2.5463979175483775,-3.6781139160336482,0.28790392076586113,nan,nan,nan,nan,-2.482857179356139,-2.6546091712874547,-3.6189015603672976,-3.7850771062083193,nan,nan
nan,nan,nan,nan,nan,nan,nan,-2.5381896946590135,-3.670176692723395,0.30790392076586115,nan,nan,nan,nan,-2.4347983529371526,-2.6917519213359067,-3.5731135474287212,-3.8183687625691065,nan,nan
nan,nan,nan,nan,nan,nan,nan,-2.5290519218128957,-3.6616845084018568,0.3243299655799955,nan,nan,nan,nan,-2.3627663081494625,-2.7514536077911167,-3.506108913406574,-3.871989658386832,nan,nan
nan,nan,nan,nan,nan,nan,nan,-2.5188912786594715,-3.6526421026824103,0.3358345925587188,nan,nan,nan,nan,-2.2515510711366686,-2.848797451762137,-3.40387601111459,-3.959892159342323,nan,nan
nan,nan,nan,nan,nan,nan,nan,-2.507621222017122,-3.6430713458658643,0.3428941766610924,nan,nan,nan,nan,-2.0796294050880495,-3.005181812686773,-3.239293742825059,-4.109132182711173,nan,nan
nan,nan,nan,nan,nan,nan,nan,-2.495171122379032,-3.6330032814131843,0.34595989687397477,nan,nan,nan,nan,-1.8150124318937686,-3.252472780181747,-2.9749897382083246,-4.357011042892696,nan,nan
nan,nan,nan,nan,nan,nan,nan,-2.4814852949333197,-3.6224777907359105,0.345457434931376,nan,nan,nan,nan,-1.402801235282716,-3.6454092718686852,-2.5618981819488513,-4.752563680319375,nan,nan
nan,nan,nan,nan,nan,nan,nan,-2.4665221873042515,-3.6115427663826045,0.341787036666475,nan,nan,nan,nan,-0.7521743594839376,-4.274625044737837,-1.909822694668092,-5.386019388973525,nan,nan
nan,nan,nan,nan,nan,nan,nan,-2.45025367461723,-3.6002529433479316,0.33532386167914763,nan,nan,nan,nan,0.28951725097079395,-5.292612246915372,-0.8658978469558875,-6.410296520961601,nan,nan
nan,nan,nan,nan,nan,nan,nan,-2.563275137136529,-3.695741154998914,0.2379039207658611,nan,nan,nan,nan,-2.557617697256326,-2.6054024110940794,-3.6945077444234267,-3.7421397768978504,nan,nan
nan,nan,nan,nan,nan,nan,nan,-2.557109957970289,-3.6890492858967034,0.2579039207658611,nan,nan,nan,nan,-2.540071446310135,-2.615499329101536,-3.675952133285068,-3.750564651364398,nan,nan
nan,nan,nan,nan,nan,nan,nan,-2.550174261449402,-3.681884085228457,0.2779039207658611,nan,nan,nan,nan,-2.5161740326432254,-2.6309225285529547,-3.651634184936469,-3.7640068241730957,nan,nan
nan,nan,nan,nan,nan,nan,nan,-2.54240560888741,-3.6742129627681166,0.29790392076586114,nan,nan,nan,nan,-2.482857179356139,-2.6546091712874547,-3.6189015603672976,-3.7850771062083193,nan,nan
nan,nan,nan,nan,nan,nan,nan,-2.5337426060377566,-3.6660003905505105,0.3167628611961308,nan,nan,nan,nan,-2.4347983529371526,-2.6917519213359067,-3.5731135474287212,-3.8183687625691065,nan,nan
nan,nan,nan,nan,nan,nan,nan,-2.5241052535757,-3.6572309311341136,0.3306670986691227,nan,nan,nan,nan,-2.3627663081494625,-2.7514536077911167,-3.506108913406574,-3.871989658386832,nan,nan
nan,nan,nan,nan,nan,nan,nan,-2.513399702110887,-3.647921041820809,0.3398912202683811,nan,nan,nan,nan,-2.2515510711366686,-2.848797451762137,-3.40387601111459,-3.959892159342323,nan,nan
nan,nan,nan,nan,nan,nan,nan,-2.5015474979722883,-3.6380971839587444,0.3448990661848682,nan,nan,nan,nan,-2.0796294050880495,-3.005181812686773,-3.239293742825059,-4.109132182711173,nan,nan
nan,nan,nan,nan,nan,nan,nan,-2.488485594223953,-3.6277948964781315,0.34612908002184584,nan,nan,nan,nan,-1.8150124318937686,-3.252472780181747,-2.9749897382083246,-4.357011042892696,nan,nan
nan,nan,nan,nan,nan,nan,nan,-2.474165465903478,-3.6170581942391817,0.3439941981562915,nan,nan,nan,nan,-1.402801235282716,-3.6454092718686852,-2.5618981819488513,-4.752563680319375,nan,nan
nan,nan,nan,nan,nan,nan,nan,-2.4585523577698387,-3.6059385534073662,0.3388820643976304,nan,nan,nan,nan,-0.7521743594839376,-4.274625044737837,-1.909822694668092,-5.386019388973525,nan,nan
nan,nan,nan,nan,nan,nan,nan,-2.4416246142643336,-3.5944936191496617,0.3311554970714838,nan,nan,nan,nan,0.28951725097079395,-5.292612246915372,-0.8658978469558875,-6.410296520961601,nan,nan
nan,nan,nan,nan,nan,nan,nan,-2.384403031922879,-3.3530809286747396,0.35199385807862976,nan,nan,nan,nan,-2.3121176884726107,-2.4733749075849163,-3.2921995027154054,-3.4383164348950763,nan,nan
nan,nan,nan,nan,nan,nan,nan,-2.366413429655269,-3.3288213174221073,0.3379240931857752,nan,nan,nan,nan,-2.24870137242667,-2.5025500278413877,-3.2289251859601813,-3.4529386556659682,nan,nan
nan,nan,nan,nan,nan,nan,nan,-2.346686555367595,-3.3047579175815676,0.321917789566262,nan,nan,nan,nan,-2.158335674107241,-2.555197427914875,-3.1442628747473305,-3.4892565791088916,nan,nan
nan,nan,nan,nan,nan,nan,nan,-2.325238714605818,-3.280977066008298,0.3042916626043742,nan,nan,nan,nan,-2.025304096658921,-2.647048004091735,-3.0221088094853155,-3.563544675288746,nan,nan
nan,nan,nan,nan,nan,nan,nan,-2.302103335881233,-3.2575653063970558,0.2853396901737154,nan,nan,nan,nan,-1.8266839795123793,-2.801074521506825,-2.8340443094584558,-3.7043950789794793,nan,nan
nan,nan,nan,nan,nan,nan,nan,-2.2773294416377654,-3.234607187844232,0.26545234528292405,nan,nan,nan,nan,-1.5306085328091432,-3.049226614934527,-2.539033839376117,-3.9530149436121316,nan,nan
nan,nan,nan,nan,nan,nan,nan,-2.2509861240020492,-3.212175898837314,0.24545234528292403,nan,nan,nan,nan,-1.0816807660989027,-3.447016383560209,-2.089441117823963,-4.357203060058887,nan,nan
nan,nan,nan,nan,nan,nan,nan,-2.223161574614786,-3.190326361562044,0.22545234528292402,nan,nan,nan,nan,-0.3871554107558581,-4.087351270821011,-1.3944150265464537,-5.007935377613906,nan,nan
nan,nan,nan,nan,nan,nan,nan,-2.1939469599280352,-3.1691085799885927,0.205452345282924,nan,nan,nan,nan,0.7101053234569243,-5.127549862167135,-0.2960211059173803,-6.063249926921264,nan,nan
nan,nan,nan,nan,nan,nan,nan,-2.1634349026509545,-3.1485689457427757,0.18545234528292398,nan,nan,nan,nan,2.48200298997965,-6.839697527652489,1.4787704890868165,-7.796272964724816,nan,nan
nan,nan,nan,nan,nan,nan,nan,-2.131719370141074,-3.1287501754563127,0.16545234528292396,nan,nan,nan,nan,5.409794833747826,-9.705238130626173,4.41285055930717,-10.689984415317822,nan,nan
nan,nan,nan,nan,nan,nan,nan,-2.098895559299105,-3.109691251927916,0.14545234528292394,nan,nan,nan,nan,10.36784248993664,-14.59872249972206,9.383006033397661,-15.621252921003851,nan,nan
nan,nan,nan,nan,nan,nan,nan,-2.375625700134029,-3.340931920813075,0.34522174568904923,nan,nan,nan,nan,-2.3121176884726107,-2.4733749075849163,-3.2921995027154054,-3.4383164348950763,nan,nan
nan,nan,nan,nan,nan,nan,nan,-2.3567665510110576,-3.3167597269281113,0.330142672535853,nan,nan,nan,nan,-2.24870137242667,-2.5025500278413877,-3.2289251859601813,-3.4529386556659682,nan,nan
nan,nan,nan,nan,nan,nan,nan,-2.336176050375328,-3.292826742387031,0.3132883060885135,nan,nan,nan,nan,-2.158335674107241,-2.555197427914875,-3.1442628747473305,-3.4892565791088916,nan,nan
nan,nan,nan,nan,nan,nan,nan,-2.313879250509602,-3.2692196942189677,0.2949639014387563,nan,nan,nan,nan,-2.025304096658921,-2.647048004091735,-3.0221088094853155,-3.563544675288746,nan,nan
nan,nan,nan,nan,nan,nan,nan,-2.289917573871835,-3.2460243914941245,0.27545234528292406,nan,nan,nan,nan,-1.8266839795123793,-2.801074521506825,-2.8340443094584558,-3.7043950789794793,nan,nan
nan,nan,nan,nan,nan,nan,nan,-2.264348574829556,-3.223322088941425,0.25545234528292404,nan,nan,nan,nan,-1.5306085328091432,-3.049226614934527,-2.539033839376117,-3.9530149436121316,nan,nan
nan,nan,nan,nan,nan,nan,nan,-2.2372533407884347,-3.20117520208018,0.23545234528292402,nan,nan,nan,nan,-1.0816807660989027,-3.447016383560209,-2.089441117823963,-4.357203060058887,nan,nan
nan,nan,nan,nan,nan,nan,nan,-2.2087222693551056,-3.179635516419322,0.215452345282924,nan,nan,nan,nan,-0.3871554107558581,-4.087351270821011,-1.3944150265464537,-5.007935377613906,nan,nan
nan,nan,nan,nan,nan,nan,nan,-2.1788472688364195,-3.158751237819,0.195452345282924,nan,nan,nan,nan,0.7101053234569243,-5.127549862167135,-0.2960211059173803,-6.063249926921264,nan,nan
nan,nan,nan,nan,nan,nan,nan,-2.1477216484391732,-3.1385669280053268,0.17545234528292397,nan,nan,nan,nan,2.48200298997965,-6.839697527652489,1.4787704890868165,-7.796272964724816,nan,nan
nan,nan,nan,nan,nan,nan,nan,-2.11544000489271,-3.119123443803096,0.15545234528292395,nan,nan,nan,nan,5.409794833747826,-9.705238130626173,4.41285055930717,-10.689984415317822,nan,nan
nan,nan,nan,nan,nan,nan,nan,-2.0820981056578916,-3.1004578802701057,0.13545234528292394,nan,nan,nan,nan,10.36784248993664,-14.59872249972206,9.383006033397661,-15.621252921003851,nan,nan
nan,nan,nan,nan,nan,nan,nan,-2.366413429655269,-3.3288213174221073,0.3379240931857752,nan,nan,nan,nan,-2.3121176884726107,-2.4733749075849163,-3.2921995027154054,-3.4383164348950763,nan,nan
nan,nan,nan,nan,nan,nan,nan,-2.346686555367595,-3.3047579175815676,0.321917789566262,nan,nan,nan,nan,-2.24870137242667,-2.5025500278413877,-3.2289251859601813,-3.4529386556659682,nan,nan
nan,nan,nan,nan,nan,nan,nan,-2.325238714605818,-3.280977066008298,0.3042916626043742,nan,nan,nan,nan,-2.158335674107241,-2.555197427914875,-3.1442628747473305,-3.4892565791088916,nan,nan
nan,nan,nan,nan,nan,nan,nan,-2.302103335881233,-3.2575653063970558,0.2853396901737154,nan,nan,nan,nan,-2.025304096658921,-2.647048004091735,-3.0221088094853155,-3.563544675288746,nan,nan
nan,nan,nan,nan,nan,nan,nan,-2.2773294416377654,-3.234607187844232,0.26545234528292405,nan,nan,nan,nan,-1.8266839795123793,-2.801074521506825,-2.8340443094584558,-3.7043950789794793,nan,nan
nan,nan,nan,nan,nan,nan,nan,-2.2509861240020492,-3.212175898837314,0.24545234528292403,nan,nan,nan,nan,-1.5306085328091432,-3.049226614934527,-2.539033839376117,-3.9530149436121316,nan,nan
nan,nan,nan,nan,nan,nan,nan,-2.223161574614786,-3.190326361562044,0.22545234528292402,nan,nan,nan,nan,-1.0816807660989027,-3.447016383560209,-2.089441117823963,-4.357203060058887,nan,nan
nan,nan,nan,nan,nan,nan,nan,-2.1939469599280352,-3.1691085799885927,0.205452345282924,nan,nan,nan,nan,-0.3871554107558581,-4.087351270821011,-1.3944150265464537,-5.007935377613906,nan,nan
nan,nan,nan,nan,nan,nan,nan,-2.1634349026509545,-3.1485689457427757,0.18545234528292398,nan,nan,nan,nan,0.7101053234569243,-5.127549862167135,-0.2960211059173803,-6.063249926921264,nan,nan
nan,nan,nan,nan,nan,nan,nan,-2.131719370141074,-3.1287501754563127,0.16545234528292396,nan,nan,nan,nan,2.48200298997965,-6.839697527652489,1.4787704890868165,-7.796272964724816,nan,nan
nan,nan,nan,nan,nan,nan,nan,-2.098895559299105,-3.109691251927916,0.14545234528292394,nan,nan,nan,nan,5.409794833747826,-9.705238130626173,4.41285055930717,-10.689984415317822,nan,nan
nan,nan,nan,nan,nan,nan,nan,-2.065059778135082,-3.091427369274634,0.12545234528292393,nan,nan,nan,nan,10.36784248993664,-14.59872249972206,9.383006033397661,-15.621252921003851,nan,nan
nan,nan,nan,nan,nan,nan,nan,-2.3567665510110576,-3.3167597269281113,0.330142672535853,nan,nan,nan,nan,-2.3121176884726107,-2.4733749075849163,-3.2921995027154054,-3.4383164348950763,nan,nan
nan,nan,nan,nan,nan,nan,nan,-2.336176050375328,-3.292826742387031,0.3132883060885135,nan,nan,nan,nan,-2.24870137242667,-2.5025500278413877,-3.2289251859601813,-3.4529386556659682,nan,nan
nan,nan,nan,nan,nan,nan,nan,-2.313879250509602,-3.2692196942189677,0.2949639014387563,nan,nan,nan,nan,-2.158335674107241,-2.555197427914875,-3.1442628747473305,-3.4892565791088916,nan,nan
nan,nan,nan,nan,nan,nan,nan,-2.289917573871835,-3.2460243914941245,0.27545234528292406,nan,nan,nan,nan,-2.025304096658921,-2.647048004091735,-3.0221088094853155,-3.563544675288746,nan,nan
nan,nan,nan,nan,nan,nan,nan,-2.264348574829556,-3.223322088941425,0.25545234528292404,nan,nan,nan,nan,-1.8266839795123793,-2.801074521506825,-2.8340443094584558,-3.7043950789794793,nan,nan
nan,nan,nan,nan,nan,nan,nan,-2.2372533407884347,-3.20117520208018,0.23545234528292402,nan,nan,nan,nan,-1.5306085328091432,-3.049226614934527,-2.539033839376117,-3.9530149436121316,nan,nan
nan,nan,nan,nan,nan,nan,nan,-2.2087222693551056,-3.179635516419322,0.215452345282924,nan,nan,nan,nan,-1.0816807660989027,-3.447016383560209,-2.089441117823963,-4.357203060058887,nan,nan
nan,nan,nan,nan,nan,nan,nan,-2.1788472688364195,-3.158751237819,0.195452345282924,nan,nan,nan,nan,-0.3871554107558581,-4.087351270821011,-1.3944150265464537,-5.007935377613906,nan,nan
nan,nan,nan,nan,nan,nan,nan,-2.1477216484391732,-3.1385669280053268,0.17545234528292397,nan,nan,nan,nan,0.7101053234569243,-5.127549862167135,-0.2960211059173803,-6.063249926921264,nan,nan
nan,nan,nan,nan,nan,nan,nan,-2.11544000489271,-3.119123443803096,0.15545234528292395,nan,nan,nan,nan,2.48200298997965,-6.839697527652489,1.4787704890868165,-7.796272964724816,nan,nan
nan,nan,nan,nan,nan,nan,nan,-2.0820981056578916,-3.1004578802701057,0.13545234528292394,nan,nan,nan,nan,5.409794833747826,-9.705238130626173,4.41285055930717,-10.689984415317822,nan,nan
nan,nan,nan,nan,nan,nan,nan,-2.0477927688944373,-3.0826035179082156,0.11545234528292393,nan,nan,nan,nan,10.36784248993664,-14.59872249972206,9.383006033397661,-15.621252921003851,nan,nan
nan,nan,nan,nan,nan,nan,nan,-2.196489284407217,-3.15559465501064,0.1947516190643688,nan,nan,nan,nan,-2.151774993300622,-2.263083170286747,-3.117679891776636,-3.2213696444725457,nan,nan
nan,nan,nan,nan,nan,nan,nan,-2.173787124977181,-3.1279904657932995,0.1838045916201762,nan,nan,nan,nan,-2.0971283018457765,-2.273421779201459,-3.060804264756096,-3.222691342043333,nan,nan
nan,nan,nan,nan,nan,nan,nan,-2.149997539738139,-3.100768685128776,0.1717306072519979,nan,nan,nan,nan,-2.0244026855671606,-2.299651622842081,-2.9889913633998235,-3.239666174205065,nan,nan
nan,nan,nan,nan,nan,nan,nan,-2.125142724014986,-3.073976319335159,0.1587417691063626,nan,nan,nan,nan,-1.922853001098066,-2.3525498827771485,-2.8917778549838786,-3.282854158445804,nan,nan
nan,nan,nan,nan,nan,nan,nan,-2.0992561216274193,-3.047657089336542,0.14503367336795234,nan,nan,nan,nan,-1.774495429002044,-2.450156383828429,-2.7504810533994664,-3.3710289043091843,nan,nan
nan,nan,nan,nan,nan,nan,nan,-2.0723809731978715,-3.021850703189459,0.13078597771000644,nan,nan,nan,nan,-1.5530354057124858,-2.6188427333019533,-2.5346164009475554,-3.5347585653564355,nan,nan
nan,nan,nan,nan,nan,nan,nan,-2.044568897464692,-2.996592254676859,0.1161629887613235,nan,nan,nan,nan,-1.2240114030598586,-2.8931656684205853,-2.206340511806482,-3.811961462696168,nan,nan
nan,nan,nan,nan,nan,nan,nan,-2.0158785167967506,-2.971911760117219,0.10131426400249353,nan,nan,nan,nan,-0.7261201808707446,-3.3345390076454042,-1.7091967866134794,-4.259159403810073,nan,nan
nan,nan,nan,nan,nan,nan,nan,-1.9863741386324814,-2.947833837735791,0.08637522484851128,nan,nan,nan,nan,0.04438830128686863,-4.046836042956765,-0.9389054671160116,-4.9806868438614265,nan,nan
nan,nan,nan,nan,nan,nan,nan,-1.95612450424094,-2.9243775275160817,0.07146777857009622,nan,nan,nan,nan,1.264120945743148,-5.206797028945031,0.28194513720094794,-6.153999159511432,nan,nan
nan,nan,nan,nan,nan,nan,nan,-1.9252016151585654,-2.901556244318054,0.05670094722968769,nan,nan,nan,nan,3.240267323452474,-7.121752562323903,2.2616814928300037,-8.087455267951873,nan,nan
nan,nan,nan,nan,nan,nan,nan,-1.893679646057084,-2.8793778531316647,0.04217150204260161,nan,nan,nan,nan,6.519673590069388,-10.338695235355704,5.548788151552925,-11.32956096777128,nan,nan
nan,nan,nan,nan,nan,nan,nan,-2.1852750405236177,-3.1417478033997144,0.18943289126416313,nan,nan,nan,nan,-2.151774993300622,-2.263083170286747,-3.117679891776636,-3.2213696444725457,nan,nan
nan,nan,nan,nan,nan,nan,nan,-2.1620271542046208,-3.1143287688024444,0.1778948192167911,nan,nan,nan,nan,-2.0971283018457765,-2.273421779201459,-3.060804264756096,-3.222691342043333,nan,nan
nan,nan,nan,nan,nan,nan,nan,-2.1377014419376077,-3.087316006714841,0.16533793981311368,nan,nan,nan,nan,-2.0244026855671606,-2.299651622842081,-2.9889913633998235,-3.239666174205065,nan,nan
nan,nan,nan,nan,nan,nan,nan,-2.112325906415237,-3.060754978854325,0.1519660330772362,nan,nan,nan,nan,-1.922853001098066,-2.3525498827771485,-2.8917778549838786,-3.282854158445804,nan,nan
nan,nan,nan,nan,nan,nan,nan,-2.0859390695072197,-3.034687483151995,0.13796665356662924,nan,nan,nan,nan,-1.774495429002044,-2.450156383828429,-2.7504810533994664,-3.3710289043091843,nan,nan
nan,nan,nan,nan,nan,nan,nan,-2.0585885357402223,-3.009150987251325,0.1235117090077196,nan,nan,nan,nan,-1.5530354057124858,-2.6188427333019533,-2.5346164009475554,-3.5347585653564355,nan,nan
nan,nan,nan,nan,nan,nan,nan,-2.030329594258075,-2.9841780952117762,0.10875805545552333,nan,nan,nan,nan,-1.2240114030598586,-2.8931656684205853,-2.206340511806482,-3.811961462696168,nan,nan
nan,nan,nan,nan,nan,nan,nan,-2.0012238708349486,-2.959796155488719,0.09384810512281323,nan,nan,nan,nan,-0.7261201808707446,-3.3345390076454042,-1.7091967866134794,-4.259159403810073,nan,nan
nan,nan,nan,nan,nan,nan,nan,-1.971338041600942,-2.9360270111552427,0.0789104441350727,nan,nan,nan,nan,0.04438830128686863,-4.046836042956765,-0.9389054671160116,-4.9806868438614265,nan,nan
nan,nan,nan,nan,nan,nan,nan,-1.940742619435715,-2.9128868875609353,0.06406045816668587,nan,nan,nan,nan,1.264120945743148,-5.206797028945031,0.28194513720094794,-6.153999159511432,nan,nan
nan,nan,nan,nan,nan,nan,nan,-1.909510822643159,-2.8903864081091784,0.04940096428261391,nan,nan,nan,nan,3.240267323452474,-7.121752562323903,2.2616814928300037,-8.087455267951873,nan,nan
nan,nan,nan,nan,nan,nan,nan,-1.877717533710138,-2.868530725488171,0.03502284743008922,nan,nan,nan,nan,6.519673590069388,-10.338695235355704,5.548788151552925,-11.32956096777128,nan,nan
nan,nan,nan,nan,nan,nan,nan,-2.173787124977181,-3.1279904657932995,0.1838045916201762,nan,nan,nan,nan,-2.151774993300622,-2.263083170286747,-3.117679891776636,-3.2213696444725457,nan,nan
nan,nan,nan,nan,nan,nan,nan,-2.149997539738139,-3.100768685128776,0.1717306072519979,nan,nan,nan,nan,-2.0971283018457765,-2.273421779201459,-3.060804264756096,-3.222691342043333,nan,nan
nan,nan,nan,nan,nan,nan,nan,-2.125142724014986,-3.073976319335159,0.1587417691063626,nan,nan,nan,nan,-2.0244026855671606,-2.299651622842081,-2.9889913633998235,-3.239666174205065,nan,nan
nan,nan,nan,nan,nan,nan,nan,-2.0992561216274193,-3.047657089336542,0.14503367336795234,nan,nan,nan,nan,-1.922853001098066,-2.3525498827771485,-2.8917778549838786,-3.282854158445804,nan,nan
nan,nan,nan,nan,nan,nan,nan,-2.0723809731978715,-3.021850703189459,0.13078597771000644,nan,nan,nan,nan,-1.774495429002044,-2.450156383828429,-2.7504810533994664,-3.3710289043091843,nan,nan
nan,nan,nan,nan,nan,nan,nan,-2.044568897464692,-2.996592254676859,0.1161629887613235,nan,nan,nan,nan,-1.5530354057124858,-2.6188427333019533,-2.5346164009475554,-3.5347585653564355,nan,nan
nan,nan,nan,nan,nan,nan,nan,-2.0158785167967506,-2.971911760117219,0.10131426400249353,nan,nan,nan,nan,-1.2240114030598586,-2.8931656684205853,-2.206340511806482,-3.811961462696168,nan,nan
nan,nan,nan,nan,nan,nan,nan,-1.9863741386324814,-2.947833837735791,0.08637522484851128,nan,nan,nan,nan,-0.7261201808707446,-3.3345390076454042,-1.7091967866134794,-4.259159403810073,nan,nan
nan,nan,nan,nan,nan,nan,nan,-1.95612450424094,-2.9243775275160817,0.07146777857009622,nan,nan,nan,nan,0.04438830128686863,-4.046836042956765,-0.9389054671160116,-4.9806868438614265,nan,nan
nan,nan,nan,nan,nan,nan,nan,-1.9252016151585654,-2.901556244318054,0.05670094722968769,nan,nan,nan,nan,1.264120945743148,-5.206797028945031,0.28194513720094794,-6.153999159511432,nan,nan
nan,nan,nan,nan,nan,nan,nan,-1.893679646057084,-2.8793778531316647,0.04217150204260161,nan,nan,nan,nan,3.240267323452474,-7.121752562323903,2.2616814928300037,-8.087455267951873,nan,nan
nan,nan,nan,nan,nan,nan,nan,-1.8616339508199515,-2.857844852533803,0.027964601599120283,nan,nan,nan,nan,6.519673590069388,-10.338695235355704,5.548788151552925,-11.32956096777128,nan,nan
nan,nan,nan,nan,nan,nan,nan,-2.1620271542046208,-3.1143287688024444,0.1778948192167911,nan,nan,nan,nan,-2.151774993300622,-2.263083170286747,-3.117679891776636,-3.2213696444725457,nan,nan
nan,nan,nan,nan,nan,nan,nan,-2.1377014419376077,-3.087316006714841,0.16533793981311368,nan,nan,nan,nan,-2.0971283018457765,-2.273421779201459,-3.060804264756096,-3.222691342043333,nan,nan
nan,nan,nan,nan,nan,nan,nan,-2.112325906415237,-3.060754978854325,0.1519660330772362,nan,nan,nan,nan,-2.0244026855671606,-2.299651622842081,-2.9889913633998235,-3.239666174205065,nan,nan
nan,nan,nan,nan,nan,nan,nan,-2.0859390695072197,-3.034687483151995,0.13796665356662924,nan,nan,nan,nan,-1.922853001098066,-2.3525498827771485,-2.8917778549838786,-3.282854158445804,nan,nan
nan,nan,nan,nan,nan,nan,nan,-2.0585885357402223,-3.009150987251325,0.1235117090077196,nan,nan,nan,nan,-1.774495429002044,-2.450156383828429,-2.7504810533994664,-3.3710289043091843,nan,nan
nan,nan,nan,nan,nan,nan,nan,-2.030329594258075,-2.9841780952117762,0.10875805545552333,nan,nan,nan,nan,-1.5530354057124858,-2.6188427333019533,-2.5346164009475554,-3.5347585653564355,nan,nan
nan,nan,nan,nan,nan,nan,nan,-2.0012238708349486,-2.959796155488719,0.09384810512281323,nan,nan,nan,nan,-1.2240114030598586,-2.8931656684205853,-2.206340511806482,-3.811961462696168,nan,nan
nan,nan,nan,nan,nan,nan,nan,-1.971338041600942,-2.9360270111552427,0.0789104441350727,nan,nan,nan,nan,-0.7261201808707446,-3.3345390076454042,-1.7091967866134794,-4.259159403810073,nan,nan
nan,nan,nan,nan,nan,nan,nan,-1.940742619435715,-2.9128868875609353,0.06406045816668587,nan,nan,nan,nan,0.04438830128686863,-4.046836042956765,-0.9389054671160116,-4.9806868438614265,nan,nan
nan,nan,nan,nan,nan,nan,nan,-1.909510822643159,-2.8903864081091784,0.04940096428261391,nan,nan,nan,nan,1.264120945743148,-5.206797028945031,0.28194513720094794,-6.153999159511432,nan,nan
nan,nan,nan,nan,nan,nan,nan,-1.877717533710138,-2.868530725488171,0.03502284743008922,nan,nan,nan,nan,3.240267323452474,-7.121752562323903,2.2616814928300037,-8.087455267951873,nan,nan
nan,nan,nan,nan,nan,nan,nan,-1.8454383538487449,-2.8473197534087347,0.021005699973348228,nan,nan,nan,nan,6.519673590069388,-10.338695235355704,5.548788151552925,-11.32956096777128,nan,nan
nan,nan,nan,nan,nan,nan,nan,-2.149997539738139,-3.100768685128776,0.1717306072519979,nan,nan,nan,nan,-2.151774993300622,-2.263083170286747,-3.117679891776636,-3.2213696444725457,nan,nan
nan,nan,nan,nan,nan,nan,nan,-2.125142724014986,-3.073976319335159,0.1587417691063626,nan,nan,nan,nan,-2.0971283018457765,-2.273421779201459,-3.060804264756096,-3.222691342043333,nan,nan
nan,nan,nan,nan,nan,nan,nan,-2.0992561216274193,-3.047657089336542,0.14503367336795234,nan,nan,nan,nan,-2.0244026855671606,-2.299651622842081,-2.9889913633998235,-3.239666174205065,nan,nan
nan,nan,nan,nan,nan,nan,nan,-2.0723809731978715,-3.021850703189459,0.13078597771000644,nan,nan,nan,nan,-1.922853001098066,-2.3525498827771485,-2.8917778549838786,-3.282854158445804,nan,nan
nan,nan,nan,nan,nan,nan,nan,-2.044568897464692,-2.996592254676859,0.1161629887613235,nan,nan,nan,nan,-1.774495429002044,-2.450156383828429,-2.7504810533994664,-3.3710289043091843,nan,nan
nan,nan,nan,nan,nan,nan,nan,-2.0158785167967506,-2.971911760117219,0.10131426400249353,nan,nan,nan,nan,-1.5530354057124858,-2.6188427333019533,-2.5346164009475554,-3.5347585653564355,nan,nan
nan,nan,nan,nan,nan,nan,nan,-1.9863741386324814,-2.947833837735791,0.08637522484851128,nan,nan,nan,nan,-1.2240114030598586,-2.8931656684205853,-2.206340511806482,-3.811961462696168,nan,nan
nan,nan,nan,nan,nan,nan,nan,-1.95612450424094,-2.9243775275160817,0.07146777857009622,nan,nan,nan,nan,-0.7261201808707446,-3.3345390076454042,-1.7091967866134794,-4.259159403810073,nan,nan
nan,nan,nan,nan,nan,nan,nan,-1.9252016151585654,-2.901556244318054,0.05670094722968769,nan,nan,nan,nan,0.04438830128686863,-4.046836042956765,-0.9389054671160116,-4.9806868438614265,nan,nan
nan,nan,nan,nan,nan,nan,nan,-1.893679646057084,-2.8793778531316647,0.04217150204260161,nan,nan,nan,nan,1.264120945743148,-5.206797028945031,0.28194513720094794,-6.153999159511432,nan,nan
nan,nan,nan,nan,nan,nan,nan,-1.8616339508199515,-2.857844852533803,0.027964601599120283,nan,nan,nan,nan,3.240267323452474,-7.121752562323903,2.2616814928300037,-8.087455267951873,nan,nan
nan,nan,nan,nan,nan,nan,nan,-1.8291401664164362,-2.8369546506238836,0.014154432271962425,nan,nan,nan,nan,6.519673590069388,-10.338695235355704,5.548788151552925,-11.32956096777128,nan,nan
nan,nan,nan,nan,nan,nan,nan,-1.9041787127657839,-2.9076599489118466,0.04368876054468041,nan,nan,nan,nan,-1.8427519731228776,-1.9963360291099144,-2.8449290671723206,-2.9971357088607347,nan,nan
nan,nan,nan,nan,nan,nan,nan,-1.8729991384737177,-2.881418179369115,0.029085416575104682,nan,nan,nan,nan,-1.7696136176634791,-2.0077070453852865,-2.776436225588581,-3.0124743581261386,nan,nan
nan,nan,nan,nan,nan,nan,nan,-1.84128927626532,-2.855844114717689,0.014951921512940634,nan,nan,nan,nan,-1.6723024145104664,-2.042108358506007,-2.685096272172779,-3.0519998615315176,nan,nan
nan,nan,nan,nan,nan,nan,nan,-1.8091303891855455,-2.8309299372287344,0.0013449738494389675,nan,nan,nan,nan,-1.5348541383927872,-2.115667728978337,-2.5549533759046845,-3.1316570269219612,nan,nan
nan,nan,nan,nan,nan,nan,nan,-1.7766022245900879,-2.8066635437919243,-0.01168801961683602,nan,nan,nan,nan,-1.3316960769981216,-2.2541190398384976,-2.3603839296133766,-3.2770494278744873,nan,nan
nan,nan,nan,nan,nan,nan,nan,-1.743782422832529,-2.783029014488559,-0.024108311595600927,nan,nan,nan,nan,-1.0296828399657796,-2.4907652046263484,-2.0675715537474577,-3.521965299879682,nan,nan
nan,nan,nan,nan,nan,nan,nan,-1.7107460229139826,-2.760007106563136,-0.03588519077984262,nan,nan,nan,nan,-0.5785192965001618,-2.876054145376376,-1.6251195666805855,-3.9177660363859372,nan,nan
nan,nan,nan,nan,nan,nan,nan,-1.677565059411761,-2.737575759409866,-0.046995369148523244,nan,nan,nan,nan,0.11226907817362546,-3.500607550304098,-0.942005441540037,-4.555432734309489,nan,nan
nan,nan,nan,nan,nan,nan,nan,-1.644308243984695,-2.7157105979681058,-0.05742238233225372,nan,nan,nan,nan,1.1957875174396464,-4.517671468647233,0.1355586853296195,-5.588706696872167,nan,nan
nan,nan,nan,nan,nan,nan,nan,-1.611040724057261,-2.6943854237970135,-0.06715600526233953,nan,nan,nan,nan,2.9366202104688797,-6.191963999945031,1.8730654919645464,-7.283029908114479,nan,nan
nan,nan,nan,nan,nan,nan,nan,-1.5778239108910006,-2.6735726849906967,-0.07619168523440806,nan,nan,nan,nan,5.802459479308913,-8.991304059858704,4.73945584665534,-10.107289371735257,nan,nan
nan,nan,nan,nan,nan,nan,nan,-1.5447153691270166,-2.653243917932308,-0.08452999436501477,nan,nan,nan,nan,10.64182571945559,-13.764331040332726,9.58502415071089,-14.911723367052765,nan,nan
nan,nan,nan,nan,nan,nan,nan,-1.8886603315243822,-2.89445529185736,0.03633228148965354,nan,nan,nan,nan,-1.8427519731228776,-1.9963360291099144,-2.8449290671723206,-2.9971357088607347,nan,nan
nan,nan,nan,nan,nan,nan,nan,-1.8572053865082359,-2.8685480668521484,0.021956169042381277,nan,nan,nan,nan,-1.7696136176634791,-2.0077070453852865,-2.776436225588581,-3.0124743581261386,nan,nan
nan,nan,nan,nan,nan,nan,nan,-1.8252609336855612,-2.843305201413323,0.008079456002961817,nan,nan,nan,nan,-1.6723024145104664,-2.042108358506007,-2.685096272172779,-3.0519998615315176,nan,nan
nan,nan,nan,nan,nan,nan,nan,-1.792907558418309,-2.8187166787439315,-0.005245884466826845,nan,nan,nan,nan,-1.5348541383927872,-2.115667728978337,-2.5549533759046845,-3.1316570269219612,nan,nan
nan,nan,nan,nan,nan,nan,nan,-1.7602240222960637,-2.7947684268135693,-0.017976853853856688,nan,nan,nan,nan,-1.3316960769981216,-2.2541190398384976,-2.3603839296133766,-3.2770494278744873,nan,nan
nan,nan,nan,nan,nan,nan,nan,-1.7272867209382692,-2.7714428015332606,-0.030078800175389556,nan,nan,nan,nan,-1.0296828399657796,-2.4907652046263484,-2.0675715537474577,-3.521965299879682,nan,nan
nan,nan,nan,nan,nan,nan,nan,-1.6941692360652367,-2.748719087924762,-0.041524799590726545,nan,nan,nan,nan,-0.5785192965001618,-2.876054145376376,-1.6251195666805855,-3.9177660363859372,nan,nan
nan,nan,nan,nan,nan,nan,nan,-1.660941975603794,-2.7265740057712726,-0.05229504995506923,nan,nan,nan,nan,0.11226907817362546,-3.500607550304098,-0.942005441540037,-4.555432734309489,nan,nan
nan,nan,nan,nan,nan,nan,nan,-1.6276718947380764,-2.704982208074965,-0.06237627855327435,nan,nan,nan,nan,1.1957875174396464,-4.517671468647233,0.1355586853296195,-5.588706696872167,nan,nan
nan,nan,nan,nan,nan,nan,nan,-1.594422290274896,-2.683916762539958,-0.07176116619799068,nan,nan,nan,nan,2.9366202104688797,-6.191963999945031,1.8730654919645464,-7.283029908114479,nan,nan
nan,nan,nan,nan,nan,nan,nan,-1.561252660438569,-2.663349608170938,-0.08044778975417445,nan,nan,nan,nan,5.802459479308913,-8.991304059858704,4.73945584665534,-10.107289371735257,nan,nan
nan,nan,nan,nan,nan,nan,nan,-1.5282186222052476,-2.64325198086738,-0.08843908497201897,nan,nan,nan,nan,10.64182571945559,-13.764331040332726,9.58502415071089,-14.911723367052765,nan,nan
nan,nan,nan,nan,nan,nan,nan,-1.8729991384737177,-2.881418179369115,0.029085416575104682,nan,nan,nan,nan,-1.8427519731228776,-1.9963360291099144,-2.8449290671723206,-2.9971357088607347,nan,nan
nan,nan,nan,nan,nan,nan,nan,-1.84128927626532,-2.855844114717689,0.014951921512940634,nan,nan,nan,nan,-1.7696136176634791,-2.0077070453852865,-2.776436225588581,-3.0124743581261386,nan,nan
nan,nan,nan,nan,nan,nan,nan,-1.8091303891855455,-2.8309299372287344,0.0013449738494389675,nan,nan,nan,nan,-1.6723024145104664,-2.042108358506007,-2.685096272172779,-3.0519998615315176,nan,nan
