time,x,y,z,yaw,ctrl_comp_time,rollout_comptime,y_ref,z_ref,yaw_ref,throttle,roll_rate,pitch_rate,yaw_rate,save_tube_pyH,save_tube_pyL,save_tube_pzH,save_tube_pzL,wy,wz
15.01103687286377,-0.059463657438755035,-2.520751953125,-3.736464023590088,0.032416221461365136,0.17374944686889648,0.08796262741088867,-2.51426696609945,-3.732409440808806,0.09107946877884535,0.44709333750060676,1.0,-0.046229949428854306,-0.024030877469251002,-2.498771398257877,-2.530120807352058,-3.7179180485388814,-3.7493978227851357,0.0,0.0
15.589080810546875,-0.059463657438755035,-2.520751953125,-3.736464023590088,0.032416221461365136,0.21733474731445312,0.07554316520690918,-2.5137260894271267,-3.7295854255876133,0.11107946877884534,0.4469925721897473,1.0,-0.0994166024994195,0.0316617243434026,-2.4895407976714687,-2.538518285738712,-3.70650033172569,-3.7556038722865375,0.0,0.0
15.695349216461182,-0.06382683664560318,-2.5678186416625977,-3.7309083938598633,0.03016464216801655,0.002809286117553711,0.08009862899780273,-2.5128901285701706,-3.726321188063914,0.13107946877884533,0.44749298424098305,0.7780811435730306,-0.1468309170512389,0.1362966927503481,-2.4774607626812957,-2.549236969447919,-3.692128276344586,-3.7638892009166653,0.0,0.0
15.70573115348816,-0.06382683664560318,-2.5678186416625977,-3.7309083938598633,0.03016464216801655,0.004399538040161133,0.08009862899780273,-2.5116971589857475,-3.722609178180844,0.15107946877884534,0.4475537902095652,0.8345942816067004,-0.2236516222656524,0.2750150362345982,-2.4620036516549635,-2.562680622840319,-3.6743840694368055,-3.7746594102454427,0.0,0.0
15.71850037574768,-0.06382683664560318,-2.5678186416625977,-3.7309083938598633,0.03016464216801655,0.002683877944946289,0.08009862899780273,-2.5100853617651806,-3.718438938661664,0.17107946877884536,0.4476136596827268,0.8927892561898605,-0.34794593564367166,0.4955805477032751,-2.44247656988987,-2.5794183711627534,-3.6526957985791553,-3.788468411169473,0.0,0.0
15.726858139038086,-0.06383103877305984,-2.5684399604797363,-3.7294225692749023,0.030399361070915978,0.0024445056915283203,0.08009862899780273,-2.507993128712506,-3.713797083967524,0.19107946877884538,0.4486574251997828,0.8259698446323472,-0.4835621549505702,0.6477902738516376,-2.417953152158912,-2.600253126009502,-3.6262720422015886,-3.8060837871536677,0.0,0.0
15.73344612121582,-0.06383103877305984,-2.5684399604797363,-3.7294225692749023,0.030399361070915978,0.0024042129516601562,0.08009862899780273,-2.505359169408339,-3.708667283697672,0.2110794687788454,0.44871514948462,0.8873772275943979,-0.5784935084653992,0.7238951369258187,-2.38717350059917,-2.6263218596313718,-3.594008484803922,-3.8285801413447684,0.0,0.0
15.740400552749634,-0.06383103877305984,-2.5684399604797363,-3.7294225692749023,0.030399361070915978,0.002506256103515625,0.08009862899780273,-2.5021226200354985,-3.703030250537159,0.23107946877884541,0.44877142649505164,0.9505017291584597,-0.6449454559257795,0.7619475684629095,-2.34839212766614,-2.6592478779273683,-3.554348957377523,-3.85747802747278,0.0,0.0
15.750545024871826,-0.06388713419437408,-2.5688271522521973,-3.725849151611328,0.030888351793874443,0.002536296844482422,0.08009862899780273,-2.49822315373884,-3.6968637328452623,0.2510794687788454,0.45026225368161577,0.8122825190460028,-0.6914618191480456,0.7809737842314547,-2.2991545811746312,-2.7013644146465907,-3.5050835595505703,-3.894945808220025,0.0,0.0
15.759761571884155,-0.06388713419437408,-2.5688271522521973,-3.725849151611328,0.030888351793874443,0.0026886463165283203,0.08009862899780273,-2.493601092288397,-3.6901425119659055,0.2710794687788454,0.45031365841606474,0.8786053504798805,-0.7240232734036319,0.7904868921157273,-2.2359793621831736,-2.7560329355848974,-3.4430600907067563,-3.944088213982467,0.0,0.0
15.769897699356079,-0.06383699178695679,-2.568920373916626,-3.7219467163085938,0.03187987403126366,0.0025072097778320312,0.08009862899780273,-2.488197518812168,-3.6828384043293165,0.29107946877884544,0.45147823769940554,0.7835081359850068,-0.7468162913825424,0.7952434460578637,-2.1539249961003533,-2.8280762919332108,-3.3637815799022492,-4.00934881234902,0.0,0.0
15.779881477355957,-0.06383699178695679,-2.568920373916626,-3.7219467163085938,0.03187987403126366,0.0029060840606689453,0.08009862899780273,-2.4819543913627564,-3.6749202684020927,0.31107946877884546,0.45152317565322064,0.8531571350341683,-0.7627714039677796,0.7976217230289319,-2.0460566887719933,-2.9243122905489334,-3.2608824494023545,-4.09703385360383,0.0,0.0
15.7897469997406,-0.06383699178695679,-2.568920373916626,-3.7219467163085938,0.03187987403126366,0.0026030540466308594,0.08009862899780273,-2.520601816331359,-3.7315617296369603,0.07916718685582787,0.45156548307484556,0.9245870167119752,-0.7739399827774458,0.7988108615144659,-2.5086259926809165,-2.5328086225566118,-3.72039487772431,-3.7446998685925648,0.0,0.0
15.800131559371948,-0.06383699178695679,-2.568920373916626,-3.7219467163085938,0.03187987403126366,0.0025908946990966797,0.08009862899780273,-2.5202123012859374,-3.7292613895659126,0.09916718685582786,0.4516051229278156,0.9978066052333574,-0.781757987944212,0.799405430757233,-2.5007167811045963,-2.5401553206778127,-3.7106622309984147,-3.7502707643437008,0.0,0.0
15.809717893600464,-0.06356776505708694,-2.5687713623046875,-3.7187764644622803,0.03299485993335505,0.002780914306640625,0.08009862899780273,-2.519559978942088,-3.7265195036359193,0.11916718685582785,0.45234940693369075,0.9834290135877732,-0.7872305915609484,0.7997027153786166,-2.4901885616950574,-2.5496571398304706,-3.6981444729558084,-3.7577474064758447,0.0,0.0
15.819876670837402,-0.0628887191414833,-2.5684609413146973,-3.7107884883880615,0.0369432777357522,0.002627134323120117,0.08009862899780273,-2.5185830907136713,-3.7233301950932978,0.13916718685582785,0.4540148452826328,0.8493266524840646,-0.791061414092664,0.7998513576893084,-2.476580686370231,-2.5616512435713803,-3.68248387355318,-3.767478640563271,0.0,0.0
15.917184114456177,-0.0628887191414833,-2.5684609413146973,-3.7107884883880615,0.0369432777357522,0.0049648284912109375,0.08671760559082031,-2.517219921791309,-3.7196846977727085,0.15916718685582787,0.45724739512823354,1.0,-0.7937429898648648,0.7999256788446543,-2.4592936473240217,-2.576613640638045,-3.663193975804391,-3.779936287112236,0.0,0.0
15.930827856063843,-0.05507860332727432,-2.5562193393707275,-3.6672520637512207,0.06589152374590486,0.0026750564575195312,0.08671760559082031,-2.5154089049587296,-3.715571332492389,0.1791671868558279,0.46340660191831706,0.29176732094774893,-0.7259504452996669,0.7999628394223272,-2.437533078921549,-2.595215388411352,-3.6396049713140104,-3.7957697145304574,0.0,0.0
15.939963102340698,-0.05507860332727432,-2.5562193393707275,-3.6672520637512207,0.06589152374590486,0.0030303001403808594,0.08671760559082031,-2.5130887265211497,-3.710975487827906,0.1991671868558279,0.463434568353037,0.37613095025855214,-0.6278858276026829,0.7999814197111637,-2.4102278136612587,-2.6184047467528626,-3.6107859468180705,-3.8158835497259527,0.0,0.0
15.95152497291565,-0.052208829671144485,-2.550719738006592,-3.6546592712402344,0.07436950473230806,0.0029296875,0.08671760559082031,-2.5101984341246615,-3.7058796053761474,0.21916718685582792,0.4648265349554095,0.31133680257663787,-0.5061958865951243,0.7999907098555818,-2.375907380002824,-2.647529893980501,-3.575431567643824,-3.841550960658556,0.0,0.0
15.959773540496826,-0.052208829671144485,-2.550719738006592,-3.6546592712402344,0.07436950473230806,0.002943754196166992,0.08671760559082031,-2.5066775462412765,-3.7002631696095314,0.23916718685582794,0.4648454447806737,0.39941568710883524,-0.4127513724572281,0.799995354927791,-2.332517431727509,-2.6845237148694565,-3.531694197717887,-3.8745815114264666,0.0,0.0
15.970188856124878,-0.04882453754544258,-2.5442073345184326,-3.64084792137146,0.0831062276168682,0.0030617713928222656,0.08671760559082031,-2.5024661630905625,-3.6941027024085202,0.25916718685582796,0.4664698570277567,0.312858880063413,-0.29972606082579534,0.7680127954295658,-2.2771537692718957,-2.7321699997828164,-3.476943265413919,-3.9175617807847614,0.0,0.0
15.980342626571655,-0.04882453754544258,-2.5442073345184326,-3.64084792137146,0.0831062276168682,0.0054454803466796875,0.08671760559082031,-2.49750507876571,-3.6873717623485454,0.279167186855828,0.46647887318895886,0.40474777423555197,-0.20873347707890189,0.6531293330257154,-2.2056893857086637,-2.7944766217968717,-3.40742357164381,-3.9741970478561237,0.0,0.0
15.993355751037598,-0.04882453754544258,-2.5442073345184326,-3.64084792137146,0.0831062276168682,0.0031075477600097656,0.08671760559082031,-2.4917358943293735,-3.6800409488054022,0.299167186855828,0.46648510174605795,0.4985852447891075,-0.11484680725360669,0.5228324547612814,-2.1122865110003115,-2.8771637177282288,-3.3177916031050905,-4.0497749822612485,0.0,0.0
16.003378868103027,-0.044963087886571884,-2.5366854667663574,-3.6257736682891846,0.09234451483594436,0.0044100284576416016,0.08671760559082031,-2.520437410769874,-3.7304679264902383,0.08916718685582786,0.46807962700627936,0.40967924613961193,0.028524643001751025,0.3239516780282828,-2.50497516845579,-2.536230647883864,-3.715859186255314,-3.747266559035597,0.0,0.0
16.012966632843018,-0.044963087886571884,-2.5366854667663574,-3.6257736682891846,0.09234451483594436,0.0035703182220458984,0.08671760559082031,-2.51992483109059,-3.7279480356500123,0.10916718685582785,0.46807471774480613,0.5074218609736434,0.1746954063225404,0.06386249822426525,-2.4958074872552456,-2.5446204275896394,-3.7047728148941386,-3.7537534571390374,0.0,0.0
16.02151608467102,-0.044963087886571884,-2.5366854667663574,-3.6257736682891846,0.09234451483594436,0.003590106964111328,0.08671760559082031,-2.519118676381353,-3.7249841476668233,0.12916718685582784,0.46806667517880807,0.607147049609161,0.345915314795812,-0.2724826961379476,-2.483805207537275,-2.555319414698419,-3.6907359651986056,-3.762307996685633,0.0,0.0
16.130736351013184,-0.012575971893966198,-2.466907501220703,-3.511260747909546,0.164436416536988,0.0038378238677978516,0.09712505340576172,-2.5179571949772233,-3.721568944657892,0.14916718685582786,0.48245323281525165,0.061989411051429966,0.4821407203570684,-0.5362413480689738,-2.4684439864129444,-2.568728430553134,-3.673332219503308,-3.773334842460765,0.0,0.0
16.141504049301147,-0.012575971893966198,-2.466907501220703,-3.511260747909546,0.164436416536988,0.0036020278930664062,0.09712505340576172,-2.51637873072912,-3.7176922070759733,0.16916718685582788,0.48248077623838714,0.1737466669895129,0.5774985042499479,-0.6681206740344869,-2.4490352974607568,-2.5854125678050592,-3.6519915438485206,-3.787386496896415,0.0,0.0
16.151350498199463,-0.012575971893966198,-2.466907501220703,-3.511260747909546,0.164436416536988,0.0033135414123535156,0.09712505340576172,-2.514321827898656,-3.713340792282607,0.1891671868558279,0.482507194622811,0.2875614278933112,0.6442489529749635,-0.7340603370172435,-2.4246586649434914,-2.6061691638195668,-3.6259250839144817,-3.8052284569340613,0.0,0.0
16.16055655479431,-0.005452719982713461,-2.4498891830444336,-3.488492965698242,0.17487067563297803,0.0033125877380371094,0.09712505340576172,-2.5117253380554527,-3.7084986175573986,0.2091671868558279,0.48400256486157,0.2232356926355583,0.6909742670824744,-0.7670301685086218,-2.3940621053529885,-2.632127570978753,-3.594031965234723,-3.827932375365943,0.0,0.0
16.17037057876587,0.0013473768485710025,-2.433532476425171,-3.467418670654297,0.18123583354039846,0.0036101341247558594,0.09712505340576172,-2.5085285287536703,-3.7031466476492256,0.22916718685582793,0.4852951745863001,0.15948190763583647,0.7236819869577321,-0.7835150842543109,-2.355510794266997,-2.664900705454787,-3.55476063001451,-3.85701469455211,0.0,0.0
16.179705142974854,0.0013473768485710025,-2.433532476425171,-3.467418670654297,0.18123583354039846,0.0036039352416992188,0.09712505340576172,-2.5046711937604766,-3.6972628869634216,0.24916718685582795,0.485309066920134,0.2798339878499263,0.7465773908704125,-0.7917575421271555,-2.306564968095507,-2.706807364425847,-3.5059077504172684,-3.894637712850356,0.0,0.0
16.18970561027527,0.0013473768485710025,-2.433532476425171,-3.467418670654297,0.18123583354039846,0.0035059452056884766,0.09712505340576172,-2.500093764605767,-3.690822376467065,0.26916718685582797,0.48532144271862676,0.33626188983320215,0.7626041736092888,-0.7958787710635779,-2.2437631511615708,-2.7611892208315423,-3.444330540682841,-3.9438972615714056,0.0,0.0
16.199838161468506,0.013489997945725918,-2.4042227268218994,-3.431629180908203,0.1898737045294919,0.0037949085235595703,0.09712505340576172,-2.4947374232196577,-3.6837971953824855,0.289167186855828,0.4873106337200622,0.0699773944344374,0.7738229215265021,-0.797939385531789,-2.162190529066965,-2.832842674253131,-3.365545475087484,-4.0092239856016905,0.0,0.0
16.209702968597412,0.013489997945725918,-2.4042227268218994,-3.431629180908203,0.1898737045294919,0.0036911964416503906,0.09712505340576172,-2.4885442154220954,-3.6761564677270266,0.309167186855828,0.48731333484153416,0.04996450010966336,0.7816760450685515,-0.7989696927658946,-2.054946002281523,-2.9285520235104303,-3.263205592980218,-4.096906046587265,0.0,0.0
16.345334768295288,0.07230585813522339,-2.24098801612854,-3.2605204582214355,0.20001824637222562,0.003259420394897461,0.12358546257019043,-2.5202139574224427,-3.729263136016588,0.09916718685582786,0.5002546809726119,-1.0,0.787173231547986,-0.73318912455321,-2.50497516845579,-2.536230647883864,-3.715859186255314,-3.747266559035597,0.0,0.0
16.354119539260864,0.07230585813522339,-2.24098801612854,-3.2605204582214355,0.20001824637222562,0.0030744075775146484,0.12358546257019043,-2.5195623111178476,-3.7265219809421195,0.11916718685582785,0.500283901901615,-1.0,0.7910212620835902,-0.6038546740001418,-2.4958074872552456,-2.5446204275896394,-3.7047728148941386,-3.7537534571390374,0.0,0.0
16.361772537231445,0.07230585813522339,-2.24098801612854,-3.2605204582214355,0.20001824637222562,0.0031168460845947266,0.12358546257019043,-2.5185862084830397,-3.723333530982037,0.13916718685582785,0.5003130075705366,-1.0,0.7937148834585132,-0.5521576456277042,-2.483805207537275,-2.555319414698419,-3.6907359651986056,-3.762307996685633,0.0,0.0
16.370423078536987,0.08450789004564285,-2.198598861694336,-3.220205783843994,0.19812014604560513,0.0029180049896240234,0.12358546257019043,-2.5172239326329087,-3.719689020372468,0.15916718685582787,0.5022818503040876,-1.0,0.7956004184209592,-0.5019161300410393,-2.4684439864129444,-2.568728430553134,-3.673332219503308,-3.773334842460765,0.0,0.0
16.379918098449707,0.08450789004564285,-2.198598861694336,-3.220205783843994,0.19812014604560513,0.005392313003540039,0.12358546257019043,-2.5154139143815297,-3.7155767704242715,0.1791671868558279,0.5023130481960302,-1.0,0.7969202928946715,-0.47986736207541797,-2.4490352974607568,-2.5854125678050592,-3.6519915438485206,-3.787386496896415,0.0,0.0
16.394050121307373,0.08450789004564285,-2.198598861694336,-3.220205783843994,0.19812014604560513,0.0033490657806396484,0.12358546257019043,-2.5130948381658715,-3.710982170300333,0.1991671868558279,0.5023441946478292,-1.0,0.7978442050262701,-0.4704793365397653,-2.4246586649434914,-2.6061691638195668,-3.6259250839144817,-3.8052284569340613,0.0,0.0
16.492817878723145,0.11704680323600769,-2.058499574661255,-3.093353748321533,0.18576958943732502,0.0037720203399658203,0.08730292320251465,-2.5102057498608925,-3.7058876622833097,0.21916718685582792,0.5087207791334327,-1.0,0.7193306059649823,-0.41661553761338793,-2.3940621053529885,-2.632127570978753,-3.594031965234723,-3.827932375365943,0.0,0.0
16.503500938415527,0.11704680323600769,-2.058499574661255,-3.093353748321533,0.18576958943732502,0.0036041736602783203,0.08730292320251465,-2.506686166260678,-3.700272731633812,0.23916718685582794,0.5087835006230768,-1.0,0.6673252054253257,-0.3776184327060011,-2.355510794266997,-2.664900705454787,-3.55476063001451,-3.85701469455211,0.0,0.0
16.51366114616394,0.12622839212417603,-2.008114814758301,-3.049715995788574,0.181361081534579,0.003942728042602539,0.08730292320251465,-2.5024761859965574,-3.6941139011271233,0.25916718685582796,0.5100832258051501,-1.0,0.5818713627178187,-0.3487751611024759,-2.306564968095507,-2.706807364425847,-3.5059077504172684,-3.894637712850356,0.0,0.0
16.522910356521606,0.12622839212417603,-2.008114814758301,-3.049715995788574,0.181361081534579,0.0036611557006835938,0.08730292320251465,-2.497516601660049,-3.6873847303445872,0.279167186855828,0.510171022193775,-1.0,0.5244079347238175,-0.3236547332749807,-2.2437631511615708,-2.7611892208315423,-3.444330540682841,-3.9438972615714056,0.0,0.0
16.533108949661255,0.13500405848026276,-1.9512362480163574,-3.001518726348877,0.17657944286395405,0.003658771514892578,0.08730292320251465,-2.4917490128959776,-3.680055819783742,0.299167186855828,0.5111423571353434,-1.0,0.43385982229328446,-0.30654719364138633,-2.162190529066965,-2.832842674253131,-3.365545475087484,-4.0092239856016905,0.0,0.0
16.542114973068237,0.13500405848026276,-1.9512362480163574,-3.001518726348877,0.17657944286395405,0.0034818649291992188,0.08730292320251465,-2.4851159402292575,-3.672094819839202,0.3186353367366626,0.5112559388446334,-1.0,0.3732927836857147,-0.2872941200811709,-2.054946002281523,-2.9285520235104303,-3.263205592980218,-4.096906046587265,0.0,0.0
16.55221128463745,0.13500405848026276,-1.9512362480163574,-3.001518726348877,0.17657944286395405,0.0036025047302246094,0.08730292320251465,-2.51992483109059,-3.7279480356500123,0.10916718685582785,0.5113663816805122,-1.0,0.33217689679020523,-0.2716921036149541,-2.50497516845579,-2.536230647883864,-3.715859186255314,-3.747266559035597,0.0,0.0
16.562084674835205,0.13958613574504852,-1.9153757095336914,-2.9715049266815186,0.17391102230486252,0.003501415252685547,0.08730292320251465,-2.519118676381353,-3.7249841476668233,0.12916718685582784,0.5121222529876148,-1.0,0.27430286921629254,-0.2628347325855884,-2.4958074872552456,-2.5446204275896394,-3.7047728148941386,-3.7537534571390374,0.0,0.0
16.57058334350586,0.13958613574504852,-1.9153757095336914,-2.9715049266815186,0.17391102230486252,0.0034689903259277344,0.08730292320251465,-2.5179571949772233,-3.721568944657892,0.14916718685582786,0.5122410866644307,-0.9884804089746582,0.23551610968940773,-0.2526161721965545,-2.483805207537275,-2.555319414698419,-3.6907359651986056,-3.762307996685633,0.0,0.0
16.580021619796753,0.1448793113231659,-1.865034580230713,-2.9296672344207764,0.1690951299880769,0.0036814212799072266,0.08730292320251465,-2.51637873072912,-3.7176922070759733,0.16916718685582788,0.5131306161379697,-0.9470938584851322,0.15894802194920282,-0.25172350411569755,-2.4684439864129444,-2.568728430553134,-3.673332219503308,-3.773334842460765,0.0,0.0
16.70468235015869,0.1448793113231659,-1.865034580230713,-2.9296672344207764,0.1690951299880769,0.005617856979370117,0.11265087127685547,-2.514321827898656,-3.713340792282607,0.1891671868558279,0.5045736630283715,-1.0,0.10910262323834828,-0.2423432049059188,-2.4490352974607568,-2.5854125678050592,-3.6519915438485206,-3.787386496896415,0.0,0.0
16.71843957901001,0.15699559450149536,-1.642725944519043,-2.752504587173462,0.14228392708637208,0.003191709518432617,0.11265087127685547,-2.5117253380554527,-3.7084986175573986,0.2091671868558279,0.5061439938243522,-0.6261340436198878,-0.04092759787521754,-0.27548993533069804,-2.4246586649434914,-2.6061691638195668,-3.6259250839144817,-3.8052284569340613,0.0,0.0
16.727214336395264,0.1569807082414627,-1.5832315683364868,-2.7059948444366455,0.13591261965110418,0.0032351016998291016,0.11265087127685547,-2.5085285287536703,-3.7031466476492256,0.22916718685582793,0.506617569873707,-0.47685660132746577,-0.1565815096078314,-0.2569256971016056,-2.3940621053529885,-2.632127570978753,-3.594031965234723,-3.827932375365943,0.0,0.0
16.735472440719604,0.1569807082414627,-1.5832315683364868,-2.7059948444366455,0.13591261965110418,0.003556489944458008,0.11265087127685547,-2.5046711937604766,-3.6972628869634216,0.24916718685582795,0.5066853137350109,-0.47656511678803204,-0.23186467646068265,-0.2316029521372996,-2.355510794266997,-2.664900705454787,-3.55476063001451,-3.85701469455211,0.0,0.0
16.743940114974976,0.1569807082414627,-1.5832315683364868,-2.7059948444366455,0.13591261965110418,0.0033600330352783203,0.11265087127685547,-2.500093764605767,-3.690822376467065,0.26916718685582797,0.506749194917786,-0.47767039815527124,-0.2817217404966808,-0.214567157588833,-2.306564968095507,-2.706807364425847,-3.5059077504172684,-3.894637712850356,0.0,0.0
16.75473642349243,0.1552157998085022,-1.5401912927627563,-2.670896291732788,0.13111116136141412,0.003394603729248047,0.11265087127685547,-2.4947374232196577,-3.6837971953824855,0.289167186855828,0.5071427270584891,-0.3656852363726777,-0.33094025172969477,-0.2049908253355774,-2.2437631511615708,-2.7611892208315423,-3.444330540682841,-3.9438972615714056,0.0,0.0
16.762833833694458,0.1552157998085022,-1.5401912927627563,-2.670896291732788,0.13111116136141412,0.0033025741577148438,0.11265087127685547,-2.4885442154220954,-3.6761564677270266,0.309167186855828,0.5072057385055377,-0.37005621727899507,-0.36319266778672904,-0.19598940927083758,-2.162190529066965,-2.832842674253131,-3.365545475087484,-4.0092239856016905,0.0,0.0
16.77130913734436,0.1552157998085022,-1.5401912927627563,-2.670896291732788,0.13111116136141412,0.0036847591400146484,0.11265087127685547,-2.4814549166453688,-3.667868320263001,0.32679213568094095,0.5072642012202864,-0.3758702784523561,-0.3844568116692649,-0.18999284625099952,-2.054946002281523,-2.9285520235104303,-3.263205592980218,-4.096906046587265,0.0,0.0
16.78101372718811,0.15158511698246002,-1.4832230806350708,-2.6238605976104736,0.1252628780277799,0.003500223159790039,0.11265087127685547,-2.5195623111178476,-3.7265219809421195,0.11916718685582785,0.5080756408405418,-0.20675629744117163,-0.42060509604109436,-0.1856727037524138,-2.50497516845579,-2.536230647883864,-3.715859186255314,-3.747266559035597,0.0,0.0
16.901819229125977,0.15158511698246002,-1.4832230806350708,-2.6238605976104736,0.1252628780277799,0.0037407875061035156,0.11068201065063477,-2.5185862084830397,-3.723333530982037,0.13916718685582785,0.4947620826386482,-1.0,-0.44388311505864436,-0.18097240325868172,-2.4958074872552456,-2.5446204275896394,-3.7047728148941386,-3.7537534571390374,0.0,0.0
16.912985801696777,0.1262047290802002,-1.2619919776916504,-2.4352588653564453,0.10692497579054058,0.0033054351806640625,0.11068201065063477,-2.5172239326329087,-3.719689020372468,0.15916718685582787,0.49663516062598245,-0.6293637195124182,-0.450926464042411,-0.14406284807823533,-2.483805207537275,-2.555319414698419,-3.6907359651986056,-3.762307996685633,0.0,0.0
16.92117977142334,0.1262047290802002,-1.2619919776916504,-2.4352588653564453,0.10692497579054058,0.0033092498779296875,0.11068201065063477,-2.5154139143815297,-3.7155767704242715,0.1791671868558279,0.49664799021480677,-0.6687924291295939,-0.45999282123993973,-0.13727541022597756,-2.4684439864129444,-2.568728430553134,-3.673332219503308,-3.773334842460765,0.0,0.0
16.93071222305298,0.11800554394721985,-1.207944631576538,-2.387420654296875,0.10325488741530332,0.003590106964111328,0.11068201065063477,-2.5130948381658715,-3.710982170300333,0.1991671868558279,0.4973659964273738,-0.6277871315179796,-0.45366397287801496,-0.12029485063756246,-2.4490352974607568,-2.5854125678050592,-3.6519915438485206,-3.787386496896415,0.0,0.0
16.939796209335327,0.11800554394721985,-1.207944631576538,-2.387420654296875,0.10325488741530332,0.003518819808959961,0.11068201065063477,-2.5102057498608925,-3.7058876622833097,0.21916718685582792,0.49737354235770315,-0.6707498593217234,-0.45132708820479184,-0.11686955727538889,-2.4246586649434914,-2.6061691638195668,-3.6259250839144817,-3.8052284569340613,0.0,0.0
16.951043128967285,0.11363065242767334,-1.18095862865448,-2.363105297088623,0.10145886840293133,0.003332853317260742,0.11068201065063477,-2.506686166260678,-3.700272731633812,0.23916718685582794,0.49793858592585105,-0.6620634765725082,-0.4436710074119074,-0.10819346707065752,-2.3940621053529885,-2.632127570978753,-3.594031965234723,-3.827932375365943,0.0,0.0
16.95976758003235,0.11363065242767334,-1.18095862865448,-2.363105297088623,0.10145886840293133,0.0035855770111083984,0.11068201065063477,-2.5024761859965574,-3.6941139011271233,0.25916718685582796,0.4979411241112257,-0.7085922248547036,-0.439918728203394,-0.10760526627767872,-2.355510794266997,-2.664900705454787,-3.55476063001451,-3.85701469455211,0.0,0.0
16.969808101654053,0.10438501089811325,-1.1286331415176392,-2.314418315887451,0.09791870669953262,0.0034089088439941406,0.11068201065063477,-2.497516601660049,-3.6873847303445872,0.279167186855828,0.4989269188651053,-0.6344895847642078,-0.4197911781432768,-0.0882733186275785,-2.306564968095507,-2.706807364425847,-3.5059077504172684,-3.894637712850356,0.0,0.0
16.979694843292236,0.10438501089811325,-1.1286331415176392,-2.314418315887451,0.09791870669953262,0.0034334659576416016,0.11068201065063477,-2.4917490128959776,-3.680055819783742,0.299167186855828,0.4989219716117641,-0.6846843599402521,-0.41020327845161253,-0.09001221620212999,-2.2437631511615708,-2.7611892208315423,-3.444330540682841,-3.9438972615714056,0.0,0.0
16.989681482315063,0.10438501089811325,-1.1286331415176392,-2.314418315887451,0.09791870669953262,0.0035178661346435547,0.11068201065063477,-2.4851159402292575,-3.672094819839202,0.3186353367366626,0.4989145505991318,-0.7366950162195665,-0.40446522311518174,-0.09269738389290025,-2.162190529066965,-2.832842674253131,-3.365545475087484,-4.0092239856016905,0.0,0.0
17.114148139953613,0.06222064420580864,-0.9262341260910034,-2.0972976684570312,0.09389255488352623,0.003394603729248047,0.11290407180786133,-2.477548773859895,-3.6634776610244066,0.3337001660785639,0.5000794806770612,-0.13913276304351874,-0.25754486790388925,0.08182423550730585,-2.054946002281523,-2.9285520235104303,-3.263205592980218,-4.096906046587265,0.0,0.0
17.123624086380005,0.06222064420580864,-0.9262341260910034,-2.0972976684570312,0.09389255488352623,0.003156423568725586,0.11290407180786133,-2.519118676381353,-3.7249841476668233,0.12916718685582784,0.5000809688427496,-0.19899594869579051,-0.20592840454816555,0.02160613693744513,-2.50497516845579,-2.536230647883864,-3.715859186255314,-3.747266559035597,0.0,0.0
17.132235765457153,0.05278060585260391,-0.8834976553916931,-2.043454885482788,0.0972829797424608,0.003110170364379883,0.11290407180786133,-2.5179571949772233,-3.721568944657892,0.14916718685582786,0.5017141764519937,-0.05425446760523145,-0.11711507977390204,0.01883367715916114,-2.4958074872552456,-2.5446204275896394,-3.7047728148941386,-3.7537534571390374,0.0,0.0
17.14001965522766,0.05278060585260391,-0.8834976553916931,-2.043454885482788,0.0972829797424608,0.0032062530517578125,0.11290407180786133,-2.51637873072912,-3.7176922070759733,0.16916718685582788,0.501703479371446,-0.11791285219826575,-0.06579547126336169,-0.018275391179204205,-2.483805207537275,-2.555319414698419,-3.6907359651986056,-3.762307996685633,0.0,0.0
17.15047550201416,0.05278060585260391,-0.8834976553916931,-2.043454885482788,0.0972829797424608,0.0033872127532958984,0.11290407180786133,-2.514321827898656,-3.713340792282607,0.1891671868558279,0.5016901913534051,-0.18345633366393976,-0.03269822250932454,-0.047125586739076124,-2.4684439864129444,-2.568728430553134,-3.673332219503308,-3.773334842460765,0.0,0.0
17.159765481948853,0.0482088103890419,-0.8629230856895447,-2.0162551403045654,0.09917416053717623,0.0033156871795654297,0.11290407180786133,-2.5117253380554527,-3.7084986175573986,0.2091671868558279,0.5026459994350068,-0.1334059406737791,0.00915144394205116,-0.055838571857904286,-2.4490352974607568,-2.5854125678050592,-3.6519915438485206,-3.787386496896415,0.0,0.0
17.170044660568237,0.03910159319639206,-0.8233298659324646,-1.960876226425171,0.10268817538617966,0.0037724971771240234,0.11290407180786133,-2.5085285287536703,-3.7031466476492256,0.22916718685582793,0.5042647469221189,-0.021985163800033236,0.07568194412739039,-0.052391511576863024,-2.4246586649434914,-2.6061691638195668,-3.6259250839144817,-3.8052284569340613,0.0,0.0
17.179774284362793,0.03910159319639206,-0.8233298659324646,-1.960876226425171,0.10268817538617966,0.0034401416778564453,0.11290407180786133,-2.5046711937604766,-3.6972628869634216,0.24916718685582795,0.5042315444788072,-0.09337806441510588,0.11331473450064114,-0.08002416241424652,-2.3940621053529885,-2.632127570978753,-3.594031965234723,-3.827932375365943,0.0,0.0
17.3150372505188,0.03910159319639206,-0.8233298659324646,-1.960876226425171,0.10268817538617966,0.0031905174255371094,0.12476873397827148,-2.500093764605767,-3.690822376467065,0.26916718685582797,0.4998626742800443,-0.6181993750311743,0.137625015115189,-0.10156682858942304,-2.355510794266997,-2.664900705454787,-3.55476063001451,-3.85701469455211,0.0,0.0
17.32475709915161,-0.0003276454808656126,-0.6612428426742554,-1.6799814701080322,0.11332569316709537,0.0029065608978271484,0.12476873397827148,-2.4947374232196577,-3.6837971953824855,0.289167186855828,0.5089914411649613,-0.14518795155466885,0.25210817847062705,-0.024766642474194717,-2.306564968095507,-2.706807364425847,-3.5059077504172684,-3.894637712850356,0.0,0.0
17.331834077835083,-0.0003276454808656126,-0.6612428426742554,-1.6799814701080322,0.11332569316709537,0.002873659133911133,0.12476873397827148,-2.4885442154220954,-3.6761564677270266,0.309167186855828,0.5090391399109283,-0.13479158397268154,0.2916196358957661,-0.11320916280055346,-2.2437631511615708,-2.7611892208315423,-3.444330540682841,-3.9438972615714056,0.0,0.0
17.340060472488403,-0.0003276454808656126,-0.6612428426742554,-1.6799814701080322,0.11332569316709537,0.003261089324951172,0.12476873397827148,-2.4814549166453688,-3.667868320263001,0.32679213568094095,0.509086616894244,-0.12458732131303085,0.3262263287851671,-0.1557299866740031,-2.162190529066965,-2.832842674253131,-3.365545475087484,-4.0092239856016905,0.0,0.0
17.350140810012817,-0.006985258311033249,-0.6334996223449707,-1.6166115999221802,0.11552133670006914,0.003107786178588867,0.12476873397827148,-2.4733861183057226,-3.6589241073372842,0.33942041773016485,0.5108756351742396,0.025194681728006985,0.3620168419262793,-0.1845898154159869,-2.054946002281523,-2.9285520235104303,-3.263205592980218,-4.096906046587265,0.0,0.0
17.35976815223694,-0.006985258311033249,-0.6334996223449707,-1.6166115999221802,0.11552133670006914,0.003184080123901367,0.12476873397827148,-2.5185862084830397,-3.723333530982037,0.13916718685582785,0.5109255006318292,0.034751794838972394,0.3858173231478903,-0.2148061746164248,-2.50497516845579,-2.536230647883864,-3.715859186255314,-3.747266559035597,0.0,0.0
17.369916439056396,-0.012857910245656967,-0.6085581183433533,-1.5516486167907715,0.11791452456481694,0.005664825439453125,0.12476873397827148,-2.5172239326329087,-3.719689020372468,0.15916718685582787,0.5124567287322883,0.24752070473009252,0.41663307683698797,-0.2378938146568832,-2.4958074872552456,-2.5446204275896394,-3.7047728148941386,-3.7537534571390374,0.0,0.0
17.383697271347046,-0.012857910245656967,-0.6085581183433533,-1.5516486167907715,0.11791452456481694,0.0033800601959228516,0.12476873397827148,-2.5154139143815297,-3.7155767704242715,0.1791671868558279,0.5125039816451893,0.25647084193644454,0.4374151812084776,-0.2657520217479153,-2.483805207537275,-2.555319414698419,-3.6907359651986056,-3.762307996685633,0.0,0.0
17.493062496185303,-0.012857910245656967,-0.6085581183433533,-1.5516486167907715,0.11791452456481694,0.0038535594940185547,0.09911632537841797,-2.5130948381658715,-3.710982170300333,0.1991671868558279,0.5159374227352995,0.24329531752217837,0.45237026157126886,-0.284399901531263,-2.4684439864129444,-2.568728430553134,-3.673332219503308,-3.773334842460765,0.0,0.0
nan,nan,nan,nan,nan,nan,nan,-2.5102057498608925,-3.7058876622833097,0.21916718685582792,nan,nan,nan,nan,-2.4490352974607568,-2.5854125678050592,-3.6519915438485206,-3.787386496896415,nan,nan
nan,nan,nan,nan,nan,nan,nan,-2.506686166260678,-3.700272731633812,0.23916718685582794,nan,nan,nan,nan,-2.4246586649434914,-2.6061691638195668,-3.6259250839144817,-3.8052284569340613,nan,nan
nan,nan,nan,nan,nan,nan,nan,-2.5024761859965574,-3.6941139011271233,0.25916718685582796,nan,nan,nan,nan,-2.3940621053529885,-2.632127570978753,-3.594031965234723,-3.827932375365943,nan,nan
nan,nan,nan,nan,nan,nan,nan,-2.497516601660049,-3.6873847303445872,0.279167186855828,nan,nan,nan,nan,-2.355510794266997,-2.664900705454787,-3.55476063001451,-3.85701469455211,nan,nan
nan,nan,nan,nan,nan,nan,nan,-2.4917490128959776,-3.680055819783742,0.299167186855828,nan,nan,nan,nan,-2.306564968095507,-2.706807364425847,-3.5059077504172684,-3.894637712850356,nan,nan
nan,nan,nan,nan,nan,nan,nan,-2.4851159402292575,-3.672094819839202,0.3186353367366626,nan,nan,nan,nan,-2.2437631511615708,-2.7611892208315423,-3.444330540682841,-3.9438972615714056,nan,nan
nan,nan,nan,nan,nan,nan,nan,-2.477548773859895,-3.6634776610244066,0.3337001660785639,nan,nan,nan,nan,-2.162190529066965,-2.832842674253131,-3.365545475087484,-4.0092239856016905,nan,nan
nan,nan,nan,nan,nan,nan,nan,-2.4689564975632132,-3.654209517419484,0.34401226187620626,nan,nan,nan,nan,-2.054946002281523,-2.9285520235104303,-3.263205592980218,-4.096906046587265,nan,nan
nan,nan,nan,nan,nan,nan,nan,-2.5179571949772233,-3.721568944657892,0.14916718685582786,nan,nan,nan,nan,-2.50497516845579,-2.536230647883864,-3.715859186255314,-3.747266559035597,nan,nan
nan,nan,nan,nan,nan,nan,nan,-2.51637873072912,-3.7176922070759733,0.16916718685582788,nan,nan,nan,nan,-2.4958074872552456,-2.5446204275896394,-3.7047728148941386,-3.7537534571390374,nan,nan
nan,nan,nan,nan,nan,nan,nan,-2.514321827898656,-3.713340792282607,0.1891671868558279,nan,nan,nan,nan,-2.483805207537275,-2.555319414698419,-3.6907359651986056,-3.762307996685633,nan,nan
nan,nan,nan,nan,nan,nan,nan,-2.5117253380554527,-3.7084986175573986,0.2091671868558279,nan,nan,nan,nan,-2.4684439864129444,-2.568728430553134,-3.673332219503308,-3.773334842460765,nan,nan
nan,nan,nan,nan,nan,nan,nan,-2.5085285287536703,-3.7031466476492256,0.22916718685582793,nan,nan,nan,nan,-2.4490352974607568,-2.5854125678050592,-3.6519915438485206,-3.787386496896415,nan,nan
nan,nan,nan,nan,nan,nan,nan,-2.5046711937604766,-3.6972628869634216,0.24916718685582795,nan,nan,nan,nan,-2.4246586649434914,-2.6061691638195668,-3.6259250839144817,-3.8052284569340613,nan,nan
nan,nan,nan,nan,nan,nan,nan,-2.500093764605767,-3.690822376467065,0.26916718685582797,nan,nan,nan,nan,-2.3940621053529885,-2.632127570978753,-3.594031965234723,-3.827932375365943,nan,nan
nan,nan,nan,nan,nan,nan,nan,-2.4947374232196577,-3.6837971953824855,0.289167186855828,nan,nan,nan,nan,-2.355510794266997,-2.664900705454787,-3.55476063001451,-3.85701469455211,nan,nan
nan,nan,nan,nan,nan,nan,nan,-2.4885442154220954,-3.6761564677270266,0.309167186855828,nan,nan,nan,nan,-2.306564968095507,-2.706807364425847,-3.5059077504172684,-3.894637712850356,nan,nan
nan,nan,nan,nan,nan,nan,nan,-2.4814549166453688,-3.667868320263001,0.32679213568094095,nan,nan,nan,nan,-2.2437631511615708,-2.7611892208315423,-3.444330540682841,-3.9438972615714056,nan,nan
nan,nan,nan,nan,nan,nan,nan,-2.4733861183057226,-3.6589241073372842,0.33942041773016485,nan,nan,nan,nan,-2.162190529066965,-2.832842674253131,-3.365545475087484,-4.0092239856016905,nan,nan
nan,nan,nan,nan,nan,nan,nan,-2.4642503677752345,-3.6493363503576535,0.3475334331454683,nan,nan,nan,nan,-2.054946002281523,-2.9285520235104303,-3.263205592980218,-4.096906046587265,nan,nan
nan,nan,nan,nan,nan,nan,nan,-2.5172239326329087,-3.719689020372468,0.15916718685582787,nan,nan,nan,nan,-2.50497516845579,-2.536230647883864,-3.715859186255314,-3.747266559035597,nan,nan
nan,nan,nan,nan,nan,nan,nan,-2.5154139143815297,-3.7155767704242715,0.1791671868558279,nan,nan,nan,nan,-2.4958074872552456,-2.5446204275896394,-3.7047728148941386,-3.7537534571390374,nan,nan
nan,nan,nan,nan,nan,nan,nan,-2.5130948381658715,-3.710982170300333,0.1991671868558279,nan,nan,nan,nan,-2.483805207537275,-2.555319414698419,-3.6907359651986056,-3.762307996685633,nan,nan
nan,nan,nan,nan,nan,nan,nan,-2.5102057498608925,-3.7058876622833097,0.21916718685582792,nan,nan,nan,nan,-2.4684439864129444,-2.568728430553134,-3.673332219503308,-3.773334842460765,nan,nan
nan,nan,nan,nan,nan,nan,nan,-2.506686166260678,-3.700272731633812,0.23916718685582794,nan,nan,nan,nan,-2.4490352974607568,-2.5854125678050592,-3.6519915438485206,-3.787386496896415,nan,nan
nan,nan,nan,nan,nan,nan,nan,-2.5024761859965574,-3.6941139011271233,0.25916718685582796,nan,nan,nan,nan,-2.4246586649434914,-2.6061691638195668,-3.6259250839144817,-3.8052284569340613,nan,nan
nan,nan,nan,nan,nan,nan,nan,-2.497516601660049,-3.6873847303445872,0.279167186855828,nan,nan,nan,nan,-2.3940621053529885,-2.632127570978753,-3.594031965234723,-3.827932375365943,nan,nan
nan,nan,nan,nan,nan,nan,nan,-2.4917490128959776,-3.680055819783742,0.299167186855828,nan,nan,nan,nan,-2.355510794266997,-2.664900705454787,-3.55476063001451,-3.85701469455211,nan,nan
nan,nan,nan,nan,nan,nan,nan,-2.4851159402292575,-3.672094819839202,0.3186353367366626,nan,nan,nan,nan,-2.306564968095507,-2.706807364425847,-3.5059077504172684,-3.894637712850356,nan,nan
nan,nan,nan,nan,nan,nan,nan,-2.477548773859895,-3.6634776610244066,0.3337001660785639,nan,nan,nan,nan,-2.2437631511615708,-2.7611892208315423,-3.444330540682841,-3.9438972615714056,nan,nan
nan,nan,nan,nan,nan,nan,nan,-2.4689564975632132,-3.654209517419484,0.34401226187620626,nan,nan,nan,nan,-2.162190529066965,-2.832842674253131,-3.365545475087484,-4.0092239856016905,nan,nan
nan,nan,nan,nan,nan,nan,nan,-2.459259064390694,-3.6443076636079352,0.3500400188319596,nan,nan,nan,nan,-2.054946002281523,-2.9285520235104303,-3.263205592980218,-4.096906046587265,nan,nan
nan,nan,nan,nan,nan,nan,nan,-2.51637873072912,-3.7176922070759733,0.16916718685582788,nan,nan,nan,nan,-2.50497516845579,-2.536230647883864,-3.715859186255314,-3.747266559035597,nan,nan
nan,nan,nan,nan,nan,nan,nan,-2.514321827898656,-3.713340792282607,0.1891671868558279,nan,nan,nan,nan,-2.4958074872552456,-2.5446204275896394,-3.7047728148941386,-3.7537534571390374,nan,nan
nan,nan,nan,nan,nan,nan,nan,-2.5117253380554527,-3.7084986175573986,0.2091671868558279,nan,nan,nan,nan,-2.483805207537275,-2.555319414698419,-3.6907359651986056,-3.762307996685633,nan,nan
nan,nan,nan,nan,nan,nan,nan,-2.5085285287536703,-3.7031466476492256,0.22916718685582793,nan,nan,nan,nan,-2.4684439864129444,-2.568728430553134,-3.673332219503308,-3.773334842460765,nan,nan
nan,nan,nan,nan,nan,nan,nan,-2.5046711937604766,-3.6972628869634216,0.24916718685582795,nan,nan,nan,nan,-2.4490352974607568,-2.5854125678050592,-3.6519915438485206,-3.787386496896415,nan,nan
nan,nan,nan,nan,nan,nan,nan,-2.500093764605767,-3.690822376467065,0.26916718685582797,nan,nan,nan,nan,-2.4246586649434914,-2.6061691638195668,-3.6259250839144817,-3.8052284569340613,nan,nan
nan,nan,nan,nan,nan,nan,nan,-2.4947374232196577,-3.6837971953824855,0.289167186855828,nan,nan,nan,nan,-2.3940621053529885,-2.632127570978753,-3.594031965234723,-3.827932375365943,nan,nan
nan,nan,nan,nan,nan,nan,nan,-2.4885442154220954,-3.6761564677270266,0.309167186855828,nan,nan,nan,nan,-2.355510794266997,-2.664900705454787,-3.55476063001451,-3.85701469455211,nan,nan
nan,nan,nan,nan,nan,nan,nan,-2.4814549166453688,-3.667868320263001,0.32679213568094095,nan,nan,nan,nan,-2.306564968095507,-2.706807364425847,-3.5059077504172684,-3.894637712850356,nan,nan
nan,nan,nan,nan,nan,nan,nan,-2.4733861183057226,-3.6589241073372842,0.33942041773016485,nan,nan,nan,nan,-2.2437631511615708,-2.7611892208315423,-3.444330540682841,-3.9438972615714056,nan,nan
nan,nan,nan,nan,nan,nan,nan,-2.4642503677752345,-3.6493363503576535,0.3475334331454683,nan,nan,nan,nan,-2.162190529066965,-2.832842674253131,-3.365545475087484,-4.0092239856016905,nan,nan
nan,nan,nan,nan,nan,nan,nan,-2.453974775958965,-3.639127101574902,0.35158645486570766,nan,nan,nan,nan,-2.054946002281523,-2.9285520235104303,-3.263205592980218,-4.096906046587265,nan,nan
nan,nan,nan,nan,nan,nan,nan,-2.5154139143815297,-3.7155767704242715,0.1791671868558279,nan,nan,nan,nan,-2.50497516845579,-2.536230647883864,-3.715859186255314,-3.747266559035597,nan,nan
nan,nan,nan,nan,nan,nan,nan,-2.5130948381658715,-3.710982170300333,0.1991671868558279,nan,nan,nan,nan,-2.4958074872552456,-2.5446204275896394,-3.7047728148941386,-3.7537534571390374,nan,nan
nan,nan,nan,nan,nan,nan,nan,-2.5102057498608925,-3.7058876622833097,0.21916718685582792,nan,nan,nan,nan,-2.483805207537275,-2.555319414698419,-3.6907359651986056,-3.762307996685633,nan,nan
nan,nan,nan,nan,nan,nan,nan,-2.506686166260678,-3.700272731633812,0.23916718685582794,nan,nan,nan,nan,-2.4684439864129444,-2.568728430553134,-3.673332219503308,-3.773334842460765,nan,nan
nan,nan,nan,nan,nan,nan,nan,-2.5024761859965574,-3.6941139011271233,0.25916718685582796,nan,nan,nan,nan,-2.4490352974607568,-2.5854125678050592,-3.6519915438485206,-3.787386496896415,nan,nan
nan,nan,nan,nan,nan,nan,nan,-2.497516601660049,-3.6873847303445872,0.279167186855828,nan,nan,nan,nan,-2.4246586649434914,-2.6061691638195668,-3.6259250839144817,-3.8052284569340613,nan,nan
nan,nan,nan,nan,nan,nan,nan,-2.4917490128959776,-3.680055819783742,0.299167186855828,nan,nan,nan,nan,-2.3940621053529885,-2.632127570978753,-3.594031965234723,-3.827932375365943,nan,nan
nan,nan,nan,nan,nan,nan,nan,-2.4851159402292575,-3.672094819839202,0.3186353367366626,nan,nan,nan,nan,-2.355510794266997,-2.664900705454787,-3.55476063001451,-3.85701469455211,nan,nan
nan,nan,nan,nan,nan,nan,nan,-2.477548773859895,-3.6634776610244066,0.3337001660785639,nan,nan,nan,nan,-2.306564968095507,-2.706807364425847,-3.5059077504172684,-3.894637712850356,nan,nan
nan,nan,nan,nan,nan,nan,nan,-2.4689564975632132,-3.654209517419484,0.34401226187620626,nan,nan,nan,nan,-2.2437631511615708,-2.7611892208315423,-3.444330540682841,-3.9438972615714056,nan,nan
nan,nan,nan,nan,nan,nan,nan,-2.459259064390694,-3.6443076636079352,0.3500400188319596,nan,nan,nan,nan,-2.162190529066965,-2.832842674253131,-3.365545475087484,-4.0092239856016905,nan,nan
nan,nan,nan,nan,nan,nan,nan,-2.4483905206334073,-3.633798876575346,0.35222552782261246,nan,nan,nan,nan,-2.054946002281523,-2.9285520235104303,-3.263205592980218,-4.096906046587265,nan,nan
nan,nan,nan,nan,nan,nan,nan,-2.514321827898656,-3.713340792282607,0.1891671868558279,nan,nan,nan,nan,-2.50497516845579,-2.536230647883864,-3.715859186255314,-3.747266559035597,nan,nan
nan,nan,nan,nan,nan,nan,nan,-2.5117253380554527,-3.7084986175573986,0.2091671868558279,nan,nan,nan,nan,-2.4958074872552456,-2.5446204275896394,-3.7047728148941386,-3.7537534571390374,nan,nan
nan,nan,nan,nan,nan,nan,nan,-2.5085285287536703,-3.7031466476492256,0.22916718685582793,nan,nan,nan,nan,-2.483805207537275,-2.555319414698419,-3.6907359651986056,-3.762307996685633,nan,nan
nan,nan,nan,nan,nan,nan,nan,-2.5046711937604766,-3.6972628869634216,0.24916718685582795,nan,nan,nan,nan,-2.4684439864129444,-2.568728430553134,-3.673332219503308,-3.773334842460765,nan,nan
nan,nan,nan,nan,nan,nan,nan,-2.500093764605767,-3.690822376467065,0.26916718685582797,nan,nan,nan,nan,-2.4490352974607568,-2.5854125678050592,-3.6519915438485206,-3.787386496896415,nan,nan
nan,nan,nan,nan,nan,nan,nan,-2.4947374232196577,-3.6837971953824855,0.289167186855828,nan,nan,nan,nan,-2.4246586649434914,-2.6061691638195668,-3.6259250839144817,-3.8052284569340613,nan,nan
nan,nan,nan,nan,nan,nan,nan,-2.4885442154220954,-3.6761564677270266,0.309167186855828,nan,nan,nan,nan,-2.3940621053529885,-2.632127570978753,-3.594031965234723,-3.827932375365943,nan,nan
nan,nan,nan,nan,nan,nan,nan,-2.4814549166453688,-3.667868320263001,0.32679213568094095,nan,nan,nan,nan,-2.355510794266997,-2.664900705454787,-3.55476063001451,-3.85701469455211,nan,nan
nan,nan,nan,nan,nan,nan,nan,-2.4733861183057226,-3.6589241073372842,0.33942041773016485,nan,nan,nan,nan,-2.306564968095507,-2.706807364425847,-3.5059077504172684,-3.894637712850356,nan,nan
nan,nan,nan,nan,nan,nan,nan,-2.4642503677752345,-3.6493363503576535,0.3475334331454683,nan,nan,nan,nan,-2.2437631511615708,-2.7611892208315423,-3.444330540682841,-3.9438972615714056,nan,nan
nan,nan,nan,nan,nan,nan,nan,-2.453974775958965,-3.639127101574902,0.35158645486570766,nan,nan,nan,nan,-2.162190529066965,-2.832842674253131,-3.365545475087484,-4.0092239856016905,nan,nan
nan,nan,nan,nan,nan,nan,nan,-2.4425001250034106,-3.6283277433677825,0.35200838231688725,nan,nan,nan,nan,-2.054946002281523,-2.9285520235104303,-3.263205592980218,-4.096906046587265,nan,nan
nan,nan,nan,nan,nan,nan,nan,-2.5130948381658715,-3.710982170300333,0.1991671868558279,nan,nan,nan,nan,-2.50497516845579,-2.536230647883864,-3.715859186255314,-3.747266559035597,nan,nan
nan,nan,nan,nan,nan,nan,nan,-2.5102057498608925,-3.7058876622833097,0.21916718685582792,nan,nan,nan,nan,-2.4958074872552456,-2.5446204275896394,-3.7047728148941386,-3.7537534571390374,nan,nan
nan,nan,nan,nan,nan,nan,nan,-2.506686166260678,-3.700272731633812,0.23916718685582794,nan,nan,nan,nan,-2.483805207537275,-2.555319414698419,-3.6907359651986056,-3.762307996685633,nan,nan
nan,nan,nan,nan,nan,nan,nan,-2.5024761859965574,-3.6941139011271233,0.25916718685582796,nan,nan,nan,nan,-2.4684439864129444,-2.568728430553134,-3.673332219503308,-3.773334842460765,nan,nan
nan,nan,nan,nan,nan,nan,nan,-2.497516601660049,-3.6873847303445872,0.279167186855828,nan,nan,nan,nan,-2.4490352974607568,-2.5854125678050592,-3.6519915438485206,-3.787386496896415,nan,nan
nan,nan,nan,nan,nan,nan,nan,-2.4917490128959776,-3.680055819783742,0.299167186855828,nan,nan,nan,nan,-2.4246586649434914,-2.6061691638195668,-3.6259250839144817,-3.8052284569340613,nan,nan
nan,nan,nan,nan,nan,nan,nan,-2.4851159402292575,-3.672094819839202,0.3186353367366626,nan,nan,nan,nan,-2.3940621053529885,-2.632127570978753,-3.594031965234723,-3.827932375365943,nan,nan
nan,nan,nan,nan,nan,nan,nan,-2.477548773859895,-3.6634776610244066,0.3337001660785639,nan,nan,nan,nan,-2.355510794266997,-2.664900705454787,-3.55476063001451,-3.85701469455211,nan,nan
nan,nan,nan,nan,nan,nan,nan,-2.4689564975632132,-3.654209517419484,0.34401226187620626,nan,nan,nan,nan,-2.306564968095507,-2.706807364425847,-3.5059077504172684,-3.894637712850356,nan,nan
nan,nan,nan,nan,nan,nan,nan,-2.459259064390694,-3.6443076636079352,0.3500400188319596,nan,nan,nan,nan,-2.2437631511615708,-2.7611892208315423,-3.444330540682841,-3.9438972615714056,nan,nan
nan,nan,nan,nan,nan,nan,nan,-2.4483905206334073,-3.633798876575346,0.35222552782261246,nan,nan,nan,nan,-2.162190529066965,-2.832842674253131,-3.365545475087484,-4.0092239856016905,nan,nan
nan,nan,nan,nan,nan,nan,nan,-2.4362982048562305,-3.6227189683129963,0.3509845331325206,nan,nan,nan,nan,-2.054946002281523,-2.9285520235104303,-3.263205592980218,-4.096906046587265,nan,nan
nan,nan,nan,nan,nan,nan,nan,-2.5117253380554527,-3.7084986175573986,0.2091671868558279,nan,nan,nan,nan,-2.50497516845579,-2.536230647883864,-3.715859186255314,-3.747266559035597,nan,nan
nan,nan,nan,nan,nan,nan,nan,-2.5085285287536703,-3.7031466476492256,0.22916718685582793,nan,nan,nan,nan,-2.4958074872552456,-2.5446204275896394,-3.7047728148941386,-3.7537534571390374,nan,nan
nan,nan,nan,nan,nan,nan,nan,-2.5046711937604766,-3.6972628869634216,0.24916718685582795,nan,nan,nan,nan,-2.483805207537275,-2.555319414698419,-3.6907359651986056,-3.762307996685633,nan,nan
nan,nan,nan,nan,nan,nan,nan,-2.500093764605767,-3.690822376467065,0.26916718685582797,nan,nan,nan,nan,-2.4684439864129444,-2.568728430553134,-3.673332219503308,-3.773334842460765,nan,nan
nan,nan,nan,nan,nan,nan,nan,-2.4947374232196577,-3.6837971953824855,0.289167186855828,nan,nan,nan,nan,-2.4490352974607568,-2.5854125678050592,-3.6519915438485206,-3.787386496896415,nan,nan
nan,nan,nan,nan,nan,nan,nan,-2.4885442154220954,-3.6761564677270266,0.309167186855828,nan,nan,nan,nan,-2.4246586649434914,-2.6061691638195668,-3.6259250839144817,-3.8052284569340613,nan,nan
nan,nan,nan,nan,nan,nan,nan,-2.4814549166453688,-3.667868320263001,0.32679213568094095,nan,nan,nan,nan,-2.3940621053529885,-2.632127570978753,-3.594031965234723,-3.827932375365943,nan,nan
nan,nan,nan,nan,nan,nan,nan,-2.4733861183057226,-3.6589241073372842,0.33942041773016485,nan,nan,nan,nan,-2.355510794266997,-2.664900705454787,-3.55476063001451,-3.85701469455211,nan,nan
nan,nan,nan,nan,nan,nan,nan,-2.4642503677752345,-3.6493363503576535,0.3475334331454683,nan,nan,nan,nan,-2.306564968095507,-2.706807364425847,-3.5059077504172684,-3.894637712850356,nan,nan
nan,nan,nan,nan,nan,nan,nan,-2.453974775958965,-3.639127101574902,0.35158645486570766,nan,nan,nan,nan,-2.2437631511615708,-2.7611892208315423,-3.444330540682841,-3.9438972615714056,nan,nan
nan,nan,nan,nan,nan,nan,nan,-2.4425001250034106,-3.6283277433677825,0.35200838231688725,nan,nan,nan,nan,-2.162190529066965,-2.832842674253131,-3.365545475087484,-4.0092239856016905,nan,nan
nan,nan,nan,nan,nan,nan,nan,-2.4297801474681116,-3.616978294125539,0.34920188147422704,nan,nan,nan,nan,-2.054946002281523,-2.9285520235104303,-3.263205592980218,-4.096906046587265,nan,nan
nan,nan,nan,nan,nan,nan,nan,-2.5102057498608925,-3.7058876622833097,0.21916718685582792,nan,nan,nan,nan,-2.50497516845579,-2.536230647883864,-3.715859186255314,-3.747266559035597,nan,nan
nan,nan,nan,nan,nan,nan,nan,-2.506686166260678,-3.700272731633812,0.23916718685582794,nan,nan,nan,nan,-2.4958074872552456,-2.5446204275896394,-3.7047728148941386,-3.7537534571390374,nan,nan
nan,nan,nan,nan,nan,nan,nan,-2.5024761859965574,-3.6941139011271233,0.25916718685582796,nan,nan,nan,nan,-2.483805207537275,-2.555319414698419,-3.6907359651986056,-3.762307996685633,nan,nan
nan,nan,nan,nan,nan,nan,nan,-2.497516601660049,-3.6873847303445872,0.279167186855828,nan,nan,nan,nan,-2.4684439864129444,-2.568728430553134,-3.673332219503308,-3.773334842460765,nan,nan
nan,nan,nan,nan,nan,nan,nan,-2.4917490128959776,-3.680055819783742,0.299167186855828,nan,nan,nan,nan,-2.4490352974607568,-2.5854125678050592,-3.6519915438485206,-3.787386496896415,nan,nan
nan,nan,nan,nan,nan,nan,nan,-2.4851159402292575,-3.672094819839202,0.3186353367366626,nan,nan,nan,nan,-2.4246586649434914,-2.6061691638195668,-3.6259250839144817,-3.8052284569340613,nan,nan
nan,nan,nan,nan,nan,nan,nan,-2.477548773859895,-3.6634776610244066,0.3337001660785639,nan,nan,nan,nan,-2.3940621053529885,-2.632127570978753,-3.594031965234723,-3.827932375365943,nan,nan
nan,nan,nan,nan,nan,nan,nan,-2.4689564975632132,-3.654209517419484,0.34401226187620626,nan,nan,nan,nan,-2.355510794266997,-2.664900705454787,-3.55476063001451,-3.85701469455211,nan,nan
nan,nan,nan,nan,nan,nan,nan,-2.459259064390694,-3.6443076636079352,0.3500400188319596,nan,nan,nan,nan,-2.306564968095507,-2.706807364425847,-3.5059077504172684,-3.894637712850356,nan,nan
nan,nan,nan,nan,nan,nan,nan,-2.4483905206334073,-3.633798876575346,0.35222552782261246,nan,nan,nan,nan,-2.2437631511615708,-2.7611892208315423,-3.444330540682841,-3.9438972615714056,nan,nan
nan,nan,nan,nan,nan,nan,nan,-2.4362982048562305,-3.6227189683129963,0.3509845331325206,nan,nan,nan,nan,-2.162190529066965,-2.832842674253131,-3.365545475087484,-4.0092239856016905,nan,nan
nan,nan,nan,nan,nan,nan,nan,-2.422942095035227,-3.611111901080299,0.3467067347505901,nan,nan,nan,nan,-2.054946002281523,-2.9285520235104303,-3.263205592980218,-4.096906046587265,nan,nan
nan,nan,nan,nan,nan,nan,nan,-2.5559268316418433,-3.6766767749250406,0.24289883924865296,nan,nan,nan,nan,-2.5376816666294584,-2.577950978653746,-3.6604676717304536,-3.7006810174162967,nan,nan
nan,nan,nan,nan,nan,nan,nan,-2.5516288067778197,-3.668525209245598,0.262898839248653,nan,nan,nan,nan,-2.522272982948374,-2.5854608831537402,-3.6411716527162135,-3.704151260579539,nan,nan
nan,nan,nan,nan,nan,nan,nan,-2.5465868104919553,-3.6598762919071874,0.282898839248653,nan,nan,nan,nan,-2.5027125257090828,-2.595696826295705,-3.6180514250961906,-3.7104779141130404,nan,nan
nan,nan,nan,nan,nan,nan,nan,-2.54073920730395,-3.650700925524215,0.302898839248653,nan,nan,nan,nan,-2.478242119016562,-2.609292940856523,-3.59044791956709,-3.720264775663045,nan,nan
nan,nan,nan,nan,nan,nan,nan,-2.5340252143150765,-3.6409670906314218,0.32289883924865304,nan,nan,nan,nan,-2.4478273725760324,-2.6271611718475953,-3.5574478893483024,-3.734363974433994,nan,nan
nan,nan,nan,nan,nan,nan,nan,-2.5263848432521328,-3.630639975754588,0.3414505586990058,nan,nan,nan,nan,-2.410037109306715,-2.6506120641074262,-3.517775222823533,-3.753984664357901,nan,nan
nan,nan,nan,nan,nan,nan,nan,-2.5177301125340557,-3.619706193268698,0.3547215896627213,nan,nan,nan,nan,-2.362877901922838,-2.6815045464518565,-3.4696554689368324,-3.7808408999261953,nan,nan
nan,nan,nan,nan,nan,nan,nan,-2.5079564144854185,-3.6081813973700965,0.3632141539447211,nan,nan,nan,nan,-2.3036209295395027,-2.7223570563150994,-3.410717965536095,-3.8173145970485995,nan,nan
nan,nan,nan,nan,nan,nan,nan,-2.4969762038841807,-3.596091857842717,0.3674049948592242,nan,nan,nan,nan,-2.2285226143684778,-2.7767213007020395,-3.3376961414310897,-3.86671418248785,nan,nan
nan,nan,nan,nan,nan,nan,nan,-2.4847179843606217,-3.583474365786978,0.36774483377616396,nan,nan,nan,nan,-2.1323559849246827,-2.84966543556397,-3.2459737779390583,-3.9337190448501596,nan,nan
nan,nan,nan,nan,nan,nan,nan,-2.471125493882975,-3.570375526608924,0.3646582375003267,nan,nan,nan,nan,-2.007880869525146,-2.948302057207513,-3.129059247867171,-4.0249044469375255,nan,nan
nan,nan,nan,nan,nan,nan,nan,-2.4561570324235302,-3.556850612620804,0.35854382066916674,nan,nan,nan,nan,-1.8453266942077025,-3.0823039325752037,-2.9779871534194844,-4.149337994460272,nan,nan
nan,nan,nan,nan,nan,nan,nan,-2.553866933051057,-3.6726614566478757,0.252898839248653,nan,nan,nan,nan,-2.5376816666294584,-2.577950978653746,-3.6604676717304536,-3.7006810174162967,nan,nan
nan,nan,nan,nan,nan,nan,nan,-2.5492046760023936,-3.664264669604615,0.272898839248653,nan,nan,nan,nan,-2.522272982948374,-2.5854608831537402,-3.6411716527162135,-3.704151260579539,nan,nan
nan,nan,nan,nan,nan,nan,nan,-2.543767529936542,-3.6553563476150672,0.292898839248653,nan,nan,nan,nan,-2.5027125257090828,-2.595696826295705,-3.6180514250961906,-3.7104779141130404,nan,nan
nan,nan,nan,nan,nan,nan,nan,-2.5374942722118132,-3.6459059318911478,0.312898839248653,nan,nan,nan,nan,-2.478242119016562,-2.609292940856523,-3.59044791956709,-3.720264775663045,nan,nan
nan,nan,nan,nan,nan,nan,nan,-2.53032458670707,-3.6358799435907168,0.3328671447263807,nan,nan,nan,nan,-2.4478273725760324,-2.6271611718475953,-3.5574478893483024,-3.734363974433994,nan,nan
nan,nan,nan,nan,nan,nan,nan,-2.5221912241873463,-3.6252481844315136,0.3487141837217963,nan,nan,nan,nan,-2.410037109306715,-2.6506120641074262,-3.517775222823533,-3.753984664357901,nan,nan
nan,nan,nan,nan,nan,nan,nan,-2.5129889929273,-3.614016281292347,0.35953477797525574,nan,nan,nan,nan,-2.362877901922838,-2.6815045464518565,-3.4696554689368324,-3.7808408999261953,nan,nan
nan,nan,nan,nan,nan,nan,nan,-2.5026219575352573,-3.60220516195947,0.36581850646990677,nan,nan,nan,nan,-2.3036209295395027,-2.7223570563150994,-3.410717965536095,-3.8173145970485995,nan,nan
nan,nan,nan,nan,nan,nan,nan,-2.491010710244325,-3.589846411394609,0.36802914206809345,nan,nan,nan,nan,-2.2285226143684778,-2.7767213007020395,-3.3376961414310897,-3.86671418248785,nan,nan
nan,nan,nan,nan,nan,nan,nan,-2.478091463366328,-3.5769818474023487,0.3666043226945457,nan,nan,nan,nan,-2.1323559849246827,-2.84966543556397,-3.2459737779390583,-3.9337190448501596,nan,nan
nan,nan,nan,nan,nan,nan,nan,-2.4638153133914518,-3.563662573939879,0.3619555958147165,nan,nan,nan,nan,-2.007880869525146,-2.948302057207513,-3.129059247867171,-4.0249044469375255,nan,nan
nan,nan,nan,nan,nan,nan,nan,-2.448147617155343,-3.549947668299248,0.35446875993824073,nan,nan,nan,nan,-1.8453266942077025,-3.0823039325752037,-2.9779871534194844,-4.149337994460272,nan,nan
nan,nan,nan,nan,nan,nan,nan,-2.5516288067778197,-3.668525209245598,0.262898839248653,nan,nan,nan,nan,-2.5376816666294584,-2.577950978653746,-3.6604676717304536,-3.7006810174162967,nan,nan
nan,nan,nan,nan,nan,nan,nan,-2.5465868104919553,-3.6598762919071874,0.282898839248653,nan,nan,nan,nan,-2.522272982948374,-2.5854608831537402,-3.6411716527162135,-3.704151260579539,nan,nan
nan,nan,nan,nan,nan,nan,nan,-2.54073920730395,-3.650700925524215,0.302898839248653,nan,nan,nan,nan,-2.5027125257090828,-2.595696826295705,-3.6180514250961906,-3.7104779141130404,nan,nan
nan,nan,nan,nan,nan,nan,nan,-2.5340252143150765,-3.6409670906314218,0.32289883924865304,nan,nan,nan,nan,-2.478242119016562,-2.609292940856523,-3.59044791956709,-3.720264775663045,nan,nan
nan,nan,nan,nan,nan,nan,nan,-2.5263848432521328,-3.630639975754588,0.3414505586990058,nan,nan,nan,nan,-2.4478273725760324,-2.6271611718475953,-3.5574478893483024,-3.734363974433994,nan,nan
nan,nan,nan,nan,nan,nan,nan,-2.5177301125340557,-3.619706193268698,0.3547215896627213,nan,nan,nan,nan,-2.410037109306715,-2.6506120641074262,-3.517775222823533,-3.753984664357901,nan,nan
nan,nan,nan,nan,nan,nan,nan,-2.5079564144854185,-3.6081813973700965,0.3632141539447211,nan,nan,nan,nan,-2.362877901922838,-2.6815045464518565,-3.4696554689368324,-3.7808408999261953,nan,nan
nan,nan,nan,nan,nan,nan,nan,-2.4969762038841807,-3.596091857842717,0.3674049948592242,nan,nan,nan,nan,-2.3036209295395027,-2.7223570563150994,-3.410717965536095,-3.8173145970485995,nan,nan
nan,nan,nan,nan,nan,nan,nan,-2.4847179843606217,-3.583474365786978,0.36774483377616396,nan,nan,nan,nan,-2.2285226143684778,-2.7767213007020395,-3.3376961414310897,-3.86671418248785,nan,nan
nan,nan,nan,nan,nan,nan,nan,-2.471125493882975,-3.570375526608924,0.3646582375003267,nan,nan,nan,nan,-2.1323559849246827,-2.84966543556397,-3.2459737779390583,-3.9337190448501596,nan,nan
nan,nan,nan,nan,nan,nan,nan,-2.4561570324235302,-3.556850612620804,0.35854382066916674,nan,nan,nan,nan,-2.007880869525146,-2.948302057207513,-3.129059247867171,-4.0249044469375255,nan,nan
nan,nan,nan,nan,nan,nan,nan,-2.4397848720233783,-3.5429621167488246,0.34977470825671336,nan,nan,nan,nan,-1.8453266942077025,-3.0823039325752037,-2.9779871534194844,-4.149337994460272,nan,nan
nan,nan,nan,nan,nan,nan,nan,-2.5492046760023936,-3.664264669604615,0.272898839248653,nan,nan,nan,nan,-2.5376816666294584,-2.577950978653746,-3.6604676717304536,-3.7006810174162967,nan,nan
nan,nan,nan,nan,nan,nan,nan,-2.543767529936542,-3.6553563476150672,0.292898839248653,nan,nan,nan,nan,-2.522272982948374,-2.5854608831537402,-3.6411716527162135,-3.704151260579539,nan,nan
nan,nan,nan,nan,nan,nan,nan,-2.5374942722118132,-3.6459059318911478,0.312898839248653,nan,nan,nan,nan,-2.5027125257090828,-2.595696826295705,-3.6180514250961906,-3.7104779141130404,nan,nan
nan,nan,nan,nan,nan,nan,nan,-2.53032458670707,-3.6358799435907168,0.3328671447263807,nan,nan,nan,nan,-2.478242119016562,-2.609292940856523,-3.59044791956709,-3.720264775663045,nan,nan
nan,nan,nan,nan,nan,nan,nan,-2.5221912241873463,-3.6252481844315136,0.3487141837217963,nan,nan,nan,nan,-2.4478273725760324,-2.6271611718475953,-3.5574478893483024,-3.734363974433994,nan,nan
nan,nan,nan,nan,nan,nan,nan,-2.5129889929273,-3.614016281292347,0.35953477797525574,nan,nan,nan,nan,-2.410037109306715,-2.6506120641074262,-3.517775222823533,-3.753984664357901,nan,nan
nan,nan,nan,nan,nan,nan,nan,-2.5026219575352573,-3.60220516195947,0.36581850646990677,nan,nan,nan,nan,-2.362877901922838,-2.6815045464518565,-3.4696554689368324,-3.7808408999261953,nan,nan
nan,nan,nan,nan,nan,nan,nan,-2.491010710244325,-3.589846411394609,0.36802914206809345,nan,nan,nan,nan,-2.3036209295395027,-2.7223570563150994,-3.410717965536095,-3.8173145970485995,nan,nan
