time,x,y,z,yaw,ctrl_comp_time,rollout_comptime,y_ref,z_ref,yaw_ref,throttle,roll_rate,pitch_rate,yaw_rate,save_tube_pyH,save_tube_pyL,save_tube_pzH,save_tube_pzL,wy,wz
15.751133680343628,-0.015674786642193794,4.031440258026123,-12.440763473510742,0.0005025430877326487,0.00260162353515625,0.10382199287414551,4.027117490113438,-12.340020607851285,-0.3924544768298016,0.6014560588165181,-0.9704739187318555,0.1443587656751095,0.3644122558375662,4.093111783415437,3.9666601272278537,-12.306966094860474,-12.384965009792085,2.9967713675392145,-5.515858638149311
15.758521795272827,-0.015674786642193794,4.031440258026123,-12.440763473510742,0.0005025430877326487,0.002106904983520508,0.10382199287414551,4.021056730226998,-12.326867153606058,-0.41245447682980163,0.6003357900701698,-1.0,0.34105113597257664,0.5822061279187831,4.108222208009479,3.94012765923367,-12.279621079722112,-12.38769082977679,2.7415766288533665,-6.6770920662420385
15.766953706741333,-0.01574685238301754,4.032034873962402,-12.441827774047852,0.0005232670128490768,0.002719879150390625,0.10382199287414551,4.014287738140808,-12.311998535545298,-0.43245447682980165,0.5992057806460266,-1.0,0.4787357951808037,0.6911030639593916,4.12899402699873,3.9065288508069953,-12.245467102237487,-12.393832101103772,2.7415766288533665,-6.6770920662420385
15.7746000289917,-0.015775401145219803,4.032337188720703,-12.442357063293457,0.0005317706721401361,0.0019185543060302734,0.10382199287414551,4.006800448956143,-12.295376020954436,-0.45245447682980167,0.5980771352290786,-1.0,0.5751150566265626,0.7455515319796957,4.1580173196814405,3.863251541941507,-12.202649662194167,-12.40516840581782,2.7415766288533665,-6.6770920662420385
15.785039186477661,-0.01579916849732399,4.032642841339111,-12.442883491516113,0.0005405935400101397,0.0026285648345947266,0.10382199287414551,3.9985868639278226,-12.276958400159483,-0.4724544768298017,0.5969464595578862,-1.0,0.6425805396385939,0.7727757659898478,4.199115594444355,3.806454122568152,-12.14843481636099,-12.424353720636226,2.7415766288533665,-6.6770920662420385
15.793654918670654,-0.015818027779459953,4.032952308654785,-12.443406105041504,0.0005773250311607442,0.0027205944061279297,0.10382199287414551,3.9896412002386663,-12.256702087084948,-0.4924544768298017,0.5958572348145,-1.0,0.6898063777470157,0.7863878829949238,4.257905306109617,3.7305063194657224,-12.077829200592197,-12.456296587810959,2.7415766288533665,-6.6770920662420385
15.803827285766602,-0.015827229246497154,4.033589839935303,-12.444363594055176,0.0007328835176915599,0.002538919448852539,0.10382199287414551,3.979960035777336,-12.234561227735206,-0.5124544768298017,0.5955935175635287,-1.0,0.7228644644229111,0.7931939414974618,4.3424519064908145,3.6273334403513338,-11.98347844444866,-12.50826190962352,2.7415766288533665,-6.6770920662420385
15.813941717147827,-0.01582430675625801,4.03392219543457,-12.444754600524902,0.0008023033626416154,0.004402637481689453,0.10382199287414551,3.9695424485534394,-12.210487816283825,-0.5324544768298017,0.5951806052270442,-1.0,0.7460051250960378,0.7965969707487308,4.463688467136881,3.485998035418306,-11.85348952734195,-12.592048816892472,2.7415766288533665,-6.6770920662420385
15.824312686920166,-0.01581720821559429,4.034265518188477,-12.445060729980469,0.000841480012672105,0.0018842220306396484,0.10382199287414551,3.9583901504056507,-12.184431818439975,-0.5524544768298018,0.5949170253902083,-1.0,0.7622035875672264,0.7982984853743655,4.636211651841823,3.291904198032932,-11.668659846664777,-12.726761840383233,2.7415766288533665,-6.6770920662420385
15.953991889953613,-0.01581720821559429,4.034265518188477,-12.445060729980469,0.000841480012672105,0.002333402633666992,0.12081623077392578,3.9465076146810034,-12.15634130174724,-0.5724544768298018,0.6039637918888437,-1.0,0.7735425112970585,0.7991492426871827,4.8832196427988634,3.021859900045378,-11.399087479992577,-12.942200902359472,2.861904365827648,-4.933268311561275
15.963755369186401,-0.016783662140369415,4.043326377868652,-12.435531616210938,0.0023770335275760113,0.0027573108673095703,0.12081623077392578,4.042775050700377,-12.381882539101161,-0.32371015826489896,0.623539954986854,-0.47033648290552277,0.781479757907941,0.7995746213435915,4.064319821720998,4.024342551477717,-12.374444995746819,-12.395625997570699,2.861904365827648,-4.933268311561275
15.973662853240967,-0.01781487464904785,4.044585704803467,-12.429823875427246,0.003332640444007967,0.0020635128021240234,0.12081623077392578,4.039178005096887,-12.374394079645294,-0.343710158264899,0.6269634747579623,-0.4066760383504716,0.7870358305355587,0.7997873106717959,4.070004946031866,4.012111176364086,-12.362336346743392,-12.394336624358177,2.861904365827648,-4.933268311561275
15.986506938934326,-0.01781487464904785,4.044585704803467,-12.429823875427246,0.003332640444007967,0.004180908203125,0.12081623077392578,4.034920242645171,-12.365306296142101,-0.363710158264899,0.6258484999418445,-0.5214482667521299,0.7909250813748911,0.799893655335898,4.0774277204548275,3.996837776845221,-12.346760198545335,-12.393343575138623,2.861904365827648,-4.933268311561275
15.996711254119873,-0.01877128705382347,4.045162200927734,-12.425246238708496,0.004100684548226041,0.004232168197631836,0.12081623077392578,4.029985739212639,-12.354589606139564,-0.383710158264899,0.6278329479242414,-0.5142471142951799,0.7936475569624238,0.7999468276679491,4.08720880953311,3.97786824576718,-12.32710995531474,-12.393197088606405,2.861904365827648,-4.933268311561275
16.007256746292114,-0.0191134475171566,4.0451226234436035,-12.417325973510742,0.005380029995602803,0.002012014389038086,0.12081623077392578,4.024359989953487,-12.342211667159136,-0.40371015826489903,0.6309449103532601,-0.4367110803766697,0.7296448282146798,0.7999734138339747,4.10028837826818,3.954231847754167,-12.302546904590525,-12.39467393561797,2.861904365827648,-4.933268311561275
16.014856815338135,-0.0191134475171566,4.0451226234436035,-12.417325973510742,0.005380029995602803,0.0027174949645996094,0.12081623077392578,4.018030173241296,-12.328137447900469,-0.42371015826489905,0.6298373322673266,-0.5604108500757065,0.6728811271676483,0.7999867069169873,4.118083188344808,3.924484454093038,-12.271908994789323,-12.39886877505661,2.861904365827648,-4.933268311561275
16.024027585983276,-0.0191134475171566,4.0451226234436035,-12.417325973510742,0.005380029995602803,0.002064943313598633,0.12081623077392578,4.010985311018522,-12.312329308316519,-0.44371015826489907,0.6287319529849852,-0.6872087126281307,0.662801704593767,0.7999933534584938,4.142718199331527,3.886477265926341,-12.233599251195816,-12.407305889181693,2.861904365827648,-4.933268311561275
16.036559343338013,-0.019767940044403076,4.044717788696289,-12.41137409210205,0.006423962510608505,0.0035409927368164062,0.12081623077392578,4.003216425126572,-12.294747088309098,-0.4637101582648991,0.6303042002071432,-0.688478276467605,0.6368233674975491,0.7999966767292468,4.177350636859073,3.8370330628601503,-12.185478564489884,-12.422046563937373,2.7543374100072233,-3.2775088309056293
16.045207977294922,-0.019767940044403076,4.044717788696289,-12.41137409210205,0.006423962510608505,0.004414081573486328,0.12081623077392578,3.994716689199526,-12.275348204773703,-0.4837101582648991,0.6292069657885705,-0.8215141994103543,0.6202177419416908,0.7999983383646234,4.22662242423408,3.771494079675916,-12.123687068802132,-12.446867896707749,2.7543374100072233,-3.2775088309056293
16.05497670173645,-0.019767940044403076,4.044717788696289,-12.41137409210205,0.006423962510608505,0.0024750232696533203,0.12081623077392578,3.9854815757247497,-12.254087756703049,-0.5037101582648991,0.628112299279974,-0.9576795126439324,0.6443056372754441,0.7999991691823118,4.297306660798416,3.683075827022051,-12.04224176545345,-12.487665374800635,2.7543374100072233,-3.2775088309056293
16.063615560531616,-0.021448928862810135,4.0434722900390625,-12.401472091674805,0.00828993497858016,0.002611398696899414,0.12081623077392578,3.975508997894742,-12.230918638040794,-0.5237101582648991,0.6310066653062536,-0.9089319504945115,0.6201312235465454,0.7999995845911558,4.398892962556135,3.562282039790675,-11.931789557620244,-12.553700058818796,2.7543374100072233,-3.2775088309056293
16.073667764663696,-0.023074747994542122,4.042176723480225,-12.394227027893066,0.009867127354071026,0.001974821090698242,0.12081623077392578,3.9647994458961966,-12.205791657960862,-0.5437101582648991,0.6325951988093164,-0.9251782962950849,0.5320035735091706,0.7999997922955779,4.543818820715672,3.3966735968020743,-11.777157310223048,-12.660048755987425,2.7543374100072233,-3.2775088309056293
16.19942569732666,-0.023074747994542122,4.042176723480225,-12.394227027893066,0.009867127354071026,0.0023195743560791016,0.11841678619384766,4.042775050700343,-12.381882539101158,-0.32371015826489896,0.6493106897327087,-1.0,0.4814150268806923,0.799999896147789,4.064319821720971,4.024342551477687,-12.374444995746819,-12.395625997570699,2.7543374100072233,-3.2775088309056293
16.207987785339355,-0.05938343331217766,4.012744903564453,-12.300690650939941,0.03380405275754503,0.0021712779998779297,0.11841678619384766,4.039178005096841,-12.37439407964529,-0.343710158264899,0.6721374991464,0.3197608904792504,-0.09065319557558607,0.7626905129886539,4.070004946031827,4.012111176364044,-12.36233634674339,-12.394336624358177,2.827776566770254,-2.5729388574588423
16.214153051376343,-0.05938343331217766,4.012744903564453,-12.300690650939941,0.03380405275754503,0.0025458335876464844,0.11841678619384766,4.03492024264511,-12.365306296142094,-0.363710158264899,0.671382273208839,0.15292053221896706,-0.30345723690291027,0.31252325406895376,4.077427720454774,3.996837776845165,-12.34676019854533,-12.393343575138625,2.827776566770254,-2.5729388574588423
16.22373604774475,-0.06279519200325012,4.009769439697266,-12.29369831085205,0.035591889573520386,0.0020177364349365234,0.11841678619384766,4.0299857392125595,-12.354589606139553,-0.383710158264899,0.6721442764847496,0.09112617962527159,-0.4524200658320372,-0.34417409279849376,4.08720880953304,3.977868245767108,-12.32710995531473,-12.393197088606408,2.827776566770254,-2.5729388574588423
16.234713792800903,-0.06634751707315445,4.0066304206848145,-12.286568641662598,0.03740873034966269,0.004664897918701172,0.11841678619384766,4.024359989953387,-12.342211667159123,-0.40371015826489903,0.6729342703101721,0.02752755259726203,-0.556694046082426,-0.5720870463992469,4.1002883782680914,3.9542318477540763,-12.302546904590509,-12.394673935617975,2.967855199316141,-1.9153664334643858
16.246843576431274,-0.06634751707315445,4.0066304206848145,-12.286568641662598,0.03740873034966269,0.003912210464477539,0.11841678619384766,4.018030173241175,-12.328137447900453,-0.42371015826489905,0.6722157809030748,-0.15034411543689385,-0.6296858322576981,-0.6860435231996236,4.118083188344698,3.9244844540929265,-12.2719089947893,-12.398868775056616,2.967855199316141,-1.9153664334643858
16.25605273246765,-0.07856380194425583,3.9958062171936035,-12.263449668884277,0.04349824503074501,0.001973390579223633,0.11841678619384766,4.010985311018376,-12.3123293083165,-0.44371015826489907,0.6755937228814448,0.020644014248299314,-0.6807800825803887,-0.7430217615998118,4.142718199331394,3.886477265926207,-12.233599251195782,-12.4073058891817,2.967855199316141,-1.9153664334643858
16.26557493209839,-0.08338846266269684,3.991579532623291,-12.254915237426758,0.04621089621678487,0.002687692642211914,0.11841678619384766,4.0032164251264,-12.294747088309073,-0.4637101582648991,0.6760466577673103,-0.045129893846179936,-0.7165460578062721,-0.771510880799906,4.177350636858915,3.837033062859991,-12.18547856448984,-12.422046563937384,2.967855199316141,-1.9153664334643858
16.273780345916748,-0.08836528658866882,3.9871459007263184,-12.246318817138672,0.04942291691488898,0.0019419193267822266,0.11841678619384766,3.994716689199324,-12.275348204773673,-0.4837101582648991,0.67637137508064,-0.11514801490815452,-0.7415822404643905,-0.7857554403999532,4.2266224242338915,3.7714940796757306,-12.123687068802075,-12.446867896707762,2.967855199316141,-1.9153664334643858
16.28399920463562,-0.09349903464317322,3.9824955463409424,-12.237661361694336,0.05313733039585128,0.0027458667755126953,0.11841678619384766,3.985481575724516,-12.254087756703012,-0.5037101582648991,0.6766145304171434,-0.1897227802116792,-0.7591075683250733,-0.7928777201999766,4.297306660798189,3.6830758270218418,-12.042241765453385,-12.487665374800645,2.967855199316141,-1.9153664334643858
16.293623685836792,-0.10424333810806274,3.9725141525268555,-12.220187187194824,0.061900238227220294,0.004086494445800781,0.11841678619384766,3.9755089978944733,-12.23091863804075,-0.5237101582648991,0.677576287436299,-0.14952933071967367,-0.7713752978275513,-0.7964388600999883,4.398892962555856,3.562282039790452,-11.931789557620178,-12.553700058818793,2.967855199316141,-1.9153664334643858
16.304762601852417,-0.10985256731510162,3.9671742916107178,-12.211371421813965,0.06677757148113345,0.0022690296173095703,0.11841678619384766,3.96479944589589,-12.205791657960809,-0.5437101582648991,0.6777512019451284,-0.23301794441889134,-0.779962708479286,-0.7982194300499941,4.543818820715305,3.396673596801866,-11.777157310223014,-12.660048755987377,2.967855199316141,-1.9153664334643858
16.313664436340332,-0.11561734974384308,3.9615983963012695,-12.20250129699707,0.07186563410595831,0.002558469772338867,0.11841678619384766,4.041058061197935,-12.378336485550783,-0.33371015826489897,0.6779490553194144,-0.3211494745380634,-0.7859738959355002,-0.7991097150249971,4.064319821720971,4.024342551477687,-12.374444995746819,-12.395625997570699,2.967855199316141,-1.9153664334643858
16.323739290237427,-0.12153422087430954,3.955785036087036,-12.193582534790039,0.07709827408004055,0.001989603042602539,0.11841678619384766,4.037132748649969,-12.370051886841976,-0.353710158264899,0.6781756661367422,-0.414057648503089,-0.7901817271548501,-0.7995548575124987,4.070004946031827,4.012111176364044,-12.36233634674339,-12.394336624358177,2.967855199316141,-1.9153664334643858
16.447696685791016,-0.2332054227590561,3.8352620601654053,-12.045103073120117,0.15452696592778203,0.006767749786376953,0.10949945449829102,4.032538527650074,-12.360153521960568,-0.373710158264899,0.7075347130513927,0.9727541903517558,-0.7931272090083951,-0.7997774287562494,4.077427720454774,3.996837776845165,-12.34676019854533,-12.393343575138625,1.8299223073273496,-3.511991002326965
16.463968515396118,-0.25045880675315857,3.814582586288452,-12.023496627807617,0.16340475147586334,0.005767345428466797,0.10949945449829102,4.027260113011083,-12.34861042010424,-0.393710158264899,0.7063593143940976,1.0,-0.7951890463058765,-0.7998887143781247,4.08720880953304,3.977868245767108,-12.32710995531473,-12.393197088606408,1.8299223073273496,-3.511991002326965
16.47447109222412,-0.25045880675315857,3.814582586288452,-12.023496627807617,0.16340475147586334,0.0025131702423095703,0.10949945449829102,4.021283821218812,-12.335388884922956,-0.41371015826489904,0.7060235565873538,0.8233161558994841,-0.7966323324141136,-0.7999443571890624,4.1002883782680914,3.9542318477540763,-12.302546904590509,-12.394673935617975,1.8299223073273496,-3.511991002326965
16.487049102783203,-0.2766812741756439,3.7817163467407227,-11.990647315979004,0.1759244441025899,0.004741191864013672,0.10949945449829102,4.0145977326288,-12.32045257018874,-0.43371015826489906,0.7073767949721735,1.0,-0.7976426326898796,-0.7999721785945313,4.118083188344698,3.9244844540929265,-12.2719089947893,-12.398868775056616,1.8299223073273496,-3.511991002326965
16.498335361480713,-0.3031865656375885,3.7465856075286865,-11.957246780395508,0.18746997873812785,0.00333404541015625,0.10949945449829102,4.007191849859452,-12.30376256421361,-0.4537101582648991,0.7080703179225102,1.0,-0.7983498428829157,-0.7999860892972657,4.142718199331394,3.886477265926207,-12.233599251195782,-12.4073058891817,1.8299223073273496,-3.511991002326965
16.50715947151184,-0.3031865656375885,3.7465856075286865,-11.957246780395508,0.18746997873812785,0.0026693344116210938,0.10949945449829102,3.9990582519548106,-12.285277482754916,-0.4737101582648991,0.7077131184336575,1.0,-0.7988448900180409,-0.7999930446486329,4.177350636858915,3.837033062859991,-12.18547856448984,-12.422046563937384,1.8299223073273496,-3.511991002326965
16.514723300933838,-0.31363990902900696,3.7335426807403564,-11.945611000061035,0.19098930779711037,0.003164529800415039,0.10949945449829102,3.9901912439100156,-12.264953570127012,-0.4937101582648991,0.707621785938739,0.9613965019254302,-0.7991914230126287,-0.7999965223243164,4.2266224242338915,3.7714940796757306,-12.123687068802075,-12.446867896707762,1.8299223073273496,-3.511991002326965
16.52397108078003,-0.3240750730037689,3.7202413082122803,-11.933955192565918,0.1943299802071988,0.0027620792388916016,0.10949945449829102,3.980587501173154,-12.242744808219483,-0.5137101582648991,0.7075282520743034,0.8592811821107154,-0.7994339961088401,-0.7999982611621582,4.297306660798189,3.6830758270218418,-12.042241765453385,-12.487665374800645,1.8299223073273496,-3.511991002326965
16.533817529678345,-0.3448772728443146,3.692863941192627,-11.910548210144043,0.200605153380294,0.0033750534057617188,0.10949945449829102,3.9702462087585855,-12.218603033105191,-0.5337101582648991,0.7075777058325735,0.8891611558282972,-0.7996037972761881,-0.7999991305810791,4.398892962555856,3.562282039790452,-11.931789557620178,-12.553700058818793,1.870446571206543,-3.4993285456163004
16.543622493743896,-0.3552379608154297,3.6787898540496826,-11.898798942565918,0.2035615729159249,0.00455927848815918,0.10949945449829102,3.9591691946287977,-12.192478058906069,-0.5537101582648991,0.7074811107428854,0.7588642117151327,-0.7997226580933317,-0.7999995652905396,4.543818820715305,3.396673596801866,-11.777157310223014,-12.660048755987377,1.870446571206543,-3.4993285456163004
16.55412745475769,-0.3552379608154297,3.6787898540496826,-11.898798942565918,0.2035615729159249,0.0032224655151367188,0.10949945449829102,4.039178005096841,-12.37439407964529,-0.343710158264899,0.7073012156218313,0.48728889074621096,-0.7998058606653322,-0.7999997826452698,4.064319821720971,4.024342551477687,-12.374444995746819,-12.395625997570699,1.870446571206543,-3.4993285456163004
16.563699960708618,-0.37586358189582825,3.6498820781707764,-11.875213623046875,0.2091536625772754,0.0030443668365478516,0.10949945449829102,4.03492024264511,-12.365306296142094,-0.363710158264899,0.7073471401637468,0.46962041973734414,-0.7998641024657326,-0.7999998913226349,4.070004946031827,4.012111176364044,-12.36233634674339,-12.394336624358177,1.870446571206543,-3.4993285456163004
16.57384729385376,-0.3963463306427002,3.61997652053833,-11.851542472839355,0.21438260704693338,0.002928018569946289,0.10949945449829102,4.0299857392125595,-12.354589606139553,-0.383710158264899,0.7073397573475159,0.43154231533103116,-0.7999048717260129,-0.7999999456613175,4.077427720454774,3.996837776845165,-12.34676019854533,-12.393343575138625,1.870446571206543,-3.4993285456163004
16.584062099456787,-0.4065275490283966,3.604658603668213,-11.839668273925781,0.21684077077223704,0.005814075469970703,0.10949945449829102,4.024359989953387,-12.342211667159123,-0.40371015826489903,0.7072894469816061,0.26317773996424165,-0.7999334102082091,-0.7999999728306588,4.08720880953304,3.977868245767108,-12.32710995531473,-12.393197088606408,1.870446571206543,-3.4993285456163004
16.59748387336731,-0.4065275490283966,3.604658603668213,-11.839668273925781,0.21684077077223704,0.005455970764160156,0.10949945449829102,4.018030173241175,-12.328137447900453,-0.42371015826489905,0.7071981055418657,-0.024884677006082878,-0.7999533871457464,-0.7999999864153294,4.1002883782680914,3.9542318477540763,-12.302546904590509,-12.394673935617975,1.870446571206543,-3.4993285456163004
16.726545095443726,-0.5744328498840332,3.2930288314819336,-11.624215126037598,0.24372778880632925,0.003753185272216797,0.11426925659179688,4.010985311018376,-12.3123293083165,-0.44371015826489907,0.7056067543996739,1.0,-0.7999673710020225,-0.7999999932076648,4.118083188344698,3.9244844540929265,-12.2719089947893,-12.398868775056616,1.870446571206543,-3.4993285456163004
16.7372043132782,-0.6015576720237732,3.231593132019043,-11.58536148071289,0.24586378758806351,0.0030570030212402344,0.11426925659179688,4.0032164251264,-12.294747088309073,-0.4637101582648991,0.7050292483680499,1.0,-0.7999771597014158,-0.678380302551792,4.142718199331394,3.886477265926207,-12.233599251195782,-12.4073058891817,2.622496710547161,-3.375293959873648
16.743629932403564,-0.6015576720237732,3.231593132019043,-11.58536148071289,0.24586378758806351,0.0030171871185302734,0.11426925659179688,3.994716689199324,-12.275348204773673,-0.4837101582648991,0.7051447878694982,0.9968840536965478,-0.7999840117909911,-0.6430148624206037,4.177350636858915,3.837033062859991,-12.18547856448984,-12.422046563937384,2.622496710547161,-3.375293959873648
16.753997802734375,-0.6103526949882507,3.210815191268921,-11.572400093078613,0.24642266115420508,0.0037484169006347656,0.11426925659179688,3.985481575724516,-12.254087756703012,-0.5037101582648991,0.7049711061238191,0.8495639571174132,-0.7999888082536938,-0.6203868157876186,4.2266224242338915,3.7714940796757306,-12.123687068802075,-12.446867896707762,2.622496710547161,-3.375293959873648
16.763900995254517,-0.6185266375541687,3.188410520553589,-11.559069633483887,0.24691142699961663,0.005411863327026367,0.11426925659179688,3.9755089978944733,-12.23091863804075,-0.5237101582648991,0.70478813070122,0.7057656523715041,-0.7999921657775857,-0.6138889839013248,4.297306660798189,3.6830758270218418,-12.042241765453385,-12.487665374800645,2.622496710547161,-3.375293959873648
16.776681423187256,-0.6185266375541687,3.188410520553589,-11.559069633483887,0.24691142699961663,0.004667520523071289,0.11426925659179688,3.96479944589589,-12.205791657960809,-0.5437101582648991,0.7049081907673066,0.40920951896942337,-0.79999451604431,-0.622020905410767,4.398892962555856,3.562282039790452,-11.931789557620178,-12.553700058818793,2.622496710547161,-3.375293959873648
16.79159116744995,-0.6499055027961731,3.0975863933563232,-11.505821228027344,0.2486633799760288,0.0047779083251953125,0.11426925659179688,3.9533561173041694,-12.178655668233176,-0.5637101582648991,0.7038439615882873,0.6718997764212076,-0.799996161231017,-0.5518413352381647,4.543818820715305,3.396673596801866,-11.777157310223014,-12.660048755987377,2.622496710547161,-3.375293959873648
16.804319143295288,-0.6499055027961731,3.0975863933563232,-11.505821228027344,0.2486633799760288,0.004754781723022461,0.11426925659179688,4.037132748649969,-12.370051886841976,-0.353710158264899,0.7040660267850162,0.3672261468830258,-0.7999973128617119,-0.5299543555322317,4.064319821720971,4.024342551477687,-12.374444995746819,-12.395625997570699,2.622496710547161,-3.375293959873648
16.818366765975952,-0.6719484329223633,3.0282304286956787,-11.465859413146973,0.24935038482567928,0.0039637088775634766,0.11426925659179688,4.032538527650074,-12.360153521960568,-0.373710158264899,0.7037344157639326,0.41343245719843447,-0.7999981190031984,-0.4524190763148541,4.070004946031827,4.012111176364044,-12.36233634674339,-12.394336624358177,2.622496710547161,-3.375293959873648
16.826168537139893,-0.6719484329223633,3.0282304286956787,-11.465859413146973,0.24935038482567928,0.002996206283569336,0.11426925659179688,4.027260113011083,-12.34861042010424,-0.393710158264899,0.7039303277659993,0.1009613030692662,-0.7999986833022389,-0.42532626787744304,4.077427720454774,3.996837776845165,-12.34676019854533,-12.393343575138625,2.622496710547161,-3.375293959873648
16.835726737976074,-0.6858852505683899,2.9814419746398926,-11.439224243164062,0.2493997883018404,0.0032591819763183594,0.11426925659179688,4.021283821218812,-12.335388884922956,-0.41371015826489904,0.7038940993156899,0.22827226617364071,-0.7999990783115672,-0.34333382948762353,4.08720880953304,3.977868245767108,-12.32710995531473,-12.393197088606408,2.9512571152686786,-3.319032178988725
16.84431481361389,-0.6926168203353882,2.9578945636749268,-11.425894737243652,0.2493233123790319,0.0031609535217285156,0.11426925659179688,4.0145977326288,-12.32045257018874,-0.43371015826489906,0.704035840627006,0.25283864573379367,-0.7999993548180971,-0.3050108351651039,4.1002883782680914,3.9542318477540763,-12.302546904590509,-12.394673935617975,2.9512571152686786,-3.319032178988725
16.853795528411865,-0.7055911421775818,2.910522937774658,-11.399201393127441,0.24899182594975114,0.0031185150146484375,0.11426925659179688,4.007191849859452,-12.30376256421361,-0.4537101582648991,0.7041875420852044,0.375892519935243,-0.7735775994029302,-0.24618519203223205,4.118083188344698,3.9244844540929265,-12.2719089947893,-12.398868775056616,2.9512571152686786,-3.319032178988725
16.987894296646118,-0.7055911421775818,2.910522937774658,-11.399201393127441,0.24899182594975114,0.0029277801513671875,0.1260981559753418,3.9990582519548106,-12.285277482754916,-0.4737101582648991,0.6956400862747771,0.4557816890485422,-0.7652805377881989,-0.2495978286898831,4.142718199331394,3.886477265926207,-12.233599251195782,-12.4073058891817,2.9512571152686786,-3.319032178988725
16.99680209159851,-0.7890171408653259,2.4435336589813232,-11.148233413696289,0.2428278073310685,0.0030558109283447266,0.1260981559753418,3.9901912439100156,-12.264953570127012,-0.4937101582648991,0.6959285544663241,1.0,-0.34649117267149515,0.07303659650427356,4.177350636858915,3.837033062859991,-12.18547856448984,-12.422046563937384,3.0865644334545204,-3.4223355953025174
17.00441575050354,-0.7890171408653259,2.4435336589813232,-11.148233413696289,0.2428278073310685,0.002968311309814453,0.1260981559753418,3.980587501173154,-12.242744808219483,-0.5137101582648991,0.695733137691336,1.0,-0.1439536635495134,-0.018931752223041276,4.2266224242338915,3.7714940796757306,-12.123687068802075,-12.446867896707762,3.0865644334545204,-3.4223355953025174
17.013859272003174,-0.7926326394081116,2.388695001602173,-11.119274139404297,0.2420540032148361,0.005465984344482422,0.1260981559753418,3.9702462087585855,-12.218603033105191,-0.5337101582648991,0.6960507593112485,1.0,0.0366316766169161,-0.11443665248908826,4.297306660798189,3.6830758270218418,-12.042241765453385,-12.487665374800645,3.0865644334545204,-3.4223355953025174
17.02692174911499,-0.7926326394081116,2.388695001602173,-11.119274139404297,0.2420540032148361,0.004025697708129883,0.1260981559753418,3.9591691946287977,-12.192478058906069,-0.5537101582648991,0.6958432496373597,1.0,0.14907475425733574,-0.21007643644680132,4.398892962555856,3.562282039790452,-11.931789557620178,-12.553700058818793,3.0865644334545204,-3.4223355953025174
17.037834405899048,-0.7963960766792297,2.3065948486328125,-11.075736999511719,0.24094618066237902,0.003013134002685547,0.1260981559753418,3.9473610570242843,-12.164317808570935,-0.5737101582648991,0.6966581743421489,1.0,0.3152844948867768,-0.2918443684121761,4.543818820715305,3.396673596801866,-11.777157310223014,-12.660048755987377,3.6099636883612236,-3.0391317046711195
17.044232606887817,-0.7963960766792297,2.3065948486328125,-11.075736999511719,0.24094618066237902,0.0031158924102783203,0.1260981559753418,4.03492024264511,-12.365306296142094,-0.363710158264899,0.6964223192240064,1.0,0.4182842587552365,-0.37198922020170816,4.064319821720971,4.024342551477687,-12.374444995746819,-12.395625997570699,3.6099636883612236,-3.0391317046711195
17.053819179534912,-0.797756016254425,2.2519888877868652,-11.04659652709961,0.23941543635844603,0.0030541419982910156,0.1260981559753418,4.0299857392125595,-12.354589606139553,-0.383710158264899,0.6969928322544183,1.0,0.5327989811286655,-0.4470236400675605,4.070004946031827,4.012111176364044,-12.36233634674339,-12.394336624358177,3.6099636883612236,-3.0391317046711195
17.06372046470642,-0.7980816960334778,2.2247328758239746,-11.031990051269531,0.23817524444216165,0.003075122833251953,0.1260981559753418,4.024359989953387,-12.342211667159123,-0.40371015826489903,0.6972292865549482,1.0,0.6129592867900658,-0.5165967986427314,4.077427720454774,3.996837776845165,-12.34676019854533,-12.393343575138625,3.6099636883612236,-3.0391317046711195
17.073812007904053,-0.7981701493263245,2.1975111961364746,-11.017374992370605,0.23659066906875784,0.0025856494903564453,0.1260981559753418,4.018030173241175,-12.328137447900453,-0.42371015826489905,0.6975245279730804,1.0,0.6690715007530461,-0.5761754148218671,4.08720880953304,3.977868245767108,-12.32710995531473,-12.393197088606408,3.6099636883612236,-3.0391317046711195
17.085505723953247,-0.798021137714386,2.1703267097473145,-11.002731323242188,0.23466386548387336,0.005561351776123047,0.1260981559753418,4.010985311018376,-12.3123293083165,-0.44371015826489907,0.6978464514051621,1.0,0.7083500505271323,-0.6250903528943055,4.1002883782680914,3.9542318477540763,-12.302546904590509,-12.394673935617975,3.6099636883612236,-3.0391317046711195
17.21727728843689,-0.798021137714386,2.1703267097473145,-11.002731323242188,0.23466386548387336,0.0040514469146728516,0.11667990684509277,4.0032164251264,-12.294747088309073,-0.4637101582648991,0.6860171304261012,1.0,0.7358450353689926,-0.6584006177249178,4.118083188344698,3.9244844540929265,-12.2719089947893,-12.398868775056616,3.6099636883612236,-3.0391317046711195
17.22714138031006,-0.7447323203086853,1.6856564283370972,-10.73265266418457,0.16980183085617534,0.0026688575744628906,0.11667990684509277,3.994716689199324,-12.275348204773673,-0.4837101582648991,0.698086001087008,1.0,0.7550915247582949,-0.7292003088624589,4.142718199331394,3.886477265926207,-12.233599251195782,-12.4073058891817,3.7547239828640606,-3.151108053771208
17.233747482299805,-0.7447323203086853,1.6856564283370972,-10.73265266418457,0.16980183085617534,0.0032660961151123047,0.11667990684509277,3.985481575724516,-12.254087756703012,-0.5037101582648991,0.6973489961996071,1.0,0.7685640673308064,-0.763151261339758,4.177350636858915,3.837033062859991,-12.18547856448984,-12.422046563937384,3.7547239828640606,-3.151108053771208
17.24370837211609,-0.7344279289245605,1.6333686113357544,-10.702092170715332,0.16163929806708877,0.004536867141723633,0.11667990684509277,3.9755089978944733,-12.23091863804075,-0.5237101582648991,0.69879751231468,0.9536589315632382,0.7779948471315645,-0.7760031832876834,4.2266224242338915,3.7714940796757306,-12.123687068802075,-12.446867896707762,3.7547239828640606,-3.151108053771208
17.256368398666382,-0.7344279289245605,1.6333686113357544,-10.702092170715332,0.16163929806708877,0.004652500152587891,0.11667990684509277,3.96479944589589,-12.205791657960809,-0.5437101582648991,0.6981022688786404,0.8417864609311243,0.7845963929920952,-0.7814497204569228,4.297306660798189,3.6830758270218418,-12.042241765453385,-12.487665374800645,3.7547239828640606,-3.151108053771208
17.27083444595337,-0.7147219777107239,1.5546671152114868,-10.655726432800293,0.14962126041020934,0.004791736602783203,0.11667990684509277,3.9533561173041694,-12.178655668233176,-0.5637101582648991,0.7007473423222301,0.6899660267279326,0.7892174750944666,-0.7713047335255414,4.398892962555856,3.562282039790452,-11.931789557620178,-12.553700058818793,3.7547239828640606,-3.151108053771208
17.282405376434326,-0.7147219777107239,1.5546671152114868,-10.655726432800293,0.14962126041020934,0.0033969879150390625,0.11667990684509277,3.9411850412742324,-12.1494576973243,-0.5837101582648991,0.6999952032925639,0.5820020548718988,0.7924522325661266,-0.7604583958670338,4.543818820715305,3.396673596801866,-11.777157310223014,-12.660048755987377,3.7547239828640606,-3.151108053771208
17.29113459587097,-0.6999632120132446,1.502519965171814,-10.624635696411133,0.1418394942833738,0.0024933815002441406,0.11667990684509277,4.032538527650074,-12.360153521960568,-0.373710158264899,0.7015328521723774,0.43789606384132496,0.7947165627962887,-0.7447281346601191,4.064319821720971,4.024342551477687,-12.374444995746819,-12.395625997570699,3.7547239828640606,-3.151108053771208
17.29783296585083,-0.6999632120132446,1.502519965171814,-10.624635696411133,0.1418394942833738,0.003047466278076172,0.11667990684509277,4.027260113011083,-12.34861042010424,-0.393710158264899,0.7007417117082313,0.3333619699930893,0.7963015939574021,-0.7283236980919118,4.070004946031827,4.012111176364044,-12.36233634674339,-12.394336624358177,3.7547239828640606,-3.151108053771208
17.306314945220947,-0.6847832202911377,1.4510163068771362,-10.593477249145508,0.13402338559022975,0.0026769638061523438,0.11667990684509277,4.021283821218812,-12.335388884922956,-0.41371015826489904,0.7022922313218927,0.18480804972871945,0.7974111157701814,-0.7092801787136438,4.077427720454774,3.996837776845165,-12.34676019854533,-12.393343575138625,3.7547239828640606,-3.151108053771208
17.31572699546814,-0.6847832202911377,1.4510163068771362,-10.593477249145508,0.13402338559022975,0.003926277160644531,0.11667990684509277,4.0145977326288,-12.32045257018874,-0.43371015826489906,0.7014587928448748,0.08388638995560038,0.798187781039127,-0.6873998214020965,4.08720880953304,3.977868245767108,-12.32710995531473,-12.393197088606408,3.7547239828640606,-3.151108053771208
17.32459783554077,-0.6612962484359741,1.3750354051589966,-10.546629905700684,0.1222282392711909,0.002488374710083008,0.11667990684509277,4.007191849859452,-12.30376256421361,-0.4537101582648991,0.7042200832180014,-0.09283668570463255,0.7987314467273889,-0.6650298335956536,4.1002883782680914,3.9542318477540763,-12.302546904590509,-12.394673935617975,3.7547239828640606,-3.151108053771208
17.457881927490234,-0.6612962484359741,1.3750354051589966,-10.546629905700684,0.1222282392711909,0.0025916099548339844,0.12154865264892578,3.9990582519548106,-12.285277482754916,-0.4737101582648991,0.6769504526332776,1.0,0.7991120127091723,-0.6349554311839009,4.118083188344698,3.9244844540929265,-12.2719089947893,-12.398868775056616,4.383104105423367,-1.9190015910722154
17.472145080566406,-0.4958053529262543,0.9546658992767334,-10.259560585021973,0.05186424939855984,0.004939556121826172,0.12154865264892578,3.9901912439100156,-12.264953570127012,-0.4937101582648991,0.6952062938313275,0.8619772676840993,0.7185503147727347,-0.473355061358737,4.142718199331394,3.886477265926207,-12.233599251195782,-12.4073058891817,4.383104105423367,-1.9190015910722154
17.48174810409546,-0.4958053529262543,0.9546658992767334,-10.259560585021973,0.05186424939855984,0.002372264862060547,0.12154865264892578,3.980587501173154,-12.242744808219483,-0.5137101582648991,0.6942729347886213,0.8259196943667497,0.6855599571848837,-0.42904950910765327,4.177350636858915,3.837033062859991,-12.18547856448984,-12.422046563937384,4.383104105423367,-1.9190015910722154
17.489952325820923,-0.47609013319015503,0.9118630290031433,-10.227221488952637,0.04373280294692487,0.0029687881469726562,0.12154865264892578,3.9702462087585855,-12.218603033105191,-0.5337101582648991,0.6955277025179631,0.8143838220675513,0.645298918653205,-0.39903679521667595,4.2266224242338915,3.7714940796757306,-12.123687068802075,-12.446867896707762,4.383104105423367,-1.9190015910722154
17.497469902038574,-0.47609013319015503,0.9118630290031433,-10.227221488952637,0.04373280294692487,0.0021779537200927734,0.12154865264892578,3.9591691946287977,-12.192478058906069,-0.5537101582648991,0.6945937203075291,0.782863835616858,0.6280308429814193,-0.3859878298266635,4.297306660798189,3.6830758270218418,-12.042241765453385,-12.487665374800645,4.383104105423367,-1.9190015910722154
17.505309104919434,-0.45643287897109985,0.8698267340660095,-10.194818496704102,0.03548063251906856,0.002374410629272461,0.12154865264892578,3.9473610570242843,-12.164317808570935,-0.5737101582648991,0.695938430897616,0.7723214830036162,0.5940400033594292,-0.36891175526305825,4.398892962555856,3.562282039790452,-11.931789557620178,-12.553700058818793,4.383104105423367,-1.9190015910722154
17.513942003250122,-0.4466330409049988,0.8490898013114929,-10.178580284118652,0.03132610151736534,0.004535675048828125,0.12154865264892578,3.9348292854437203,-12.13406845120768,-0.5937101582648991,0.696208429502551,0.7477092339087852,0.5655086110980554,-0.3521388706452955,4.543818820715305,3.396673596801866,-11.777157310223014,-12.660048755987377,4.383104105423367,-1.9190015910722154
17.523645401000977,-0.43571171164512634,0.8298625946044922,-10.162668228149414,0.02717568196841647,0.0018813610076904297,0.12154865264892578,4.0299857392125595,-12.354589606139553,-0.383710158264899,0.6964657817370068,0.7117212080747193,0.5396472098589907,-0.3363689038556961,4.064319821720971,4.024342551477687,-12.374444995746819,-12.395625997570699,4.383104105423367,-1.9190015910722154
17.53435754776001,-0.42483919858932495,0.8107972145080566,-10.146735191345215,0.023174810529551747,0.004483938217163086,0.12154865264892578,4.024359989953387,-12.342211667159123,-0.40371015826489903,0.6967093010252672,0.6711361918087746,0.5145294618796239,-0.32157594472098155,4.070004946031827,4.012111176364044,-12.36233634674339,-12.394336624358177,4.482862193596098,-1.4599575342712987
17.54404878616333,-0.40325385332107544,0.7731584310531616,-10.114768981933594,0.015248785454073698,0.002490520477294922,0.12154865264892578,4.018030173241175,-12.328137447900453,-0.42371015826489905,0.6981508172967094,0.596569170256021,0.474341534725458,-0.2946586873966172,4.077427720454774,3.996837776845165,-12.34676019854533,-12.393343575138625,4.482862193596098,-1.4599575342712987
17.553940057754517,-0.39254793524742126,0.7545892000198364,-10.098734855651855,0.011334541260093828,0.002716064453125,0.12154865264892578,4.010985311018376,-12.3123293083165,-0.44371015826489907,0.6984240920795848,0.5444964574726008,0.44317297503416897,-0.2761278773811192,4.08720880953304,3.977868245767108,-12.32710995531473,-12.393197088606408,4.482862193596098,-1.4599575342712987
17.563735246658325,-0.38190168142318726,0.7361916899681091,-10.082667350769043,0.007454639714321221,0.0023148059844970703,0.12154865264892578,4.0032164251264,-12.294747088309073,-0.4637101582648991,0.6987111350096628,0.49093346419106065,0.41569115980719534,-0.25871662701192866,4.1002883782680914,3.9542318477540763,-12.302546904590509,-12.394673935617975,4.482862193596098,-1.4599575342712987
17.67621088027954,-0.2376924753189087,0.49887987971305847,-9.850663185119629,-0.04252882480804397,0.0018897056579589844,0.10289359092712402,3.994716689199324,-12.275348204773673,-0.4837101582648991,0.7075671014683517,0.26572669999877296,0.20368832637602616,-0.07043216246126768,4.118083188344698,3.9244844540929265,-12.2719089947893,-12.398868775056616,4.482862193596098,-1.4599575342712987
17.684223651885986,-0.22767208516597748,0.48352813720703125,-9.833416938781738,-0.045740310646887536,0.002286195755004883,0.10289359092712402,3.985481575724516,-12.254087756703012,-0.5037101582648991,0.7081483790391672,0.20743786016475596,0.12304156508525659,-0.015388722713966223,4.142718199331394,3.886477265926207,-12.233599251195782,-12.4073058891817,4.449844712626065,-0.6623762439466606
17.693638801574707,-0.21776218712329865,0.46838831901550293,-9.816131591796875,-0.048909585927814754,0.0020406246185302734,0.10289359092712402,3.9755089978944733,-12.23091863804075,-0.5237101582648991,0.7087454987085153,0.15068848209974706,0.08140050969246668,0.014807978639389225,4.177350636858915,3.837033062859991,-12.18547856448984,-12.422046563937384,4.449844712626065,-0.6623762439466606
17.703983545303345,-0.19827230274677277,0.4387616515159607,-9.781431198120117,-0.05512621773923986,0.002534151077270508,0.10289359092712402,3.96479944589589,-12.205791657960809,-0.5437101582648991,0.7109159369175885,0.03209396410665177,0.04129436698382438,0.04100562409060489,4.2266224242338915,3.7714940796757306,-12.123687068802075,-12.446867896707762,4.449844712626065,-0.6623762439466606
17.714086294174194,-0.18869498372077942,0.4242785573005676,-9.76401424407959,-0.058167246346858915,0.0027625560760498047,0.10289359092712402,3.9533561173041694,-12.178655668233176,-0.5637101582648991,0.7115511958671484,-0.022920410653310075,0.014666310910810464,0.05655687238965919,4.297306660798189,3.6830758270218418,-12.042241765453385,-12.487665374800645,4.449844712626065,-0.6623762439466606
17.725256204605103,-0.18869498372077942,0.4242785573005676,-9.76401424407959,-0.058167246346858915,0.0027167797088623047,0.10289359092712402,3.9411850412742324,-12.1494576973243,-0.5837101582648991,0.7106242157748333,-0.010703282136349301,0.0052285461011870584,0.0646998413475651,4.398892962555856,3.562282039790452,-11.931789557620178,-12.553700058818793,4.449844712626065,-0.6623762439466606
17.7344491481781,-0.1698922961950302,0.3959784507751465,-9.729077339172363,-0.06412125300442098,0.0024328231811523438,0.10289359092712402,3.928295196241373,-12.118143090869049,-0.6037101582648992,0.7126873412065471,-0.1290408690568845,-0.02273939821588631,0.07880155649215158,4.543818820715305,3.396673596801866,-11.777157310223014,-12.660048755987377,4.4028246722114766,-0.33675499801426967
17.743669748306274,-0.15157264471054077,0.3685886263847351,-9.694025993347168,-0.07000986629058184,0.002141714096069336,0.10289359092712402,4.027260113011083,-12.34861042010424,-0.393710158264899,0.7146798012321318,-0.24652096759985387,-0.053308685140356485,0.09289139941266686,4.064319821720971,4.024342551477687,-12.374444995746819,-12.395625997570699,4.4028246722114766,-0.33675499801426967
17.754124641418457,-0.1425972729921341,0.35524171590805054,-9.6764554977417,-0.07293905803785428,0.002280712127685547,0.10289359092712402,4.021283821218812,-12.335388884922956,-0.41371015826489904,0.7152127963599617,-0.2929110322542634,-0.07257940991573031,0.10418965602865628,4.070004946031827,4.012111176364044,-12.36233634674339,-12.394336624358177,4.4028246722114766,-0.33675499801426967
17.763794898986816,-0.1337457150220871,0.3421294093132019,-9.658856391906738,-0.07584799917690363,0.0023355484008789062,0.10289359092712402,4.0145977326288,-12.32045257018874,-0.43371015826489906,0.7157517868736771,-0.33517179608846526,-0.08736740524859496,0.11421433283826934,4.077427720454774,3.996837776845165,-12.34676019854533,-12.393343575138625,4.4028246722114766,-0.33675499801426967
17.773962259292603,-0.12488740682601929,0.32980746030807495,-9.640718460083008,-0.0787323858813169,0.0022954940795898438,0.10289359092712402,4.007191849859452,-12.30376256421361,-0.4537101582648991,0.716341678366158,-0.3753032211872409,-0.09986724071557813,0.12302016270994164,4.08720880953304,3.977868245767108,-12.32710995531473,-12.393197088606408,4.4028246722114766,-0.33675499801426967
17.78385353088379,-0.1075446754693985,0.30585864186286926,-9.604414939880371,-0.08436597566452472,0.002842426300048828,0.10289359092712402,3.9990582519548106,-12.285277482754916,-0.4737101582648991,0.7184611950321522,-0.4732343928113534,-0.11742937819568894,0.13220859192813178,4.1002883782680914,3.9542318477540763,-12.302546904590509,-12.394673935617975,4.4028246722114766,-0.33675499801426967
17.7936589717865,-0.09906389564275742,0.2942245602607727,-9.586233139038086,-0.0871251234161763,0.0024187564849853516,0.10289359092712402,3.9901912439100156,-12.264953570127012,-0.4937101582648991,0.7190495063030377,-0.5020424784634814,-0.12897555215850504,0.14103342334396188,4.118083188344698,3.9244844540929265,-12.2719089947893,-12.398868775056616,4.4028246722114766,-0.33675499801426967
17.8038227558136,-0.09071027487516403,0.28281888365745544,-9.568031311035156,-0.08984111792541813,0.002788543701171875,0.10289359092712402,3.980587501173154,-12.242744808219483,-0.5137101582648991,0.7168925393360347,-0.6858452317570314,-0.13829019693856187,0.14867287420090852,4.142718199331394,3.886477265926207,-12.233599251195782,-12.4073058891817,4.4028246722114766,-0.33675499801426967
17.934450149536133,-0.09071027487516403,0.28281888365745544,-9.568031311035156,-0.08984111792541813,0.003098011016845703,0.12282299995422363,3.9702462087585855,-12.218603033105191,-0.5337101582648991,0.7062870735019944,1.0,-0.14044445670139438,0.15551398326670793,4.177350636858915,3.837033062859991,-12.18547856448984,-12.422046563937384,4.4028246722114766,-0.33675499801426967
17.944114685058594,0.03837953135371208,0.12791386246681213,-9.234369277954102,-0.12916494313319343,0.003234386444091797,0.12282299995422363,3.9591691946287977,-12.192478058906069,-0.5537101582648991,0.7291276193360106,0.25946191611240965,-0.21127453575913552,0.1613995513427252,4.2266224242338915,3.7714940796757306,-12.123687068802075,-12.446867896707762,4.5434253203285415,-0.9009323519023992
17.954407691955566,0.04438917711377144,0.12203571200370789,-9.215502738952637,-0.1307187307138452,0.0034694671630859375,0.12282299995422363,3.9473610570242843,-12.164317808570935,-0.5737101582648991,0.7291500699092553,0.2954008921259609,-0.2286291776365581,0.16596252496910288,4.297306660798189,3.6830758270218418,-12.042241765453385,-12.487665374800645,4.5434253203285415,-0.9009323519023992
17.963717222213745,0.05027666687965393,0.11632640659809113,-9.196626663208008,-0.1322116240962991,0.005902528762817383,0.12282299995422363,3.9348292854437203,-12.13406845120768,-0.5937101582648991,0.7293308439189691,0.3387933346931996,-0.2364103466342048,0.16466417871314806,4.398892962555856,3.562282039790452,-11.931789557620178,-12.553700058818793,4.5434253203285415,-0.9009323519023992
17.975467681884766,0.05027666687965393,0.11632640659809113,-9.196626663208008,-0.1322116240962991,0.003112316131591797,0.12282299995422363,3.921584374999696,-12.10167454560185,-0.6137101582648992,0.7283902050382809,0.4091776085794677,-0.23842104396807265,0.1591982255205975,4.543818820715305,3.396673596801866,-11.777157310223014,-12.660048755987377,4.5434253203285415,-0.9009323519023992
17.984736680984497,0.06721139699220657,0.1001778319478035,-9.140000343322754,-0.13639485901282603,0.003363370895385742,0.12282299995422363,4.024359989953387,-12.342211667159123,-0.40371015826489903,0.7306162097039685,0.3893732429945512,-0.2459107517134469,0.15733435035819487,4.064319821720971,4.024342551477687,-12.374444995746819,-12.395625997570699,4.5434253203285415,-0.9009323519023992
17.99377703666687,0.07261566072702408,0.09511195123195648,-9.121131896972656,-0.13770890876881356,0.0038139820098876953,0.12282299995422363,4.018030173241175,-12.328137447900453,-0.42371015826489905,0.7306725910531511,0.41852998990747414,-0.24907702985260444,0.15666509423958594,4.070004946031827,4.012111176364044,-12.36233634674339,-12.394336624358177,4.5434253203285415,-0.9009323519023992
18.00388193130493,0.0778975710272789,0.09020615369081497,-9.102270126342773,-0.13898691566827812,0.003142118453979492,0.12282299995422363,4.010985311018376,-12.3123293083165,-0.44371015826489907,0.7307181591919905,0.4439353398478336,-0.250148699026921,0.1532368627657098,4.077427720454774,3.996837776845165,-12.34676019854533,-12.393343575138625,4.5434253203285415,-0.9009323519023992
18.013824701309204,0.0830579325556755,0.08546076714992523,-9.083418846130371,-0.14022349173120763,0.0032749176025390625,0.12282299995422363,4.0032164251264,-12.294747088309073,-0.4637101582648991,0.7307554926641076,0.46674300400130275,-0.25011076819328,0.14879263099084658,4.08720880953304,3.977868245767108,-12.32710995531473,-12.393197088606408,4.5434253203285415,-0.9009323519023992
18.023869037628174,0.09144841134548187,0.07996751368045807,-9.044870376586914,-0.1424855775602749,0.002996206283569336,0.12282299995422363,3.994716689199324,-12.275348204773673,-0.4837101582648991,0.7317641049875395,0.4017033579780471,-0.2500200470414341,0.14255478023717422,4.1002883782680914,3.9542318477540763,-12.302546904590509,-12.394673935617975,4.5434253203285415,-0.9009323519023992
18.033851385116577,0.09549061954021454,0.07741248607635498,-9.025644302368164,-0.14351130850846744,0.0030269622802734375,0.12282299995422363,3.985481575724516,-12.254087756703012,-0.5037101582648991,0.7318183033604546,0.40930384322295743,-0.24999692989653677,0.1433389952149615,4.118083188344698,3.9244844540929265,-12.2719089947893,-12.398868775056616,4.405256437559663,-0.7944885744563299
18.17678141593933,0.09549061954021454,0.07741248607635498,-9.025644302368164,-0.14351130850846744,0.0031583309173583984,0.13437819480895996,3.9755089978944733,-12.23091863804075,-0.5237101582648991,0.7192458072411739,1.0,-0.24925146660439887,0.14307400644860474,4.142718199331394,3.886477265926207,-12.233599251195782,-12.4073058891817,4.405256437559663,-0.7944885744563299
18.188321113586426,0.1565394103527069,0.06072801724076271,-8.645164489746094,-0.1554685346610699,0.0030524730682373047,0.13437819480895996,3.96479944589589,-12.205791657960809,-0.5437101582648991,0.7373703797468714,-0.9936797110985394,-0.18920710230019763,-0.034110645920480964,4.177350636858915,3.837033062859991,-12.18547856448984,-12.422046563937384,4.40763809656164,-1.235683283111129
18.19549870491028,0.1565394103527069,0.06072801724076271,-8.645164489746094,-0.1554685346610699,0.003347635269165039,0.13437819480895996,3.9533561173041694,-12.178655668233176,-0.5637101582648991,0.7362572161848251,-0.9264049090644313,-0.19983216842890553,0.09843907009758396,4.2266224242338915,3.7714940796757306,-12.123687068802075,-12.446867896707762,4.40763809656164,-1.235683283111129
18.204548120498657,0.1587069034576416,0.06193505972623825,-8.626300811767578,-0.15568742170419253,0.0030651092529296875,0.13437819480895996,3.9411850412742324,-12.1494576973243,-0.5837101582648991,0.7361877156098919,-0.9750987411948251,-0.1989224388709298,0.15531885705934909,4.297306660798189,3.6830758270218418,-12.042241765453385,-12.487665374800645,4.40763809656164,-1.235683283111129
18.213743686676025,0.16080434620380402,0.0633077472448349,-8.60743236541748,-0.15588447033562378,0.0030205249786376953,0.13437819480895996,3.928295196241373,-12.118143090869049,-0.6037101582648992,0.7361099189083071,-1.0,-0.19435940790988082,0.1815456162732825,4.398892962555856,3.562282039790452,-11.931789557620178,-12.553700058818793,4.40763809656164,-1.235683283111129
18.223958253860474,0.1647958904504776,0.06655718386173248,-8.569669723510742,-0.15623588759746038,0.003106832504272461,0.13437819480895996,3.9146986208689643,-12.084655658141717,-0.6229897673643119,0.7368116873465623,-1.0,-0.1870012726929268,0.1916651420611436,4.543818820715305,3.396673596801866,-11.777157310223014,-12.660048755987377,4.40763809656164,-1.235683283111129
18.234036922454834,0.16669242084026337,0.0684441551566124,-8.55080509185791,-0.15637377420895454,0.0031232833862304688,0.13437819480895996,4.025909816135208,-12.415391160564862,-0.349948289590125,0.7365318076007678,-1.0,-0.18252052948074407,0.1936873140404112,4.056667519358425,3.9983213900399903,-12.403737496222387,-12.436211674771197,4.2887316350003255,-0.7699855564307814
18.243680238723755,0.16852417588233948,0.07051379233598709,-8.53195571899414,-0.15645615923664166,0.0032749176025390625,0.13437819480895996,4.022246480740938,-12.405038009973929,-0.369948289590125,0.7362321157292805,-1.0,-0.17938245176969403,0.19303725825750842,4.06484123754133,3.9834811449884877,-12.386808545382411,-12.434018551583437,4.2887316350003255,-0.7699855564307814
18.253857135772705,0.17029273509979248,0.07276848703622818,-8.51312255859375,-0.15647017392998194,0.0032567977905273438,0.13437819480895996,4.017910880890967,-12.393077324484128,-0.389948289590125,0.7359555536463869,-1.0,-0.17732130102946297,0.19149429597931614,4.075455462774911,3.964871895800135,-12.365809406794506,-12.432711855040358,4.2887316350003255,-0.7699855564307814
18.3859965801239,0.17963217198848724,0.13629461824893951,-8.233405113220215,-0.15006121434187109,0.0032196044921875,0.12225794792175293,4.012888196298941,-12.379475732421477,-0.409948289590125,0.7392815815427831,-0.7767565267423032,-0.1920575211245361,0.1771655511229143,4.089480342610381,3.9414922252657316,-12.339888387927138,-12.433079278896718,4.2887316350003255,-0.7699855564307814
18.395533561706543,0.1801653653383255,0.15472412109375,-8.177230834960938,-0.14775591785910586,0.005216121673583984,0.12225794792175293,4.007165357939907,-12.364197174937768,-0.42994828959012504,0.7405556776146802,-0.8416103805519162,-0.19689497646341608,0.17519230336907957,4.108375165413287,3.9118549152885844,-12.30786131523496,-12.43623554630406,4.257761450906151,-0.688393144491795
18.405595541000366,0.1801653653383255,0.15472412109375,-8.177230834960938,-0.14775591785910586,0.003154754638671875,0.12225794792175293,4.000731207759531,-12.347202989854345,-0.44994828959012506,0.7397284850897727,-0.8383189613779756,-0.19757927499792247,0.17710957562833912,4.134325316200446,3.8737503143512697,-12.26809565926193,-12.443738443649412,4.257761450906151,-0.688393144491795
18.41505479812622,0.1803133636713028,0.16976845264434814,-8.13920783996582,-0.1459747052929401,0.004221916198730469,0.12225794792175293,3.9935766541776965,-12.328452004054267,-0.4699482895901251,0.7403410518086717,-0.87745890430856,-0.1997039443953098,0.17718886445093293,4.170572467482196,3.8239164619913586,-12.218398893992076,-12.457700637507976,4.257761450906151,-0.688393144491795
18.424910068511963,0.1803133636713028,0.16976845264434814,-8.13920783996582,-0.1459747052929401,0.003104686737060547,0.12225794792175293,3.9856948229758777,-12.307900634142753,-0.4899482895901251,0.7395212523794018,-0.8748719113839815,-0.1999576178619095,0.17846684332679272,4.221873223144167,3.75758075141072,-12.15481532436969,-12.481993040248035,4.257761450906151,-0.688393144491795
18.43812584877014,0.1803133636713028,0.16976845264434814,-8.13920783996582,-0.1459747052929401,0.0051119327545166016,0.12225794792175293,3.97708120317836,-12.285502995076868,-0.5099482895901251,0.738701138619848,-0.872266468488775,-0.19995892929920844,0.179158300904461,4.295157410770702,3.6678019340155377,-12.071154979100793,-12.522716126596606,4.229554214929568,-0.7739615131963936
18.45316743850708,0.17978988587856293,0.20851339399814606,-8.044695854187012,-0.14105017396611524,0.004208087921142578,0.12225794792175293,3.967733787558746,-12.261211016448126,-0.5299482895901251,0.7412821656230923,-0.9388516421206212,-0.202906805698386,0.17627665744302654,4.400103135236531,3.5448953523017805,-11.957743241568089,-12.589450527717894,4.229554214929568,-0.7739615131963936
18.464107036590576,0.17978988587856293,0.20851339399814606,-8.044695854187012,-0.14105017396611524,0.0053784847259521484,0.12225794792175293,3.957653207425199,-12.23497456608606,-0.5499482895901251,0.7404857678210314,-0.938019298504764,-0.20326468773044862,0.17614908433871382,4.5493874870089055,3.376182506928661,-11.798875904114952,-12.697802216900257,4.229554214929568,-0.7739615131963936
18.475752115249634,0.17922313511371613,0.22438181936740875,-8.00713062286377,-0.13890494278521598,0.0033884048461914062,0.12225794792175293,3.946842861360355,-12.206741580636988,-0.5699482895901251,0.7410061902444969,-0.9521609076792863,-0.20292297762768027,0.17541234089339167,4.761947842741106,3.142730019728455,-11.569551720477637,-12.872670211394423,4.229554214929568,-0.7739615131963936
18.489561319351196,0.17797115445137024,0.2484690546989441,-7.951070785522461,-0.13550032003334964,0.005186319351196289,0.12225794792175293,4.02416119126491,-12.41041354848292,-0.359948289590125,0.7422161555352009,-0.9564684290055663,-0.20164981204785473,0.17300948819263176,4.056667519358425,3.9983213900399903,-12.403737496222387,-12.436211674771197,4.229554214929568,-0.7739615131963936
18.625391006469727,0.17797115445137024,0.2484690546989441,-7.951070785522461,-0.13550032003334964,0.002677440643310547,0.1225430965423584,4.020163679287524,-12.399260630917427,-0.379948289590125,0.7335119957583407,-1.0,-0.2013063635464145,0.17115012294259313,4.06484123754133,3.9834811449884877,-12.386808545382411,-12.434018551583437,4.229554214929568,-0.7739615131963936
18.634995222091675,0.16797302663326263,0.4040575623512268,-7.631666660308838,-0.11256271257812869,0.0031707286834716797,0.1225430965423584,4.015486283938057,-12.386483833411924,-0.399948289590125,0.7435768190675753,-0.7727164212405003,-0.17978366237927576,0.1616530154911312,4.075455462774911,3.964871895800135,-12.365809406794506,-12.432711855040358,4.143122868414094,-1.4245475103333072
18.643685340881348,0.16701555252075195,0.4130587577819824,-7.613256454467773,-0.11103184431165347,0.0030875205993652344,0.1225430965423584,4.010115040350937,-12.372048430769507,-0.41994828959012503,0.7434455879435647,-0.8059632482624979,-0.17404263801151432,0.15386449699428678,4.089480342610381,3.9414922252657316,-12.339888387927138,-12.433079278896718,4.143122868414094,-1.4245475103333072
18.65405559539795,0.1662437915802002,0.42290133237838745,-7.594705581665039,-0.1094831880447824,0.003202199935913086,0.1225430965423584,4.00403781527586,-12.355917051455666,-0.43994828959012505,0.7432649919662279,-0.845720608783628,-0.17058445387056906,0.14536487748117619,4.108375165413287,3.9118549152885844,-12.30786131523496,-12.43623554630406,4.143122868414094,-1.4245475103333072
18.66385316848755,0.1654244363307953,0.43264761567115784,-7.57620906829834,-0.10795040750796342,0.003489971160888672,0.1225430965423584,3.997244464736779,-12.338049765750021,-0.45994828959012507,0.7430844320882622,-0.8855703795827481,-0.16684532240316877,0.13956287267529513,4.134325316200446,3.8737503143512697,-12.26809565926193,-12.443738443649412,4.143122868414094,-1.4245475103333072
18.67375874519348,0.16364635527133942,0.4518359899520874,-7.539370059967041,-0.10483729431528854,0.0029909610748291016,0.1225430965423584,3.989726987277445,-12.318404182308857,-0.4799482895901251,0.7436498060614097,-0.8720738345149596,-0.16154405740936856,0.1327381017514311,4.170572467482196,3.8239164619913586,-12.218398893992076,-12.457700637507976,4.143122868414094,-1.4245475103333072
18.683841466903687,0.1626894474029541,0.4612703025341034,-7.521024227142334,-0.10326397034942132,0.003383636474609375,0.1225430965423584,3.9814796723931214,-12.296935552848694,-0.4999482895901251,0.7434913983665269,-0.9091255245164527,-0.15738022847033611,0.1290913752747768,4.221873223144167,3.75758075141072,-12.15481532436969,-12.481993040248035,4.143122868414094,-1.4245475103333072
18.69392156600952,0.16168466210365295,0.47058698534965515,-7.502743244171143,-0.10168327171239207,0.005854129791259766,0.1225430965423584,3.9724992437691578,-12.273596884642986,-0.5199482895901251,0.743314233703534,-0.9470920234714117,-0.15491566164608542,0.12056380749299551,4.295157410770702,3.6678019340155377,-12.071154979100793,-12.522716126596606,4.143122868414094,-1.4245475103333072
18.706090450286865,0.16168466210365295,0.47058698534965515,-7.502743244171143,-0.10168327171239207,0.003143787384033203,0.1225430965423584,3.962784996968785,-12.2483390605076,-0.5399482895901251,0.7424349832667362,-1.0,-0.15269894470993006,0.11756305950714359,4.400103135236531,3.5448953523017805,-11.957743241568089,-12.589450527717894,4.143122868414094,-1.4245475103333072
18.715410709381104,0.15841162204742432,0.4978165924549103,-7.4481987953186035,-0.09692097409336356,0.0057315826416015625,0.1225430965423584,3.9523389312347827,-12.221110965936026,-0.5599482895901251,0.7436383275021702,-0.9618367356794777,-0.14707291335828576,0.1088078681186625,4.5493874870089055,3.376182506928661,-11.798875904114952,-12.697802216900257,4.143122868414094,-1.4245475103333072
18.726750373840332,0.15841162204742432,0.4978165924549103,-7.4481987953186035,-0.09692097409336356,0.0033206939697265625,0.1225430965423584,3.941165875092333,-12.191859623032153,-0.5799482895901251,0.7427783596438827,-1.0,-0.1433426643091645,0.11063999989480788,4.761947842741106,3.142730019728455,-11.569551720477637,-12.872670211394423,4.143122868414094,-1.4245475103333072
