time,x,y,z,yaw,ctrl_comp_time,rollout_comptime,y_ref,z_ref,yaw_ref,throttle,roll_rate,pitch_rate,yaw_rate,save_tube_pyH,save_tube_pyL,save_tube_pzH,save_tube_pzL,wy,wz
15.008002042770386,0.011879240162670612,-2.4544920921325684,-3.748725175857544,0.017421911186597517,0.19154620170593262,0.12161397933959961,-2.4535510269333325,-3.742249617502808,0.1213794549629223,0.45731742247105533,0.9992074358163868,0.025782941988447924,-0.013573477324470977,-2.4141086093695345,-2.493069767547376,-3.7035943506675544,-3.7830840887966204,0.10379886224345514,-2.150617795656915
15.46513843536377,0.011879240162670612,-2.4544920921325684,-3.748725175857544,0.017421911186597517,0.154923677444458,0.12161397933959961,-2.4531967034293976,-3.7398264401650536,0.1413794549629223,0.457083053599303,1.0,0.0554444196952964,-0.06486429761248962,-2.3948804641838053,-2.511965439123064,-3.6826857032632923,-3.7994726860600103,0.10379886224345514,-2.150617795656915
15.61246109008789,0.019684573635458946,-2.4520318508148193,-3.7385027408599854,-0.02616282098819033,0.0029866695404052734,0.0665132999420166,-2.4524167469410223,-3.737066963514828,0.16137945496292233,0.45722590663002327,0.5589880261050506,0.18056784806070844,-0.16276064822737452,-2.367033316575489,-2.538694766501548,-3.6537642913751274,-3.8232150233131263,0.3082085565273768,0.12525650295181867
15.62078332901001,0.019684573635458946,-2.4520318508148193,-3.7385027408599854,-0.02616282098819033,0.002264261245727539,0.0665132999420166,-2.451145511357481,-3.7339553801172545,0.18137945496292235,0.4569913209311439,0.6436310727784418,0.3140856722534257,-0.2982066423077648,-2.325679372311738,-2.578013878732238,-3.612312111325521,-3.8588004679753865,1.3433981660356902,-1.3528313619827945
15.627148151397705,0.019684573635458946,-2.4520318508148193,-3.7385027408599854,-0.02616282098819033,0.0024018287658691406,0.0665132999420166,-2.4493178018058472,-3.730472897335256,0.20137945496292237,0.4567561854093998,0.7324209743350271,0.459859970577398,-0.5378615752561847,-2.2623296946927103,-2.638280845314177,-3.5503811635962492,-3.9141424213514746,1.3433981660356902,-1.3528313619827945
15.636761903762817,0.020390378311276436,-2.4510457515716553,-3.73799204826355,-0.028203759081226642,0.002468109130859375,0.0665132999420166,-2.4468689802119066,-3.7265977319546217,0.22137945496292238,0.4562979192663199,0.7973512445488984,0.5619019794041786,-0.6689307876280924,-2.162795422464168,-2.733554667997094,-3.454580062324633,-4.002591694279147,1.3433981660356902,-1.3528313619827945
15.646923065185547,0.020390378311276436,-2.4510457515716553,-3.73799204826355,-0.028203759081226642,0.0029516220092773438,0.0665132999420166,-2.4437350721262194,-3.722305108978504,0.2413794549629224,0.4560624118836475,0.8945643682615694,0.633331385582925,-0.7344653938140462,-2.006284343120748,-2.884498919913088,-3.3015855990606804,-4.147424936771331,1.3433981660356902,-1.3528313619827945
15.657736539840698,0.02099357172846794,-2.450340509414673,-3.7378690242767334,-0.029474452557375918,0.0027816295623779297,0.0665132999420166,-2.4398528746216996,-3.7175672646678333,0.2613794549629224,0.45526910096202633,1.0,0.6833319699080476,-0.7672326969070231,-1.7632461081229174,-3.1205367451321373,-3.0559648909141246,-4.384022491686085,1.3433981660356902,-1.3528313619827945
15.788380146026611,0.02099357172846794,-2.450340509414673,-3.7378690242767334,-0.029474452557375918,0.00272369384765625,0.12048149108886719,-2.435160065065972,-3.712353453894469,0.28137945496292244,0.45669923663984724,1.0,0.7183323789356333,-0.7836163484535116,-1.383350409041367,-3.4918728992371726,-2.671901385121132,-4.758142400537967,1.3433981660356902,-1.3528313619827945
15.799001693725586,0.02395772561430931,-2.44498610496521,-3.739389181137085,-0.04007416340511566,0.002551555633544922,0.12048149108886719,-2.4295953105691384,-3.706629961864143,0.30137945496292246,0.45563859581109223,1.0,0.7428326652549433,-0.7918081742267559,-0.7837579853812515,-4.081222959770097,-2.066759790202214,-5.352355491403174,-0.5468286123940271,-2.2378758938264163
15.807767391204834,0.02450386807322502,-2.4441304206848145,-3.739800214767456,-0.04129655820398034,0.0026938915252685547,0.12048149108886719,-2.4230983779054474,-3.7003601202564282,0.3203374831909965,0.4550015465890199,1.0,0.7599828656784603,-0.795904087113378,0.17326183882280863,-5.026196009056827,-1.1024153148606997,-6.304716167873414,-0.5468286123940271,-2.2378758938264163
15.81692910194397,0.02450386807322502,-2.4441304206848145,-3.739800214767456,-0.04129655820398034,0.002759218215942383,0.12048149108886719,-2.4155960051615297,-3.69352115449393,0.33446984849073896,0.45476665521429294,1.0,0.7719880059749222,-0.797952043556689,1.7207100696455098,-6.559666787428017,0.45466693113110546,-7.8486905851745865,-0.5468286123940271,-2.2378758938264163
15.826714277267456,0.02524724043905735,-2.441972255706787,-3.7407095432281494,-0.04347155914042858,0.0026798248291015625,0.12048149108886719,-2.4534229516534345,-3.7410791946616517,0.1313794549629223,0.4546135967443852,1.0,0.7803916041824456,-0.7989760217783446,-2.4141086093695345,-2.493069767547376,-3.7035943506675544,-3.7830840887966204,-0.5468286123940271,-2.2378758938264163
15.837062358856201,0.02524724043905735,-2.441972255706787,-3.7407095432281494,-0.04347155914042858,0.004970550537109375,0.12048149108886719,-2.4528640415385183,-3.7384896573441275,0.15137945496292232,0.45437898934222254,1.0,0.7862741229277119,-0.7994880108891723,-2.3948804641838053,-2.511965439123064,-3.6826857032632923,-3.7994726860600103,-0.5468286123940271,-2.2378758938264163
15.954559326171875,0.02524724043905735,-2.441972255706787,-3.7407095432281494,-0.04347155914042858,0.00454401969909668,0.10080623626708984,-2.4518466255219877,-3.735556289650454,0.17137945496292234,0.4562118721051497,1.0,0.7903918860493984,-0.7997440054445862,-2.367033316575489,-2.538694766501548,-3.6537642913751274,-3.8232150233131263,-0.5468286123940271,-2.2378758938264163
15.967998027801514,0.02035585790872574,-2.4255824089050293,-3.7410426139831543,-0.08162811300468331,0.0036897659301757812,0.10080623626708984,-2.450305270003444,-3.7322617924738624,0.19137945496292236,0.4583348097665052,-0.31082983591578595,0.7932743202345789,-0.7998720027222931,-2.325679372311738,-2.578013878732238,-3.612312111325521,-3.8588004679753865,2.4953937082395488,-1.272008716351945
15.978282451629639,0.017609642818570137,-2.419403553009033,-3.740201234817505,-0.09745356400496957,0.004343509674072266,0.10080623626708984,-2.448175045230631,-3.72858587830189,0.21137945496292238,0.45843506169435244,-0.7501130198897028,0.7952920241642052,-0.6901830840081193,-2.2623296946927103,-2.638280845314177,-3.5503811635962492,-3.9141424213514746,2.4953937082395488,-1.272008716351945
15.988811731338501,0.017609642818570137,-2.419403553009033,-3.740201234817505,-0.09745356400496957,0.003742218017578125,0.10080623626708984,-2.445391631516918,-3.724505267916006,0.2313794549629224,0.45822339079649776,-0.6537720458645149,0.7967044169149436,-0.44536788203357963,-2.162795422464168,-2.733554667997094,-3.454580062324633,-4.002591694279147,2.842026534085414,-2.6698992429456325
15.997237920761108,0.017609642818570137,-2.419403553009033,-3.740201234817505,-0.09745356400496957,0.004232645034790039,0.10080623626708984,-2.4418914266275276,-3.7199936913001057,0.2513794549629224,0.45800780221591375,-0.5531664282543538,0.7976930918404606,-0.5760029645909113,-2.006284343120748,-2.884498919913088,-3.3015855990606804,-4.147424936771331,2.842026534085414,-2.6698992429456325
16.00668239593506,0.017609642818570137,-2.419403553009033,-3.740201234817505,-0.09745356400496957,0.004319906234741211,0.10080623626708984,-2.43761165413927,-3.715021892829551,0.27137945496292243,0.45778861563837114,-0.4482591445847155,0.7983851642883224,-0.5989634071708133,-1.7632461081229174,-3.1205367451321373,-3.0559648909141246,-4.384022491686085,2.842026534085414,-2.6698992429456325
16.017353296279907,0.015368384309113026,-2.414708137512207,-3.7393572330474854,-0.10847273735401096,0.004271030426025391,0.10080623626708984,-2.432490472575674,-3.709557640802696,0.29137945496292245,0.4587844739490322,-0.5928679578556262,0.7988696150018257,-0.6610101738654653,-1.383350409041367,-3.4918728992371726,-2.671901385121132,-4.758142400537967,2.842026534085414,-2.6698992429456325
16.02691125869751,0.015368384309113026,-2.414708137512207,-3.7393572330474854,-0.10847273735401096,0.005130290985107422,0.10080623626708984,-2.4264670851170096,-3.7035657413670586,0.31137945496292246,0.4585599334927186,-0.47950877834968786,0.799208730501278,-0.5759843150972904,-0.7837579853812515,-4.081222959770097,-2.066759790202214,-5.352355491403174,2.842026534085414,-2.6698992429456325
16.163936853408813,-0.018891070038080215,-2.369372844696045,-3.7237915992736816,-0.1886121239151539,0.0046312808990478516,0.11762523651123047,-2.419478358891254,-3.6970118270217425,0.3280138066716594,0.4678016162381724,0.43322195511071504,0.673014672419194,-0.6149876543252487,0.17326183882280863,-5.026196009056827,-1.1024153148606997,-6.304716167873414,2.842026534085414,-2.6698992429456325
16.175124168395996,-0.018891070038080215,-2.369372844696045,-3.7237915992736816,-0.1886121239151539,0.003070831298828125,0.11762523651123047,-2.4114412797662683,-3.689889033410966,0.3397654660052195,0.467631138344227,0.5891772792640282,0.5930844821123531,-0.7074938271626244,1.7207100696455098,-6.559666787428017,0.45466693113110546,-7.8486905851745865,2.938663736434064,0.4878612003406966
16.18384885787964,-0.030886748805642128,-2.356935501098633,-3.7179064750671387,-0.20483182978190462,0.0030393600463867188,0.11762523651123047,-2.457701648026439,-3.7450970747184043,0.06517965533121069,0.4696233435954975,0.7991704093880797,0.4958954281794908,-0.7537469135813122,-2.448141038362242,-2.466584199372074,-3.7364410060934574,-3.7551827414021717,2.938663736434064,0.4878612003406966
16.193193197250366,-0.030886748805642128,-2.356935501098633,-3.7179064750671387,-0.20483182978190462,0.0032575130462646484,0.11762523651123047,-2.4582433301934343,-3.7434428193755096,0.08517965533121068,0.4694656669899825,0.9651933489683986,0.4253946040549954,-0.775934422807863,-2.441812626486804,-2.4741833582256456,-3.727857729232486,-3.76075736779529,0.5097261766904673,-0.7055366263500791
16.201311826705933,-0.030886748805642128,-2.356935501098633,-3.7179064750671387,-0.20483182978190462,0.003254413604736328,0.11762523651123047,-2.458547707626632,-3.7414849370930456,0.10517965533121067,0.4693120279092473,1.0,0.37114084412302445,-0.7763558719853464,-2.4324071625688006,-2.4844515191211043,-3.7161552084573897,-3.76884925005455,0.5097261766904673,-0.7055366263500791
16.210423231124878,-0.040109891444444656,-2.3480865955352783,-3.713836908340454,-0.21623943310662594,0.003371000289916992,0.11762523651123047,-2.4585482813564368,-3.739215963356588,0.12517965533121067,0.46955295282402265,1.0,0.29398134481476,-0.7173539904626776,-2.4188667832077315,-2.498313458664013,-3.700453207190734,-3.780326629090087,0.5097261766904673,-0.7055366263500791
16.21871590614319,-0.040109891444444656,-2.3480865955352783,-3.713836908340454,-0.21623943310662594,0.003610372543334961,0.11762523651123047,-2.458178715642209,-3.736625485402041,0.1451796553312107,0.4694159700886835,1.0,0.20916735647844906,-0.6100764016768596,-2.399486301242953,-2.5173415043453806,-3.6792676235782937,-3.796655734127727,0.5097261766904673,-0.7055366263500791
16.337149143218994,-0.040109891444444656,-2.3480865955352783,-3.713836908340454,-0.21623943310662594,0.0034263134002685547,0.10754013061523438,-2.4573729387651815,-3.733700125527008,0.1651796553312107,0.4636479878662396,1.0,0.10714971255330688,-0.4550348439707372,-2.37141062255634,-2.5442583173923996,-3.6500220762413367,-3.820389159770385,0.5097261766904673,-0.7055366263500791
16.34774136543274,-0.120838962495327,-2.270285129547119,-3.678614377975464,-0.3021815483114832,0.003336191177368164,0.10754013061523438,-2.4560652456204335,-3.7304235282945757,0.18517965533121072,0.4696968213735274,-0.7028479070769043,-0.27377297834972597,-0.04408267534972903,-2.3297168558305295,-2.5838549864399702,-3.6081715787489443,-3.8560421620138645,1.5184997710013426,-0.5923971683863203
16.357081651687622,-0.14534899592399597,-2.2476892471313477,-3.6688332557678223,-0.32347761967630506,0.003312826156616211,0.10754013061523438,-2.454190401926027,-3.7267763517330894,0.20517965533121074,0.471143203955531,-1.0,-0.4316410848448082,0.24429826160168727,-2.265862776591592,-2.6445427703351934,-3.5457286759846487,-3.911566500259033,1.5184997710013426,-0.5923971683863203
16.366939783096313,-0.14534899592399597,-2.2476892471313477,-3.6688332557678223,-0.32347761967630506,0.005956888198852539,0.10754013061523438,-2.4516837498629664,-3.7227362626262535,0.22517965533121076,0.47095319093134047,-0.9789760499404538,-0.5421487593913658,0.3355584692961516,-2.165594027999505,-2.740446107243102,-3.449260358274433,-4.000353509651285,1.5184997710013426,-0.5923971683863203
16.383463621139526,-0.14534899592399597,-2.2476892471313477,-3.6688332557678223,-0.32347761967630506,0.004013538360595703,0.10754013061523438,-2.4484813149556124,-3.7182779359784686,0.24517965533121078,0.47076441834309823,-0.8270277412704681,-0.6195041315739561,0.42108765786803276,-2.00807925824284,-2.892267689820395,-3.2952433300728146,-4.145878827129857,1.5184997710013426,-0.5923971683863203
16.40129590034485,-0.19164183735847473,-2.205925226211548,-3.650315046310425,-0.3584117231762748,0.0045909881591796875,0.10754013061523438,-2.444519913998692,-3.713373058730772,0.2651796553312108,0.4729365494211627,-1.0,-0.6736528921017693,0.5772940123813616,-1.7636325374118766,-3.1295662631986256,-3.0481187513755796,-4.38364765317873,0.7808421060033965,0.8020427126219745
16.536930561065674,-0.19164183735847473,-2.205925226211548,-3.650315046310425,-0.3584117231762748,0.003696441650390625,0.12307071685791016,-2.4397372638339783,-3.7079903377930834,0.2851796553312108,0.4704942077508242,0.7867057906570397,-0.7115570244712385,0.5617518686189891,-1.381709064251839,-3.502761134984224,-2.6619430538093867,-4.75954394747,0.7808421060033965,0.8020427126219745
16.54809045791626,-0.3424135744571686,-2.0847654342651367,-3.5974526405334473,-0.39734069904687264,0.003241300582885742,0.12307071685791016,-2.4579979923562245,-3.7443075485138877,0.07517965533121068,0.47515886757942905,0.43018280314857416,-0.7380899171298669,0.6808759343094946,-2.448141038362242,-2.466584199372074,-3.7364410060934574,-3.7551827414021717,-0.8710359140539536,-2.778519579591031
16.557066440582275,-0.3692794740200043,-2.0641181468963623,-3.5886027812957764,-0.39449483369515487,0.0033223628997802734,0.12307071685791016,-2.4584293408449525,-3.7425022292559693,0.09517965533121067,0.47585624779430313,0.4283327942701326,-0.7566629419909069,0.7404379671547473,-2.441812626486804,-2.4741833582256456,-3.727857729232486,-3.76075736779529,-0.8710359140539536,-2.778519579591031
16.56712055206299,-0.3692794740200043,-2.0641181468963623,-3.5886027812957764,-0.39449483369515487,0.006523609161376953,0.12307071685791016,-2.458590120935872,-3.74038991814041,0.11517965533121066,0.4757290032131519,0.5045636544703032,-0.7696640593936349,0.7702189835773737,-2.4324071625688006,-2.4844515191211043,-3.7161552084573897,-3.76884925005455,-0.8710359140539536,-2.778519579591031
16.584117889404297,-0.3692794740200043,-2.0641181468963623,-3.5886027812957764,-0.39449483369515487,0.0048160552978515625,0.12307071685791016,-2.4584139027941667,-3.7379616788530097,0.13517965533121068,0.47560612662858903,0.5801024202973848,-0.7787648415755445,0.7851094917886868,-2.4188667832077315,-2.498313458664013,-3.700453207190734,-3.780326629090087,-0.8710359140539536,-2.778519579591031
16.714849710464478,-0.6085634827613831,-1.8757485151290894,-3.515773296356201,-0.3335862366694746,0.0033292770385742188,0.11640310287475586,-2.4578344699743697,-3.73520561800586,0.1551796553312107,0.4714688568296933,-1.0,-0.7851353891028812,0.7925547458943435,-2.399486301242953,-2.5173415043453806,-3.6792676235782937,-3.796655734127727,1.727965052307303,-1.4640583587429732
16.722851991653442,-0.6085634827613831,-1.8757485151290894,-3.515773296356201,-0.3335862366694746,0.0031228065490722656,0.11640310287475586,-2.45678592113525,-3.7321068703814033,0.17517965533121072,0.4712474271100776,-1.0,-0.7895947723720168,-0.22293467720309187,-2.37141062255634,-2.5442583173923996,-3.6500220762413367,-3.820389159770385,1.727965052307303,-1.4640583587429732
16.73167610168457,-0.6411029100418091,-1.850229024887085,-3.5065717697143555,-0.323244925492733,0.0033121109008789062,0.11640310287475586,-2.4552027734633928,-3.7286475881218397,0.19517965533121073,0.47007039779624893,-1.0,-0.7927163406604117,-0.0546227448190232,-2.3297168558305295,-2.5838549864399702,-3.6081715787489443,-3.8560421620138645,1.727965052307303,-1.4640583587429732
16.739808082580566,-0.6411029100418091,-1.850229024887085,-3.5065717697143555,-0.323244925492733,0.0033006668090820312,0.11640310287475586,-2.453020067621303,-3.7248069339628582,0.21517965533121075,0.46985750597517983,-1.0,-0.7949014384622882,-0.10529710213160716,-2.265862776591592,-2.6445427703351934,-3.5457286759846487,-3.911566500259033,1.727965052307303,-1.4640583587429732
16.748048305511475,-0.6411029100418091,-1.850229024887085,-3.5065717697143555,-0.323244925492733,0.0033178329467773438,0.11640310287475586,-2.4501734740316174,-3.720561078601335,0.23517965533121077,0.4696448165828696,-1.0,-0.7964310069236017,-0.08975536767160718,-2.165594027999505,-2.740446107243102,-3.449260358274433,-4.000353509651285,1.727965052307303,-1.4640583587429732
16.757396936416626,-0.6903914213180542,-1.8111169338226318,-3.4929263591766357,-0.3072908355241466,0.0033721923828125,0.11640310287475586,-2.446599400305251,-3.715883202277153,0.2551796553312108,0.4695889211417441,-1.0,-0.7975017048465213,-0.10057375809958506,-2.00807925824284,-2.892267689820395,-3.2952433300728146,-4.145878827129857,1.727965052307303,-1.4640583587429732
16.76731014251709,-0.6903914213180542,-1.8111169338226318,-3.4929263591766357,-0.3072908355241466,0.004031181335449219,0.11640310287475586,-2.4422350996180313,-3.710743500639692,0.2751796553312108,0.46938635701050324,-1.0,-0.7982511933925649,-0.0971113789447124,-1.7636325374118766,-3.1295662631986256,-3.0481187513755796,-4.38364765317873,1.727965052307303,-1.4640583587429732
16.878289461135864,-0.6903914213180542,-1.8111169338226318,-3.4929263591766357,-0.3072908355241466,0.003796815872192383,0.10026669502258301,-2.4370187798375413,-3.705109194959812,0.2951796553312108,0.4709367577271816,-0.46797808009323605,-0.7987758353747955,-0.09895306571680883,-1.381709064251839,-3.502761134984224,-2.6619430538093867,-4.75954394747,1.727965052307303,-1.4640583587429732
16.890010833740234,-0.8946145176887512,-1.6576179265975952,-3.4394242763519287,-0.25418370484571784,0.0035278797149658203,0.10026669502258301,-2.4582433301934343,-3.7434428193755096,0.08517965533121068,0.47289275409085774,-0.4471550543657765,-0.7991430847623568,0.0573709163119171,-2.448141038362242,-2.466584199372074,-3.7364410060934574,-3.7551827414021717,-2.6731446141137347,-4.1098572040548085
16.89863419532776,-0.8946145176887512,-1.6576179265975952,-3.4394242763519287,-0.25418370484571784,0.0034461021423339844,0.10026669502258301,-2.458547707626632,-3.7414849370930456,0.10517965533121067,0.4726783198368303,-0.40864863743331414,-0.7994001593336498,0.0314943929239127,-2.441812626486804,-2.4741833582256456,-3.727857729232486,-3.76075736779529,-2.6731446141137347,-4.1098572040548085
16.90837574005127,-0.9286577105522156,-1.6322680711746216,-3.4304707050323486,-0.24832265392925812,0.003509044647216797,0.10026669502258301,-2.4585482813564368,-3.739215963356588,0.12517965533121067,0.47087408155474,-0.2210018415695435,-0.7995801115335549,0.008232461174998908,-2.4324071625688006,-2.4844515191211043,-3.7161552084573897,-3.76884925005455,-2.6731446141137347,-4.1098572040548085
16.9171781539917,-0.9286577105522156,-1.6322680711746216,-3.4304707050323486,-0.24832265392925812,0.0036427974700927734,0.10026669502258301,-2.458178715642209,-3.736625485402041,0.1451796553312107,0.47064622303321835,-0.18445537040446147,-0.7997060780734885,0.1729156562333418,-2.4188667832077315,-2.498313458664013,-3.700453207190734,-3.780326629090087,-2.6731446141137347,-4.1098572040548085
16.927607774734497,-0.9799898862838745,-1.5943788290023804,-3.417181968688965,-0.24054941985465436,0.003723621368408203,0.10026669502258301,-2.4573729387651815,-3.733700125527008,0.1651796553312107,0.4720534470616624,0.08330659044872213,-0.7997942546514419,0.07243468722204749,-2.399486301242953,-2.5173415043453806,-3.6792676235782937,-3.796655734127727,-2.6731446141137347,-4.1098572040548085
16.93674325942993,-0.9799898862838745,-1.5943788290023804,-3.417181968688965,-0.24054941985465436,0.003625631332397461,0.10026669502258301,-2.4560652456204335,-3.7304235282945757,0.18517965533121072,0.4718063106347755,0.11802810855052526,-0.7998559782560094,0.3255963652354225,-2.37141062255634,-2.5442583173923996,-3.6500220762413367,-3.820389159770385,-2.6731446141137347,-4.1098572040548085
16.946738243103027,-0.9799898862838745,-1.5943788290023804,-3.417181968688965,-0.24054941985465436,0.003581523895263672,0.10026669502258301,-2.454190401926027,-3.7267763517330894,0.20517965533121074,0.47155681457717213,0.15191520824438687,-0.7998991847792066,0.2951397057656653,-2.3297168558305295,-2.5838549864399702,-3.6081715787489443,-3.8560421620138645,-2.6731446141137347,-4.1098572040548085
16.957176208496094,-1.0141997337341309,-1.5695234537124634,-3.408611297607422,-0.23590168523373262,0.003771543502807617,0.10026669502258301,-2.4516837498629664,-3.7227362626262535,0.22517965533121076,0.47174723712243216,0.2287310535360073,-0.7999294293454446,0.27185193399832935,-2.265862776591592,-2.6445427703351934,-3.5457286759846487,-3.911566500259033,-2.6731446141137347,-4.1098572040548085
17.0858051776886,-1.0141997337341309,-1.5695234537124634,-3.408611297607422,-0.23590168523373262,0.003510713577270508,0.11786508560180664,-2.4484813149556124,-3.7182779359784686,0.24517965533121078,0.46575440846905447,0.011822773640042472,-0.7999506005418112,0.34640029355439034,-2.165594027999505,-2.740446107243102,-3.449260358274433,-4.000353509651285,-2.6731446141137347,-4.1098572040548085
17.09670877456665,-1.2255220413208008,-1.414036512374878,-3.3529744148254395,-0.19551435920309934,0.003226757049560547,0.11786508560180664,-2.444519913998692,-3.713373058730772,0.2651796553312108,0.4680646877998027,0.2078773549761368,-0.7999654203792679,-0.07037367687066903,-2.00807925824284,-2.892267689820395,-3.2952433300728146,-4.145878827129857,1.7450184611974278,1.7520616582321376
17.107027530670166,-1.2714293003082275,-1.3805732727050781,-3.339155435562134,-0.18234117746858694,0.005761146545410156,0.11786508560180664,-2.4397372638339783,-3.7079903377930834,0.2851796553312108,0.47128039922177567,0.26690259434860797,-0.7999757942654875,0.28510503574360124,-1.7636325374118766,-3.1295662631986256,-3.0481187513755796,-4.38364765317873,1.7450184611974278,1.7520616582321376
17.119080543518066,-1.2714293003082275,-1.3805732727050781,-3.339155435562134,-0.18234117746858694,0.0037298202514648438,0.11786508560180664,-2.4340720907771454,-3.7020955124486927,0.30517965533121083,0.47093578046702633,0.28733612911820094,-0.7999830559858413,0.18114111842299827,-1.381709064251839,-3.502761134984224,-2.6619430538093867,-4.75954394747,1.7450184611974278,1.7520616582321376
17.12798547744751,-1.2714293003082275,-1.3805732727050781,-3.339155435562134,-0.18234117746858694,0.0035910606384277344,0.11786508560180664,-2.4584293408449525,-3.7425022292559693,0.09517965533121067,0.4705912538439828,0.30743786519063476,-0.7999881391900889,0.24505056208774442,-2.448141038362242,-2.466584199372074,-3.7364410060934574,-3.7551827414021717,1.7450184611974278,1.7520616582321376
17.13785219192505,-1.3156009912490845,-1.3484903573989868,-3.3251538276672363,-0.16863878890570808,0.003541231155395508,0.11786508560180664,-2.458590120935872,-3.74038991814041,0.11517965533121066,0.4702575869806572,0.432487182131432,-0.7999916974330623,0.21832369052752745,-2.441812626486804,-2.4741833582256456,-3.727857729232486,-3.76075736779529,1.7450184611974278,1.7520616582321376
17.266849517822266,-1.3156009912490845,-1.3484903573989868,-3.3251538276672363,-0.16863878890570808,0.0036356449127197266,0.11812114715576172,-2.4584139027941667,-3.7379616788530097,0.13517965533121068,0.4662547782293648,0.32818888817012837,-0.7999941882031437,0.3313893687222749,-2.4324071625688006,-2.4844515191211043,-3.7161552084573897,-3.76884925005455,1.7450184611974278,1.7520616582321376
17.278363943099976,-1.5077826976776123,-1.207039713859558,-3.2472543716430664,-0.10106098966863972,0.0034897327423095703,0.11812114715576172,-2.4578344699743697,-3.73520561800586,0.1551796553312107,0.4750209795564302,0.3830901807534495,-0.7999959317422006,0.1590703814926972,-2.4188667832077315,-2.498313458664013,-3.700453207190734,-3.780326629090087,-0.21016133836368978,0.6427707129172318
17.288572788238525,-1.5077826976776123,-1.207039713859558,-3.2472543716430664,-0.10106098966863972,0.003505229949951172,0.11812114715576172,-2.45678592113525,-3.7321068703814033,0.17517965533121072,0.47471118668326584,0.39849872390863583,-0.7999971522195404,0.26080357318353575,-2.399486301242953,-2.5173415043453806,-3.6792676235782937,-3.796655734127727,-0.5134659643791126,-2.085311004470088
17.29696798324585,-1.5077826976776123,-1.207039713859558,-3.2472543716430664,-0.10106098966863972,0.0034918785095214844,0.11812114715576172,-2.4552027734633928,-3.7286475881218397,0.19517965533121073,0.4744009548312492,0.4138794429906463,-0.7999980065536783,0.23346844963400198,-2.37141062255634,-2.5442583173923996,-3.6500220762413367,-3.820389159770385,-0.5134659643791126,-2.085311004470088
17.30726194381714,-1.5289455652236938,-1.190102458000183,-3.2358791828155518,-0.09257647466321407,0.004022121429443359,0.11812114715576172,-2.453020067621303,-3.7248069339628582,0.21517965533121075,0.47552282986028394,0.5512323583474978,-0.7999986045875748,0.2597263713616662,-2.3297168558305295,-2.5838549864399702,-3.6081715787489443,-3.8560421620138645,-0.5134659643791126,-2.085311004470088
17.436142921447754,-1.5289455652236938,-1.190102458000183,-3.2358791828155518,-0.09257647466321407,0.003561735153198242,0.11750388145446777,-2.4501734740316174,-3.720561078601335,0.23517965533121077,0.4706390698889824,0.4511044640100008,-0.7999990232113023,0.33018483650805924,-2.265862776591592,-2.6445427703351934,-3.5457286759846487,-3.911566500259033,-0.5134659643791126,-2.085311004470088
17.447057962417603,-1.6335188150405884,-1.0885710716247559,-3.1537740230560303,-0.03821750370644365,0.002582550048828125,0.11750388145446777,-2.446599400305251,-3.715883202277153,0.2551796553312108,0.47881884498786353,0.21212897435787764,-0.7999993162479117,0.27279873401641846,-2.165594027999505,-2.740446107243102,-3.449260358274433,-4.000353509651285,-1.9011820014570264,-0.12612633478256408
17.456749439239502,-1.6483333110809326,-1.0666581392288208,-3.133342742919922,-0.025823235697223862,0.0026416778564453125,0.11750388145446777,-2.4422350996180313,-3.710743500639692,0.2751796553312108,0.4814865845094327,0.029595202536836007,-0.7999995213735381,0.2215204474695239,-2.00807925824284,-2.892267689820395,-3.2952433300728146,-4.145878827129857,-1.9011820014570264,-0.12612633478256408
17.467228889465332,-1.6483333110809326,-1.0666581392288208,-3.133342742919922,-0.025823235697223862,0.0038967132568359375,0.11750388145446777,-2.4370187798375413,-3.705109194959812,0.2951796553312108,0.4811845902219536,0.04657954355363475,-0.7999996649614767,0.1771773347588716,-1.7636325374118766,-3.1295662631986256,-3.0481187513755796,-4.38364765317873,-1.9011820014570264,-0.12612633478256408
17.47761559486389,-1.6562608480453491,-1.0520929098129272,-3.118891477584839,-0.01724770241196895,0.0028138160705566406,0.11750388145446777,-2.430889713199585,-3.698944546738379,0.3151354425598045,0.481650663430802,-0.09632234841479997,-0.7999997654730336,0.1888467510607884,-1.381709064251839,-3.502761134984224,-2.6619430538093867,-4.75954394747,-1.9011820014570264,-0.12612633478256408
17.487005472183228,-1.6562608480453491,-1.0520929098129272,-3.118891477584839,-0.01724770241196895,0.0027375221252441406,0.11750388145446777,-2.458547707626632,-3.7414849370930456,0.10517965533121067,0.48134952184359014,-0.07931970240886888,-0.7999998358311236,0.17055841483629908,-2.448141038362242,-2.466584199372074,-3.7364410060934574,-3.7551827414021717,0.8497723750259878,-2.432463614858288
17.496891498565674,-1.6562608480453491,-1.0520929098129272,-3.118891477584839,-0.01724770241196895,0.0030438899993896484,0.11750388145446777,-2.4585482813564368,-3.739215963356588,0.12517965533121067,0.48104877367720134,-0.06233137214179385,-0.7999998850817865,0.17028980446110908,-2.441812626486804,-2.4741833582256456,-3.727857729232486,-3.76075736779529,0.8497723750259878,-2.432463614858288
17.613826513290405,-1.6669056415557861,-0.9686164855957031,-3.0231661796569824,0.03652493726738268,0.002592325210571289,0.10532307624816895,-2.458178715642209,-3.736625485402041,0.1451796553312107,0.4873771067159911,0.09158527670223922,-0.47942334992053004,0.37772588623234044,-2.4324071625688006,-2.4844515191211043,-3.7161552084573897,-3.76884925005455,0.8497723750259878,-2.432463614858288
17.622147798538208,-1.6669056415557861,-0.9686164855957031,-3.0231661796569824,0.03652493726738268,0.002459287643432617,0.10532307624816895,-2.4573729387651815,-3.733700125527008,0.1651796553312107,0.48708082266984065,0.10761895390009313,-0.2784323736860237,0.32613369343210086,-2.4188667832077315,-2.498313458664013,-3.700453207190734,-3.780326629090087,-0.21908080958265885,-1.637650439488337
17.628958702087402,-1.6669056415557861,-0.9686164855957031,-3.0231661796569824,0.03652493726738268,0.002443075180053711,0.10532307624816895,-2.4560652456204335,-3.7304235282945757,0.18517965533121072,0.48678516871275834,0.12347567992807792,-0.13539123243297482,0.2241747615148934,-2.399486301242953,-2.5173415043453806,-3.6792676235782937,-3.796655734127727,-0.21908080958265885,-1.637650439488337
17.636664628982544,-1.6588633060455322,-0.9482605457305908,-2.9962494373321533,0.04926268303533086,0.0023772716522216797,0.10532307624816895,-2.454190401926027,-3.7267763517330894,0.20517965533121074,0.4894704741212489,0.13158140935897336,0.07116817299728331,0.1497820110529845,-2.37141062255634,-2.5442583173923996,-3.6500220762413367,-3.820389159770385,-0.21908080958265885,-1.637650439488337
17.64685297012329,-1.6588633060455322,-0.9482605457305908,-2.9962494373321533,0.04926268303533086,0.0023703575134277344,0.10532307624816895,-2.4516837498629664,-3.7227362626262535,0.22517965533121076,0.4891769107936794,0.1470702542872433,0.21949186506521043,0.057476965647902445,-2.3297168558305295,-2.5838549864399702,-3.6081715787489443,-3.8560421620138645,-0.21908080958265885,-1.637650439488337
17.656956911087036,-1.6465227603912354,-0.9279009103775024,-2.967776298522949,0.061576177371425386,0.002534627914428711,0.10532307624816895,-2.4484813149556124,-3.7182779359784686,0.24517965533121078,0.49282642012268085,0.11310714965060309,0.39364430554564733,-0.019565103913864977,-2.265862776591592,-2.6445427703351934,-3.5457286759846487,-3.911566500259033,-0.21908080958265885,-1.637650439488337
17.6666738986969,-1.6465227603912354,-0.9279009103775024,-2.967776298522949,0.061576177371425386,0.0023810863494873047,0.10532307624816895,-2.444519913998692,-3.713373058730772,0.2651796553312108,0.4925351615777188,0.12821236107047257,0.5155510138819531,-0.08716893177984752,-2.165594027999505,-2.740446107243102,-3.449260358274433,-4.000353509651285,-0.21908080958265885,-1.637650439488337
17.676914930343628,-1.636023998260498,-0.9140871167182922,-2.9478700160980225,0.06969936450751779,0.002248525619506836,0.10532307624816895,-2.4397372638339783,-3.7079903377930834,0.2851796553312108,0.49471246667980784,0.06783071220314926,0.6008857097173672,-0.14322647995501006,-2.00807925824284,-2.892267689820395,-3.2952433300728146,-4.145878827129857,-0.21908080958265885,-1.637650439488337
17.68684434890747,-1.636023998260498,-0.9140871167182922,-2.9478700160980225,0.06969936450751779,0.0024254322052001953,0.10532307624816895,-2.4340720907771454,-3.7020955124486927,0.30517965533121083,0.4944230368613286,0.08253975858439569,0.6606199968021571,-0.1776730080081852,-1.7636325374118766,-3.1295662631986256,-3.0481187513755796,-4.38364765317873,0.9564434902899137,0.28600917003017967
17.76553249359131,-1.636023998260498,-0.9140871167182922,-2.9478700160980225,0.06969936450751779,0.0025932788848876953,0.07026100158691406,-2.4274640948961506,-3.6956515226299715,0.3237598015755922,0.4829229375550189,0.14813198155222101,0.7024339977615099,-0.20427396452110216,-1.381709064251839,-3.502761134984224,-2.6619430538093867,-4.75954394747,0.9564434902899137,0.28600917003017967
17.773633003234863,-1.5764820575714111,-0.8588542938232422,-2.863192319869995,0.09126361066352165,0.0036504268646240234,0.07026100158691406,-2.458590120935872,-3.74038991814041,0.11517965533121066,0.4905816973773095,-0.11823749846744608,0.731703798433057,-0.24126931589136436,-2.448141038362242,-2.466584199372074,-3.7364410060934574,-3.7551827414021717,0.9564434902899137,0.28600917003017967
17.785707712173462,-1.5471941232681274,-0.8382618427276611,-2.8293848037719727,0.09199814337890642,0.003327608108520508,0.07026100158691406,-2.4584139027941667,-3.7379616788530097,0.13517965533121068,0.49295146084968966,-0.16723749739890942,0.7521926589031399,-0.20639135135292533,-2.441812626486804,-2.4741833582256456,-3.727857729232486,-3.76075736779529,0.9564434902899137,0.28600917003017967
17.795185565948486,-1.5471941232681274,-0.8382618427276611,-2.8293848037719727,0.09199814337890642,0.0031158924102783203,0.07026100158691406,-2.4578344699743697,-3.73520561800586,0.1551796553312107,0.49266614553695853,-0.15762389565420915,0.7665348612321979,-0.1758816235065385,-2.4324071625688006,-2.4844515191211043,-3.7161552084573897,-3.76884925005455,-0.8446231378818243,-4.0839476730667545
17.802839517593384,-1.5471941232681274,-0.8382618427276611,-2.8293848037719727,0.09199814337890642,0.0031850337982177734,0.07026100158691406,-2.45678592113525,-3.7321068703814033,0.17517965533121072,0.4923815211064242,-0.14807450517483828,0.7765744028625385,-0.16129069327735218,-2.4188667832077315,-2.498313458664013,-3.700453207190734,-3.780326629090087,-0.8446231378818243,-4.0839476730667545
17.81181788444519,-1.5254583358764648,-0.8247148990631104,-2.806399345397949,0.09041873583254115,0.0032367706298828125,0.07026100158691406,-2.4552027734633928,-3.7286475881218397,0.19517965533121073,0.49488848234916283,-0.26038838246258117,0.783602082003777,-0.14747035763096927,-2.399486301242953,-2.5173415043453806,-3.6792676235782937,-3.796655734127727,-0.8446231378818243,-4.0839476730667545
17.819826126098633,-1.5254583358764648,-0.8247148990631104,-2.806399345397949,0.09041873583254115,0.0033898353576660156,0.07026100158691406,-2.453020067621303,-3.7248069339628582,0.21517965533121075,0.49460616071820074,-0.2510801001569865,0.7885214574026439,-0.11476900794849128,-2.37141062255634,-2.5442583173923996,-3.6500220762413367,-3.820389159770385,-0.8446231378818243,-4.0839476730667545
17.828033447265625,-1.5254583358764648,-0.8247148990631104,-2.806399345397949,0.09041873583254115,0.003289461135864258,0.07026100158691406,-2.4501734740316174,-3.720561078601335,0.23517965533121077,0.4943245703345265,-0.2418462343212956,0.7919650201818508,-0.09917345616505607,-2.3297168558305295,-2.5838549864399702,-3.6081715787489443,-3.8560421620138645,-0.8446231378818243,-4.0839476730667545
17.83760094642639,-1.4894378185272217,-0.8043453097343445,-2.7709527015686035,0.08530265261493342,0.0027484893798828125,0.07026100158691406,-2.446599400305251,-3.715883202277153,0.2551796553312108,0.4978111549425359,-0.20941867916614842,0.7943755141272956,-0.08463993722494857,-2.265862776591592,-2.6445427703351934,-3.5457286759846487,-3.911566500259033,-0.8446231378818243,-4.0839476730667545
17.846769332885742,-1.4894378185272217,-0.8043453097343445,-2.7709527015686035,0.08530265261493342,0.002882719039916992,0.07026100158691406,-2.4422350996180313,-3.710743500639692,0.2751796553312108,0.49753207082208684,-0.20034450739288973,0.7960628598891069,-0.08447429844211438,-2.165594027999505,-2.740446107243102,-3.449260358274433,-4.000353509651285,-0.8446231378818243,-4.0839476730667545
17.85676121711731,-1.4630799293518066,-0.7910400032997131,-2.7469608783721924,0.08039131949772627,0.0028052330017089844,0.07026100158691406,-2.4370187798375413,-3.705109194959812,0.2951796553312108,0.496897973062291,-0.1502640033349486,0.7972440019223748,-0.07916021420037746,-2.00807925824284,-2.892267689820395,-3.2952433300728146,-4.145878827129857,-0.8446231378818243,-4.0839476730667545
17.8670175075531,-1.4630799293518066,-0.7910400032997131,-2.7469608783721924,0.08039131949772627,0.005260467529296875,0.07026100158691406,-2.430889713199585,-3.698944546738379,0.3151354425598045,0.49662032310444804,-0.14136234899833575,0.7980708013456623,-0.08933034355176085,-1.7636325374118766,-3.1295662631986256,-3.0481187513755796,-4.38364765317873,-0.8446231378818243,-4.0839476730667545
17.882715702056885,-1.4630799293518066,-0.7910400032997131,-2.7469608783721924,0.08039131949772627,0.005069255828857422,0.07026100158691406,-2.4237833628300165,-3.692216251237016,0.3311154581537692,0.49634344920533857,-0.13255117016384735,0.7986495609419636,-0.09718450370290775,-1.381709064251839,-3.502761134984224,-2.6619430538093867,-4.75954394747,-0.8446231378818243,-4.0839476730667545
17.993213415145874,-1.2535701990127563,-0.7094908356666565,-2.5905046463012695,0.03722688899354858,0.0025556087493896484,0.09249281883239746,-2.440457950461759,-3.7301199581449174,0.12454312836038245,0.4961973380702259,0.386103421386425,0.7990546926593746,-0.03361525539364271,-2.4018085333268386,-2.4811871604830484,-3.6910385854963046,-3.7714410565958296,0.07082230328099492,-4.499642764267162
18.00006675720215,-1.2535701990127563,-0.7094908356666565,-2.5905046463012695,0.03722688899354858,0.0024428367614746094,0.09249281883239746,-2.4380930775554384,-3.7276047510656127,0.14454312836038247,0.4959112049005153,0.39167424243001975,0.7993382848615622,-0.17451831885622132,-2.3803818400345853,-2.4982696480169873,-3.669652967344202,-3.7881646123670567,0.07082230328099492,-4.499642764267162
18.007972478866577,-1.1968293190002441,-0.6922765374183655,-2.555771827697754,0.026395130195644136,0.0026040077209472656,0.09249281883239746,-2.4352938643895796,-3.7247108786722927,0.16454312836038248,0.49473738089080643,0.5568134371532816,0.7995367994030935,-0.2345946870098227,-2.3501625283922225,-2.523341112361184,-3.6399601206475887,-3.8124520636826658,0.07082230328099492,-4.499642764267162
18.01676654815674,-1.1968293190002441,-0.6922765374183655,-2.555771827697754,0.026395130195644136,0.002628803253173828,0.09249281883239746,-2.431995555875238,-3.7214221238083756,0.1845431283603825,0.49445312314471523,0.5621823547467448,0.7996757595821655,-0.3228448166998798,-2.3061407736363515,-2.5612814809635087,-3.5973564082434013,-3.8488775735974317,0.07082230328099492,-4.499642764267162
18.026739597320557,-1.157951831817627,-0.681247353553772,-2.533064365386963,0.01962827497969464,0.0023267269134521484,0.09249281883239746,-2.4281338620893056,-3.717719302876705,0.20454312836038252,0.4956438588520734,0.5512157549766956,0.7997730317075159,-0.34798850416730065,-2.239645453404915,-2.6206328050408265,-3.533787826528011,-3.905459746701587,0.07082230328099492,-4.499642764267162
18.03689193725586,-1.157951831817627,-0.681247353553772,-2.533064365386963,0.01962827497969464,0.0025146007537841797,0.09249281883239746,-2.423645063490584,-3.713580260935329,0.22454312836038254,0.4953621188018563,0.5563970885328589,0.7998411221952612,-0.3541341691573217,-2.136265078341395,-2.715678538016395,-3.4356031597074645,-3.995808460959082,0.07082230328099492,-4.499642764267162
18.04686188697815,-1.157951831817627,-0.681247353553772,-2.533064365386963,0.01962827497969464,0.0022802352905273438,0.09249281883239746,-2.4184661173833457,-3.70897987095906,0.24454312836038256,0.4950814359281114,0.5614897418551013,0.7998887855366829,-0.3587589784446754,-1.9750670225363325,-2.867224516805972,-3.2797099942329964,-4.142968847609294,0.07082230328099492,-4.499642764267162
18.05683445930481,-1.0972528457641602,-0.6653178334236145,-2.4991695880889893,0.009304038765313216,0.0022454261779785156,0.09249281883239746,-2.4125347654347387,-3.7038900373424717,0.2645431283603826,0.4928114254795095,0.579578759557596,0.799922149875678,-0.3507844222395,-1.7263984593240465,-3.1047982400508807,-3.030150294460706,-4.382845718254196,0.07082230328099492,-4.499642764267162
18.066863536834717,-1.0972528457641602,-0.6653178334236145,-2.4991695880889893,0.009304038765313216,0.0022737979888916016,0.09249281883239746,-2.4057896420493194,-3.6982797037103308,0.2845431283603826,0.49253232013471937,0.5845037676251026,0.7999455049129747,-0.355665487682879,-1.3396247040840263,-3.4789107412580775,-2.6408314126445913,-4.761472566163471,0.07082230328099492,-4.499642764267162
18.07691764831543,-1.0559289455413818,-0.6546335816383362,-2.4770572185516357,0.002282341493627084,0.0022401809692382812,0.09249281883239746,-2.398170371128556,-3.692114880355644,0.3032355152773668,0.49504814679499975,0.621196041918914,0.7999618534390822,-0.3558047886939762,-0.7314739636784213,-4.072712056819674,-2.0287138361416015,-5.361823839041157,0.07082230328099492,-4.499642764267162
18.15203332901001,-1.0559289455413818,-0.6546335816383362,-2.4770572185516357,0.002282341493627084,0.002371549606323242,0.06612753868103027,-2.38960143300602,-3.6853809991391073,0.31697016262186894,0.4903507567663784,0.42610873217614353,0.7999732974073575,-0.3693495270445513,0.23635417533239686,-5.024374311647936,-1.0551037988468253,-6.322533261429583,-2.026344770184555,0.8161121453351416
18.15962839126587,-0.9046726822853088,-0.6202508211135864,-2.4033195972442627,-0.024001653806706436,0.002244234085083008,0.06612753868103027,-2.380001201008752,-3.678089938037204,0.326215385715118,0.48761408644514836,0.03065280516968283,0.7999813081851501,-0.28300157096078965,1.797371150588273,-6.5672406429514885,0.5140686522743223,-7.877676724882938,-2.026344770184555,0.8161121453351416
18.166674375534058,-0.9046726822853088,-0.6202508211135864,-2.4033195972442627,-0.024001653806706436,0.002346515655517578,0.06612753868103027,-2.439325744025785,-3.728908789855629,0.13454312836038246,0.4873522380079607,0.035380712188340324,0.7999869157296051,-0.09513428492642123,-2.4018085333268386,-2.4811871604830484,-3.6910385854963046,-3.7714410565958296,-2.026344770184555,0.8161121453351416
18.176822423934937,-0.8384753465652466,-0.6066592931747437,-2.3732759952545166,-0.035761722781372955,0.0022902488708496094,0.06612753868103027,-2.4367518203767022,-3.726206092165127,0.15454312836038248,0.4886524671264587,-0.028108798773197052,0.7999908410107236,-0.04617156667065707,-2.3803818400345853,-2.4982696480169873,-3.669652967344202,-3.7881646123670567,-2.026344770184555,0.8161121453351416
18.186837434768677,-0.8384753465652466,-0.6066592931747437,-2.3732759952545166,-0.035761722781372955,0.0022597312927246094,0.06612753868103027,-2.433711127299929,-3.723116990920416,0.1745431283603825,0.48839280832884024,-0.022958470518913587,0.7999935887075066,-0.006419584371807884,-2.3501625283922225,-2.523341112361184,-3.6399601206475887,-3.8124520636826658,0.17271370449237056,1.8011412560514262
18.196886777877808,-0.8384753465652466,-0.6066592931747437,-2.3732759952545166,-0.035761722781372955,0.00243377685546875,0.06612753868103027,-2.4301391292228693,-3.7196237866147985,0.1945431283603825,0.48813414628342755,-0.017615432342523274,0.7999955120952545,0.0032518771604158384,-2.3061407736363515,-2.5612814809635087,-3.5973564082434013,-3.8488775735974317,0.17271370449237056,1.8011412560514262
18.206850290298462,-0.7936082482337952,-0.5978911519050598,-2.3536815643310547,-0.04340400202207124,0.0023026466369628906,0.06612753868103027,-2.4259718081788932,-3.7157058103332723,0.21454312836038253,0.4856766309846796,-0.026953301466911217,0.7999968584666782,-0.0022759318193817054,-2.239645453404915,-2.6206328050408265,-3.533787826528011,-3.905459746701587,0.17271370449237056,1.8011412560514262
18.216845273971558,-0.7936082482337952,-0.5978911519050598,-2.3536815643310547,-0.04340400202207124,0.0023527145385742188,0.06612753868103027,-2.4211457696711505,-3.711339420921144,0.23454312836038255,0.4854195740103955,-0.0212604672364341,0.7999978009266748,-0.0005384116350823595,-2.136265078341395,-2.715678538016395,-3.4356031597074645,-3.995808460959082,0.17271370449237056,1.8011412560514262
18.22683835029602,-0.7259817719459534,-0.5856013298034668,-2.325551748275757,-0.05429329395385331,0.0025191307067871094,0.06612753868103027,-2.4155983496874622,-3.70649800635745,0.25454312836038256,0.48562764931442504,-0.10130389145836366,0.7999984606486724,-0.0043647466287035945,-1.9750670225363325,-2.867224516805972,-3.2797099942329964,-4.142968847609294,0.17271370449237056,1.8011412560514262
18.23682951927185,-0.7259817719459534,-0.5856013298034668,-2.325551748275757,-0.05429329395385331,0.0022962093353271484,0.06612753868103027,-2.4092677226710513,-3.7011519894040297,0.2745431283603826,0.48537306024594407,-0.09530686623395052,0.7999989224540707,0.02583437056865779,-1.7263984593240465,-3.1047982400508807,-3.030150294460706,-4.382845718254196,0.17271370449237056,1.8011412560514262
18.246835708618164,-0.7259817719459534,-0.5856013298034668,-2.325551748275757,-0.05429329395385331,0.002445697784423828,0.06612753868103027,-2.402093010249047,-3.695268837591378,0.294539237111812,0.4851197007626942,-0.08917412362178773,0.7999992457178495,0.03125039336896373,-1.3396247040840263,-3.4789107412580775,-2.6408314126445913,-4.761472566163471,0.17271370449237056,1.8011412560514262
18.25680160522461,-0.6808861494064331,-0.5777758955955505,-2.3065993785858154,-0.06023543033838566,0.00220489501953125,0.06612753868103027,-2.394010068157769,-3.688818530138203,0.31069272540356874,0.48658939042539107,-0.09943408728686243,0.7999994720024947,0.029784457207985116,-0.7314739636784213,-4.072712056819674,-2.0287138361416015,-5.361823839041157,0.17271370449237056,1.8011412560514262
18.33311891555786,-0.6808861494064331,-0.5777758955955505,-2.3065993785858154,-0.06023543033838566,0.0024940967559814453,0.06811928749084473,-2.384934746181607,-3.6818040363043063,0.3221256240470718,0.4882488319101681,0.00477753179163249,0.7999996304017463,0.03347365992922647,0.23635417533239686,-5.024374311647936,-1.0551037988468253,-6.322533261429583,0.17271370449237056,1.8011412560514262
18.342356204986572,-0.5014448165893555,-0.5499230027198792,-2.232278347015381,-0.07475875260374024,0.0022950172424316406,0.06811928749084473,-2.374792870828311,-3.674241548525013,0.3292941865807951,0.4897558848554081,0.3247285644556866,0.7999997412812224,0.004685395868764554,1.797371150588273,-6.5672406429514885,0.5140686522743223,-7.877676724882938,-2.185620965428445,0.22778436445002792
18.348752737045288,-0.5014448165893555,-0.5499230027198792,-2.232278347015381,-0.07475875260374024,0.0022971630096435547,0.06811928749084473,-2.4380930775554384,-3.7276047510656127,0.14454312836038247,0.48953150570508785,0.33349946166164846,0.7999998188968557,-0.11220921866056663,-2.4018085333268386,-2.4811871604830484,-3.6910385854963046,-3.7714410565958296,-2.185620965428445,0.22778436445002792
18.35672163963318,-0.43468815088272095,-0.5405202507972717,-2.2055470943450928,-0.07740412823833982,0.002435922622680664,0.06811928749084473,-2.4352938643895796,-3.7247108786722927,0.16454312836038248,0.48869554721962183,0.3443667639085061,0.799999873227799,-0.12618108773356876,-2.3803818400345853,-2.4982696480169873,-3.669652967344202,-3.7881646123670567,-2.185620965428445,0.22778436445002792
18.3667414188385,-0.43468815088272095,-0.5405202507972717,-2.2055470943450928,-0.07740412823833982,0.002393960952758789,0.06811928749084473,-2.431995555875238,-3.7214221238083756,0.1845431283603825,0.48847276949556495,0.35287302618084054,0.7999999112594592,-0.13303357341485506,-2.3501625283922225,-2.523341112361184,-3.6399601206475887,-3.8124520636826658,-2.185620965428445,0.22778436445002792
18.376944303512573,-0.36845123767852783,-0.5312926769256592,-2.179151773452759,-0.07929560163259623,0.0022802352905273438,0.06811928749084473,-2.4281338620893056,-3.717719302876705,0.20454312836038252,0.48811718147060734,0.41034674889143563,0.7999999378816215,-0.12350365200153292,-2.3061407736363515,-2.5612814809635087,-3.5973564082434013,-3.8488775735974317,-2.185620965428445,0.22778436445002792
18.386855602264404,-0.36845123767852783,-0.5312926769256592,-2.179151773452759,-0.07929560163259623,0.002421855926513672,0.06811928749084473,-2.423645063490584,-3.713580260935329,0.22454312836038254,0.48789606983682976,0.41858393963236395,0.7999999565171351,-0.1395041410625659,-2.239645453404915,-2.6206328050408265,-3.533787826528011,-3.905459746701587,-0.34338237207981837,-2.1626454462691207
18.39672589302063,-0.36845123767852783,-0.5312926769256592,-2.179151773452759,-0.07929560163259623,0.0022940635681152344,0.06811928749084473,-2.4184661173833457,-3.70897987095906,0.24454312836038256,0.48767579233187086,0.42668546667271084,0.7999999695619945,-0.1455530878467522,-2.136265078341395,-2.715678538016395,-3.4356031597074645,-3.995808460959082,-0.34338237207981837,-2.1626454462691207
18.40682077407837,-0.32496145367622375,-0.5252174735069275,-2.16213059425354,-0.0810482810288001,0.0021724700927734375,0.06811928749084473,-2.4125347654347387,-3.7038900373424717,0.2645431283603826,0.4870666836931019,0.532853130259441,0.7999999786933961,-0.1456812725905251,-1.9750670225363325,-2.867224516805972,-3.2797099942329964,-4.142968847609294,-0.34338237207981837,-2.1626454462691207
18.41676640510559,-0.32496145367622375,-0.5252174735069275,-2.16213059425354,-0.0810482810288001,0.002344369888305664,0.06811928749084473,-2.4057896420493194,-3.6982797037103308,0.2845431283603826,0.48684796677025477,0.5406820644991709,0.7999999850853773,-0.1783963251033041,-1.7263984593240465,-3.1047982400508807,-3.030150294460706,-4.382845718254196,-0.34338237207981837,-2.1626454462691207
18.426836252212524,-0.26086562871932983,-0.5158470869064331,-2.137019395828247,-0.08426217471327159,0.0022249221801757812,0.06811928749084473,-2.398170371128556,-3.692114880355644,0.3032355152773668,0.48889017484041164,0.3226718844938391,0.799999989559764,-0.16342162613179126,-1.3396247040840263,-3.4789107412580775,-2.6408314126445913,-4.761472566163471,-0.34338237207981837,-2.1626454462691207
18.43671154975891,-0.26086562871932983,-0.5158470869064331,-2.137019395828247,-0.08426217471327159,0.002213001251220703,0.06811928749084473,-2.38960143300602,-3.6853809991391073,0.31697016262186894,0.4886735583648735,0.3302277549179141,0.7999999926918349,-0.10419470390271612,-0.7314739636784213,-4.072712056819674,-2.0287138361416015,-5.361823839041157,-0.34338237207981837,-2.1626454462691207
18.446707248687744,-0.26086562871932983,-0.5158470869064331,-2.137019395828247,-0.08426217471327159,0.0022149085998535156,0.06811928749084473,-2.380001201008752,-3.678089938037204,0.326215385715118,0.4884577407708407,0.3376473403933558,0.7999999948842844,-0.0924259799983044,0.23635417533239686,-5.024374311647936,-1.0551037988468253,-6.322533261429583,-0.34338237207981837,-2.1626454462691207
18.52428913116455,-0.05692867189645767,-0.4859454333782196,-2.0537285804748535,-0.09923703191928825,0.0035991668701171875,0.06858682632446289,-2.369302679205777,-3.670262251122184,0.3314152190385627,0.4882691467095054,0.18889689630279535,0.7999999964189991,-0.05903234297158174,1.797371150588273,-6.5672406429514885,0.5140686522743223,-7.877676724882938,-0.34338237207981837,-2.1626454462691207
18.534754276275635,-0.05692867189645767,-0.4859454333782196,-2.0537285804748535,-0.09923703191928825,0.003720998764038086,0.06858682632446289,-2.4367518203767022,-3.726206092165127,0.15454312836038248,0.48807911181404606,0.19818562308492485,0.7999999974932994,-0.031879732969162446,-2.4018085333268386,-2.4811871604830484,-3.6910385854963046,-3.7714410565958296,-4.501144137119943,-2.873872906600982
18.54266858100891,-0.05692867189645767,-0.4859454333782196,-2.0537285804748535,-0.09923703191928825,0.0032579898834228516,0.06858682632446289,-2.433711127299929,-3.723116990920416,0.1745431283603825,0.48788938850947794,0.20747559284282366,0.7999999982453097,-0.02372411434053636,-2.3803818400345853,-2.4982696480169873,-3.669652967344202,-3.7881646123670567,-4.501144137119943,-2.873872906600982
18.550509214401245,-0.05692867189645767,-0.4859454333782196,-2.0537285804748535,-0.09923703191928825,0.0032427310943603516,0.06858682632446289,-2.4301391292228693,-3.7196237866147985,0.1945431283603825,0.48770001513579697,0.2167591715442259,0.7999999987717168,-0.0220182323943234,-2.3501625283922225,-2.523341112361184,-3.6399601206475887,-3.8124520636826658,-4.501144137119943,-2.873872906600982
18.560571670532227,-0.01898999512195587,-0.4804397523403168,-2.037449836730957,-0.10232276077363647,0.0033333301544189453,0.06858682632446289,-2.4259718081788932,-3.7157058103332723,0.21454312836038253,0.4884900253935127,0.0035767566940441975,0.7999999991402018,-0.007641419248988846,-2.3061407736363515,-2.5612814809635087,-3.5973564082434013,-3.8488775735974317,-4.501144137119943,-2.873872906600982
18.56888723373413,-0.01898999512195587,-0.4804397523403168,-2.037449836730957,-0.10232276077363647,0.0034301280975341797,0.06858682632446289,-2.4211457696711505,-3.711339420921144,0.23454312836038255,0.48830165685113125,0.012844930392668374,0.7999999993981413,0.01831541303051903,-2.239645453404915,-2.6206328050408265,-3.533787826528011,-3.905459746701587,-4.501144137119943,-2.873872906600982
18.577741146087646,-0.01898999512195587,-0.4804397523403168,-2.037449836730957,-0.10232276077363647,0.003656148910522461,0.06858682632446289,-2.4155983496874622,-3.70649800635745,0.25454312836038256,0.4881137533581772,0.02208639775496446,0.7999999995786989,0.026206033123515122,-2.136265078341395,-2.715678538016395,-3.4356031597074645,-3.995808460959082,-4.501144137119943,-2.873872906600982
18.589311361312866,0.03746889904141426,-0.47148165106773376,-2.0136990547180176,-0.10668524528519072,0.0063474178314208984,0.06858682632446289,-2.4092677226710513,-3.7011519894040297,0.2745431283603826,0.48801144939592156,-0.018125518027096194,0.7999999997050893,0.03346079237420815,-1.9750670225363325,-2.867224516805972,-3.2797099942329964,-4.142968847609294,3.267824987723346,-1.6992873830297377
18.605758666992188,0.03746889904141426,-0.47148165106773376,-2.0136990547180176,-0.10668524528519072,0.0054950714111328125,0.06858682632446289,-2.402093010249047,-3.695268837591378,0.294539237111812,0.48782594548377156,-0.008850258425093543,0.7999999997935625,0.037909882025948395,-1.7263984593240465,-3.1047982400508807,-3.030150294460706,-4.382845718254196,3.267824987723346,-1.6992873830297377
18.617753267288208,0.07297492772340775,-0.4654514193534851,-1.997417688369751,-0.10945710537294065,0.0034639835357666016,0.06858682632446289,-2.394010068157769,-3.688818530138203,0.31069272540356874,0.4888128452328381,-0.16395560810348714,0.7999999998554937,0.049327101542812196,-1.3396247040840263,-3.4789107412580775,-2.6408314126445913,-4.761472566163471,3.267824987723346,-1.6992873830297377
18.62795877456665,0.12572573125362396,-0.4559876322746277,-1.9734899997711182,-0.11245641043496284,0.0035965442657470703,0.06858682632446289,-2.384934746181607,-3.6818040363043063,0.3221256240470718,0.4887925049068238,-0.22581075295884734,0.7981331966997481,0.05552202630974463,-0.7314739636784213,-4.072712056819674,-2.0287138361416015,-5.361823839041157,3.267824987723346,-1.6992873830297377
18.756782054901123,0.12572573125362396,-0.4559876322746277,-1.9734899997711182,-0.11245641043496284,0.00353240966796875,0.11833643913269043,-2.374792870828311,-3.674241548525013,0.3292941865807951,0.4884072888905837,0.020401682821760123,0.7986932376898237,0.056597694936882055,0.23635417533239686,-5.024374311647936,-1.0551037988468253,-6.322533261429583,3.267824987723346,-1.6992873830297377
18.767648220062256,0.3075648248195648,-0.4218224883079529,-1.875415563583374,-0.11352641800455898,0.003338336944580078,0.11833643913269043,-2.363524372858453,-3.666155952099302,0.33263012539619013,0.4928428803460334,0.46790520285608805,0.5740784146631964,0.04972484139706871,1.797371150588273,-6.5672406429514885,0.5140686522743223,-7.877676724882938,-1.8616703908856067,-0.6656287523781401
18.7774658203125,0.34554344415664673,-0.4136717617511749,-1.8509001731872559,-0.11204017378203601,0.0033843517303466797,0.11833643913269043,-2.4352938643895796,-3.7247108786722927,0.16454312836038248,0.49413857629645097,0.5102006018269396,0.36730203839871073,0.1368473946706516,-2.4018085333268386,-2.4811871604830484,-3.6910385854963046,-3.7714410565958296,-1.8616703908856067,-0.6656287523781401
18.78726601600647,0.34554344415664673,-0.4136717617511749,-1.8509001731872559,-0.11204017378203601,0.0033402442932128906,0.11833643913269043,-2.431995555875238,-3.7214221238083756,0.1845431283603825,0.49396651643292633,0.5208506467245013,0.2433340238682272,0.16580751582899403,-2.3803818400345853,-2.4982696480169873,-3.669652967344202,-3.7881646123670567,-0.47725205539376203,0.510350034779157
18.796937704086304,0.34554344415664673,-0.4136717617511749,-1.8509001731872559,-0.11204017378203601,0.0053136348724365234,0.11833643913269043,-2.4281338620893056,-3.717719302876705,0.20454312836038252,0.49379521198247,0.5313409739980381,0.16898929144106098,0.16548721920076892,-2.3501625283922225,-2.523341112361184,-3.6399601206475887,-3.8124520636826658,-0.47725205539376203,0.510350034779157
18.812022924423218,0.34554344415664673,-0.4136717617511749,-1.8509001731872559,-0.11204017378203601,0.003980398178100586,0.11833643913269043,-2.423645063490584,-3.713580260935329,0.22454312836038254,0.49362464902712355,0.5416683165199921,0.12437380021904458,0.1567945412471573,-2.3061407736363515,-2.5612814809635087,-3.5973564082434013,-3.8488775735974317,-0.47725205539376203,0.510350034779157
18.930920362472534,0.48897585272789,-0.3720496892929077,-1.725016474723816,-0.10093568518017898,0.0036497116088867188,0.10674786567687988,-2.4184661173833457,-3.70897987095906,0.24454312836038256,0.4971607978715191,-0.2155428029384011,-0.20633854800875834,0.26595826416893065,-2.239645453404915,-2.6206328050408265,-3.533787826528011,-3.905459746701587,-0.47725205539376203,0.510350034779157
18.94104766845703,0.48897585272789,-0.3720496892929077,-1.725016474723816,-0.10093568518017898,0.003349781036376953,0.10674786567687988,-2.4125347654347387,-3.7038900373424717,0.2645431283603826,0.49699456388940233,-0.2066021121221011,-0.3844369836061309,0.19258631415654864,-2.136265078341395,-2.715678538016395,-3.4356031597074645,-3.995808460959082,0.18548606598157635,3.1382615357678834
18.949257135391235,0.48897585272789,-0.3720496892929077,-1.725016474723816,-0.10093568518017898,0.003415822982788086,0.10674786567687988,-2.4057896420493194,-3.6982797037103308,0.2845431283603826,0.49682887486629945,-0.19756796266607846,-0.5072491847317425,0.16166393750629238,-1.9750670225363325,-2.867224516805972,-3.2797099942329964,-4.142968847609294,0.18548606598157635,3.1382615357678834
18.95899534225464,0.5075055360794067,-0.36376580595970154,-1.6985121965408325,-0.09614806208836175,0.0036978721618652344,0.10674786567687988,-2.398170371128556,-3.692114880355644,0.3032355152773668,0.49720296676208064,-0.5156451386609797,-0.5950744293122198,0.14336723210158955,-1.7263984593240465,-3.1047982400508807,-3.030150294460706,-4.382845718254196,0.18548606598157635,3.1382615357678834
