time,x,y,z,yaw,ctrl_comp_time,rollout_comptime,y_ref,z_ref,yaw_ref,throttle,roll_rate,pitch_rate,yaw_rate,save_tube_pyH,save_tube_pyL,save_tube_pzH,save_tube_pzL,wy,wz
15.092746496200562,-0.02048419788479805,-2.428469657897949,-3.7290680408477783,-0.012276666476463732,0.15170574188232422,0.1113593578338623,-2.4257663093755704,-3.728109900688974,0.10602795462541076,0.45564588650026494,1.0,0.04761849438144681,0.006135767730006193,-2.394489318787608,-2.457969503624015,-3.6964277017742386,-3.760957787837111,0.2291729737915179,0.25307213537802165
15.690304279327393,-0.013655466958880424,-2.4132094383239746,-3.7261927127838135,-0.013319155501087386,0.20250439643859863,0.07500362396240234,-2.4245898714484166,-3.726680473467112,0.12602795462541075,0.46567698073751274,-0.49171309800458984,0.10129456014654188,-0.06750957691015208,-2.377664905297365,-2.4727801297689425,-3.679372845290736,-3.7755062733405667,1.4467305331899625,-1.008403273522522
15.782235622406006,-0.013655466958880424,-2.4132094383239746,-3.7261927127838135,-0.013319155501087386,0.0023365020751953125,0.06854128837585449,-2.423025430657574,-3.72489016005512,0.14602795462541077,0.46203151691152367,1.0,0.15247145362904935,-0.0856383823412685,-2.353932399062336,-2.4937880418626936,-3.655678201948401,-3.795984222327935,0.16659574261656163,0.2506967745783064
15.790306091308594,-0.00744570093229413,-2.30462646484375,-3.6327719688415527,-0.015548204714420505,0.002317667007446289,0.06854128837585449,-2.4210080018340894,-3.7227252987268726,0.16602795462541078,0.48639417196659873,-1.0,0.22129801096852605,-0.23661152183383127,-2.3196161495310816,-2.5245386265769256,-3.621926486885167,-3.825784547624847,0.16659574261656163,0.2506967745783064
15.797333002090454,-0.00744570093229413,-2.30462646484375,-3.6327719688415527,-0.015548204714420505,0.0030901432037353516,0.06854128837585449,-2.4184729705973744,-3.7201692674904594,0.1860279546254108,0.486164464014596,-1.0,0.27497772442972884,-0.19377728530078464,-2.268324510490199,-2.5712939046905308,-3.5721175060542945,-3.8708771621773015,0.16659574261656163,0.2506967745783064
15.807090759277344,-0.00744570093229413,-2.30462646484375,-3.6327719688415527,-0.015548204714420505,0.0024688243865966797,0.06854128837585449,-2.4153561976539164,-3.717202475645234,0.20602795462541082,0.4859299779038584,-1.0,0.30341102058770686,-0.20034232492888276,-2.189077357940687,-2.6449052202698766,-3.4958314697573205,-3.941645644592492,0.16659574261656163,0.2506967745783064
15.817150354385376,-0.0066983760334551334,-2.290837526321411,-3.6229543685913086,-0.01584950988089781,0.002499103546142578,0.06854128837585449,-2.411594124495842,-3.7138023594473824,0.22602795462541084,0.487272390239618,-1.0,0.3230152990788678,-0.20945055520362288,-2.0643744056759137,-2.7627451351354346,-3.3761007225923456,-4.055015496391193,0.16659574261656163,0.2506967745783064
15.82723879814148,-0.0066983760334551334,-2.290837526321411,-3.6229543685913086,-0.01584950988089781,0.0029425621032714844,0.06854128837585449,-2.40712388030819,-3.709943381967032,0.24602795462541086,0.48703635442410687,-1.0,0.33858039374786336,-0.2213376799712869,-1.8703906921463842,-2.9485121546510857,-3.183855624859591,-4.240008256105311,0.16659574261656163,0.2506967745783064
15.837455034255981,-0.006104069296270609,-2.2760581970214844,-3.6128811836242676,-0.01609584168140213,0.002910137176513672,0.06854128837585449,-2.401883389890309,-3.705597037210363,0.26602795462541085,0.48736505494594873,-1.0,0.3474575472661636,-0.22630817960479688,-1.5690937731669556,-3.2401137498946153,-2.8805615912469915,-4.535104464554358,0.16659574261656163,0.2506967745783064
15.847430944442749,-0.006104069296270609,-2.2760581970214844,-3.6128811836242676,-0.01609584168140213,0.0028693675994873047,0.06854128837585449,-2.3958114823938543,-3.7007318585704594,0.28602795462541086,0.4871308778198602,-1.0,0.35471526399681985,-0.23200219528632243,-1.0966524836128069,-3.701257812670849,-2.4048427905000604,-5.001619977733829,-0.4772560344992315,-0.254787597565141
15.857465267181396,-0.006104069296270609,-2.2760581970214844,-3.6128811836242676,-0.01609584168140213,0.005455493927001953,0.06854128837585449,-2.388848000677361,-3.6953134316608987,0.3053141911782949,0.4868948464130143,-1.0,0.3609617687357094,-0.23754438791880117,-0.3478124076887508,-4.437077403385188,-1.651097183097296,-5.7450909504119725,-0.4772560344992315,-0.254787597565141
15.87326717376709,-0.006104069296270609,-2.2760581970214844,-3.6128811836242676,-0.01609584168140213,0.005117893218994141,0.06854128837585449,-2.380924215824524,-3.6893181843691925,0.32012631256526086,0.48665729760671617,-1.0,0.36647846766671544,-0.2426007513359006,0.8537656693782345,-5.623788340341037,-0.44252153755441104,-6.942254325361655,-0.4772560344992315,-0.254787597565141
15.891411066055298,-0.004511489067226648,-2.2256877422332764,-3.58174467086792,-0.017892433604140084,0.002956390380859375,0.06854128837585449,-2.4272177205684096,-3.729927453187001,0.06602795462541078,0.4876992273112226,-1.0,0.3583811569659692,-0.22674385154244078,-2.4151891361376205,-2.439689999663527,-3.717674989343334,-3.7426626234770404,-0.4772560344992315,-0.254787597565141
16.031651973724365,-0.004511489067226648,-2.2256877422332764,-3.58174467086792,-0.017892433604140084,0.0024852752685546875,0.13046026229858398,-2.426622065159143,-3.7291913450321656,0.08602795462541077,0.48003659872634796,-0.143084603512589,0.3499805309445163,-0.2170687466113279,-2.406562498794607,-2.4473333990651693,-3.70881111220311,-3.7503924986121016,-0.4772560344992315,-0.254787597565141
16.041675806045532,-0.002565337112173438,-2.065155506134033,-3.499648094177246,-0.029153256565277653,0.002318859100341797,0.13046026229858398,-2.4257692189859443,-3.7281130073149904,0.10602795462541076,0.4835845224772769,-0.5863387968199529,0.3055550102195746,-0.20052597646285078,-2.39449144807162,-2.457972317198373,-3.6964299486867187,-3.760960796834537,-0.3308729921509772,-0.43962793809964734
16.048112154006958,-0.002565337112173438,-2.065155506134033,-3.499648094177246,-0.029153256565277653,0.0023648738861083984,0.13046026229858398,-2.4245937585762225,-3.7266846579973887,0.12602795462541075,0.4836680001004078,-0.49887586259415295,0.27213609320305265,-0.16452611648868967,-2.3776679230378632,-2.472783875298762,-3.6793759878730223,-3.7755103816853173,-0.3308729921509772,-0.43962793809964734
16.057340621948242,-0.002565337112173438,-2.065155506134033,-3.499648094177246,-0.029153256565277653,0.0044367313385009766,0.13046026229858398,-2.42303042770583,-3.7248955836818904,0.14602795462541077,0.48375029585783635,-0.4128265743679571,0.24128990252438753,-0.14088013780618613,-2.3539365545437345,-2.4937927378203266,-3.6556824040644407,-3.7959895879996473,-0.3308729921509772,-0.43962793809964734
16.179146766662598,-0.002565337112173438,-2.065155506134033,-3.499648094177246,-0.029153256565277653,0.0028090476989746094,0.10707855224609375,-2.4210142383358684,-3.7227321232423596,0.16602795462541078,0.47635886125727134,-0.23788148305765577,0.2146664093119649,-0.12234788023725654,-2.319621811936715,-2.524544165688576,-3.621931909114463,-3.825791333008424,-0.3308729921509772,-0.43962793809964734
16.189679622650146,-0.010970430448651314,-1.8730195760726929,-3.41780161857605,-0.05026318206267224,0.002265453338623047,0.10707855224609375,-2.4184805733198935,-3.720177655369221,0.1860279546254108,0.4772710767457361,-0.6756914630690227,0.09586985655562262,-0.09059038327828546,-2.2683322842383524,-2.5712999388126976,-3.572124318157893,-3.870885521757347,-1.4521637351312076,0.6686635975543322
16.19699454307556,-0.010970430448651314,-1.8730195760726929,-3.41780161857605,-0.05026318206267224,0.002355337142944336,0.10707855224609375,-2.415365290698651,-3.717212590130972,0.20602795462541082,0.47714473580405103,-0.6173328513020571,0.0008554572182675824,-0.0578915320961849,-2.1890883255242963,-2.6449109177537506,-3.495839954116928,-3.941655621683282,-1.4521637351312076,0.6686635975543322
16.20738172531128,-0.010970430448651314,-1.8730195760726929,-3.41780161857605,-0.05026318206267224,0.0045604705810546875,0.10707855224609375,-2.4116048293950985,-3.713814364644467,0.22602795462541084,0.47701696708003105,-0.5600160661936981,-0.07596456028581876,-0.01681868064720888,-2.064390620062493,-2.7627486886235495,-3.3761116727734093,-4.055026624751858,-1.4521637351312076,0.6686635975543322
16.220593690872192,-0.010970430448651314,-1.8730195760726929,-3.41780161857605,-0.05026318206267224,0.004239082336425781,0.10707855224609375,-2.4071363161185677,-3.709957442937024,0.24602795462541086,0.4768876094514032,-0.5037467622688783,-0.14027120817685337,0.022101363927193918,-1.8704159062845769,-2.9485100517606933,-3.1838756394428933,-4.240014266296223,-1.4521637351312076,0.6686635975543322
16.236779928207397,-0.01759614236652851,-1.806472659111023,-3.390620470046997,-0.057901172323847824,0.00464320182800293,0.10707855224609375,-2.4018976732834902,-3.705613320073825,0.26602795462541085,0.4774706730277276,-0.4069373664263808,-0.2309251496735254,0.0473616837027464,-1.569134799930271,-3.24009941345809,-2.880597829582768,-4.535098528381266,-1.4521637351312076,0.6686635975543322
16.356065273284912,-0.01759614236652851,-1.806472659111023,-3.390620470046997,-0.057901172323847824,0.0026450157165527344,0.1078946590423584,-2.395827727745159,-3.7007505306143704,0.28602795462541086,0.4711466400298905,-0.20855124473606426,-0.3034207696400935,0.08709555873534561,-1.0967227296464577,-3.701218067068085,-2.404908695518271,-5.001588985646737,-1.4521637351312076,0.6686635975543322
16.366528272628784,-0.04399845749139786,-1.6361514329910278,-3.3195979595184326,-0.07231020556223808,0.002391338348388672,0.1078946590423584,-2.4036374736108383,-3.711201739697026,0.1708612012415492,0.47415637240871844,-0.031706557919962935,-0.4271238820442667,0.11090380869465832,-2.3941503324277065,-2.4162229218503635,-3.702219952692399,-3.7245142246688467,-1.0336668969271177,0.5813606087260401
16.37312936782837,-0.04399845749139786,-1.6361514329910278,-3.3195979595184326,-0.07231020556223808,0.0024492740631103516,0.1078946590423584,-2.4001537104249757,-3.7066014891465797,0.1908612012415492,0.4738712813899313,0.0021598824932952954,-0.5251733702424769,0.16605440128347881,-2.3823764413792934,-2.421548734348415,-3.68916964711344,-3.7287250206666505,-1.0336668969271177,0.5813606087260401
16.380234718322754,-0.04399845749139786,-1.6361514329910278,-3.3195979595184326,-0.07231020556223808,0.0025124549865722656,0.1078946590423584,-2.3961011092384505,-3.7016250380411186,0.21086120124154922,0.4735856333831605,0.03536162906345572,-0.6073270386883834,0.21522782357018064,-2.3663805845470005,-2.4300246445040856,-3.6721309821645227,-3.736192298084672,-1.0336668969271177,0.5813606087260401
16.38713526725769,-0.04399845749139786,-1.6361514329910278,-3.3195979595184326,-0.07231020556223808,0.0025713443756103516,0.1078946590423584,-2.391414304987596,-3.6962496615079568,0.23086120124154924,0.47329942110732726,0.06790304485592183,-0.6651289270818684,0.25834764743626354,-2.344675341843488,-2.4430067434343714,-3.649795654411328,-3.7481818466308723,-1.0336668969271177,0.5813606087260401
16.397087335586548,-0.05189191922545433,-1.5980628728866577,-3.3033607006073,-0.07325028361904155,0.0029244422912597656,0.1078946590423584,-2.3860286077413693,-3.6904496962684274,0.25086120124154926,0.47352945073025166,0.1863831279686497,-0.7055902489573079,0.2885255267689465,-2.314805508360221,-2.4628201555083913,-3.619988516885889,-3.7668204255869586,-1.0336668969271177,0.5813606087260401
16.407161712646484,-0.05189191922545433,-1.5980628728866577,-3.3033607006073,-0.07325028361904155,0.0028481483459472656,0.1078946590423584,-2.3798801055110403,-3.6841965407879798,0.2708612012415493,0.4732324331497183,0.2175769057380201,-0.7339131742701156,0.32369876189196845,-2.2726036294691223,-2.493503707580172,-3.5789993903853503,-3.7957639487998356,-1.0336668969271177,0.5813606087260401
16.41706657409668,-0.05767643451690674,-1.5730953216552734,-3.292538642883301,-0.07361204355409134,0.0027077198028564453,0.1078946590423584,-2.3729057682036947,-3.677458659497269,0.2908612012415493,0.4732676659391204,0.23737684058113573,-0.7537392219890809,0.34294185975158126,-2.210911400646932,-2.542088735974828,-3.520405668204036,-3.8413748843011755,-1.0336668969271177,0.5813606087260401
16.427302598953247,-0.05767643451690674,-1.5730953216552734,-3.292538642883301,-0.07361204355409134,0.0029044151306152344,0.1078946590423584,-2.365041676197186,-3.6702036463501044,0.30855952974514544,0.4729633751271435,0.2672696789501262,-0.7676174553923567,0.3581011450439798,-2.117718743871747,-2.620460218999953,-3.433214740010682,-3.9145798429996335,-1.0336668969271177,0.5813606087260401
16.56106996536255,-0.05767643451690674,-1.5730953216552734,-3.292538642883301,-0.07361204355409134,0.002484560012817383,0.12417268753051758,-2.3562039613347623,-3.6624240631674865,0.32135313034923124,0.4681762646020282,0.12648381220545346,-0.7773322187746498,0.37137378752934624,-1.9747112707766217,-2.7467891378199303,-3.2999493433818254,-4.032808104145548,-1.0336668969271177,0.5813606087260401
16.571831941604614,-0.10816042125225067,-1.3822189569473267,-3.203404188156128,-0.05229005989764104,0.002908468246459961,0.12417268753051758,-2.3463077249066875,-3.6541344935652353,0.3297061315743338,0.475242453752165,-0.41514103092906807,-0.7457575613172026,0.34183042130672076,-1.7571536489703685,-2.945632043717208,-3.086789530719751,-4.2298939971544565,1.242705765901139,-0.8541713572301892
16.58017921447754,-0.10816042125225067,-1.3822189569473267,-3.203404188156128,-0.05229005989764104,0.0030426979064941406,0.12417268753051758,-2.3352835590694805,-3.6453585268880366,0.33405934653066394,0.47492584345222244,-0.39486850998796064,-0.7252620264892204,0.26702944034954823,-1.4238525787706573,-3.2580282122964763,-2.7520813594222036,-4.547529611226487,1.242705765901139,-0.8541713572301892
16.58778166770935,-0.10816042125225067,-1.3822189569473267,-3.203404188156128,-0.05229005989764104,0.002484560012817383,0.12417268753051758,-2.323076514866661,-3.6361285610538765,0.33482977776500633,0.4746092552042398,-0.37484028423281773,-0.7012067588600422,0.24274913461304387,-0.9066954757740744,-3.7519661058191427,-2.2326430067514944,-5.048952875723061,1.242705765901139,-0.8541713572301892
16.597054719924927,-0.11454961448907852,-1.3596980571746826,-3.1912550926208496,-0.04727829727947849,0.0027284622192382812,0.12417268753051758,-2.4019625878638546,-3.708947333890045,0.1808612012415492,0.4751952205341702,-0.42391082234172195,-0.6598354723518217,0.23780298108166498,-2.3941503324277065,-2.4162229218503635,-3.702219952692399,-3.7245142246688467,1.242705765901139,-0.8541713572301892
16.607130765914917,-0.11454961448907852,-1.3596980571746826,-3.1912550926208496,-0.04727829727947849,0.0026912689208984375,0.12417268753051758,-2.3982026145255433,-3.7041616401245974,0.20086120124154921,0.474883402111156,-0.404421499195612,-0.6289910127804539,0.221058094945384,-2.3823764413792934,-2.421548734348415,-3.68916964711344,-3.7287250206666505,1.242705765901139,-0.8541713572301892
16.61710834503174,-0.12384887039661407,-1.3265304565429688,-3.1727209091186523,-0.03919554428934594,0.0028696060180664062,0.12417268753051758,-2.39384104263893,-3.6989887505211003,0.22086120124154923,0.47624352200415154,-0.4823298849965175,-0.5669149458883971,0.22282350141327564,-2.3663805845470005,-2.4300246445040856,-3.6721309821645227,-3.736192298084672,1.242705765901139,-0.8541713572301892
16.712265491485596,-0.12384887039661407,-1.3265304565429688,-3.1727209091186523,-0.03919554428934594,0.003078937530517578,0.08448481559753418,-2.388812831934306,-3.693404471236424,0.24086120124154925,0.47188797695400864,-0.12006100391678243,-0.5230023220811891,0.20098795180113246,-2.344675341843488,-2.4430067434343714,-3.649795654411328,-3.7481818466308723,1.242705765901139,-0.8541713572301892
16.724690198898315,-0.1507132351398468,-1.2233928442001343,-3.107738733291626,-0.012725687686620142,0.0026998519897460938,0.08448481559753418,-2.383053668524647,-3.6873816695925927,0.26086120124154927,0.47828140534134744,0.21936990284690316,-0.37217554227827493,0.23228864200105,-2.314805508360221,-2.4628201555083913,-3.619988516885889,-3.7668204255869586,-0.03830223856914006,0.03325124402196111
16.732178211212158,-0.1507132351398468,-1.2233928442001343,-3.107738733291626,-0.012725687686620142,0.0027523040771484375,0.08448481559753418,-2.3765000683108797,-3.6808902762526055,0.2808612012415493,0.47796041438017944,0.23275547247625017,-0.2642089550227265,0.19532345450074556,-2.2726036294691223,-2.493503707580172,-3.5789993903853503,-3.7957639487998356,-0.03830223856914006,0.03325124402196111
16.74172353744507,-0.15720680356025696,-1.1941192150115967,-3.0869297981262207,-0.006274914435112307,0.0027680397033691406,0.08448481559753418,-2.3690894814358496,-3.6738972915051575,0.3003533534810279,0.4796735584596318,0.4613035391244341,-0.13947323541230094,0.16003554295372097,-2.210911400646932,-2.542088735974828,-3.520405668204036,-3.8413748843011755,-0.03830223856914006,0.03325124402196111
16.750936031341553,-0.15720680356025696,-1.1941192150115967,-3.0869297981262207,-0.006274914435112307,0.0028400421142578125,0.08448481559753418,-2.3607502042982755,-3.6663787237636867,0.31553987504846065,0.47934189345870104,0.47397195167588546,-0.04102419214882359,0.10699442367217843,-2.117718743871747,-2.620460218999953,-3.433214740010682,-3.9145798429996335,-0.8451104813044503,0.6230162177941486
16.759013652801514,-0.15720680356025696,-1.1941192150115967,-3.0869297981262207,-0.006274914435112307,0.002786397933959961,0.08448481559753418,-2.3513928463437876,-3.6583417639371034,0.32605660091915123,0.47901049261456985,0.48633816718138934,0.03689098649949582,0.062026868904618226,-1.9747112707766217,-2.7467891378199303,-3.2999493433818254,-4.032808104145548,-0.8451104813044503,0.6230162177941486
16.76855206489563,-0.16086064279079437,-1.1750644445419312,-3.072871446609497,-0.002309404472232171,0.002901792526245117,0.08448481559753418,-2.340940395533566,-3.6498054853243453,0.33235608839954284,0.4797460123299456,0.5862975241666776,0.12972123680444647,0.022639641938876985,-1.7571536489703685,-2.945632043717208,-3.086789530719751,-4.2298939971544565,-0.8451104813044503,0.6230162177941486
16.777150869369507,-0.16086064279079437,-1.1750644445419312,-3.072871446609497,-0.002309404472232171,0.003028392791748047,0.08448481559753418,-2.329330790796608,-3.6407979412372775,0.33486728351741535,0.47940755867428364,0.5980430916111049,0.20325125363268806,-0.01705337843813398,-1.4238525787706573,-3.2580282122964763,-2.7520813594222036,-4.547529611226487,-0.8451104813044503,0.6230162177941486
16.787474632263184,-0.16396909952163696,-1.1561517715454102,-3.058643341064453,0.0012740664997132056,0.0028388500213623047,0.08448481559753418,-2.316515980678278,-3.6313556976894206,0.33399521154606915,0.47981068124970827,0.6473281855583217,0.28877819161192525,-0.053629494588181836,-0.9066954757740744,-3.7519661058191427,-2.2326430067514944,-5.048952875723061,-0.8451104813044503,0.6230162177941486
16.797470569610596,-0.16396909952163696,-1.1561517715454102,-3.058643341064453,0.0012740664997132056,0.0052073001861572266,0.08448481559753418,-2.4001537104249757,-3.7066014891465797,0.1908612012415492,0.47946761817451333,0.6585128966786427,0.3559341087928159,-0.08722837282120957,-2.3941503324277065,-2.4162229218503635,-3.702219952692399,-3.7245142246688467,-0.8451104813044503,0.6230162177941486
16.90864062309265,-0.16396909952163696,-1.1561517715454102,-3.058643341064453,0.0012740664997132056,0.0027556419372558594,0.09696269035339355,-2.3961011092384505,-3.7016250380411186,0.21086120124154922,0.47353504900348653,0.32606013082146124,0.4077222926834259,-0.11429337887952196,-2.3823764413792934,-2.421548734348415,-3.68916964711344,-3.7287250206666505,-0.8451104813044503,0.6230162177941486
16.919609308242798,-0.17305833101272583,-1.037804365158081,-2.966705083847046,-0.00033609003491828077,0.002444744110107422,0.09696269035339355,-2.391414304987596,-3.6962496615079568,0.23086120124154924,0.47850968871507904,-0.11608805271965339,0.5067274241165087,-0.12031799157446472,-2.3663805845470005,-2.4300246445040856,-3.6721309821645227,-3.736192298084672,1.2370758412046927,-1.4571364152551793
16.927024841308594,-0.17305833101272583,-1.037804365158081,-2.966705083847046,-0.00033609003491828077,0.0025568008422851562,0.09696269035339355,-2.3860286077413693,-3.6904496962684274,0.25086120124154926,0.4782259510030257,-0.10806597168591059,0.5783462164610705,-0.10598658516512044,-2.344675341843488,-2.4430067434343714,-3.649795654411328,-3.7481818466308723,1.2370758412046927,-1.4571364152551793
16.937596797943115,-0.17260324954986572,-1.0205409526824951,-2.9521286487579346,-0.002755075681845416,0.00507807731628418,0.09696269035339355,-2.3798801055110403,-3.6841965407879798,0.2708612012415493,0.4787593794338675,-0.13391848279452828,0.6362701490730173,-0.11226593706228853,-2.314805508360221,-2.4628201555083913,-3.619988516885889,-3.7668204255869586,1.2370758412046927,-1.4571364152551793
16.951883792877197,-0.17260324954986572,-1.0205409526824951,-2.9521286487579346,-0.002755075681845416,0.002825021743774414,0.09696269035339355,-2.3729057682036947,-3.677458659497269,0.2908612012415493,0.4784893080578235,-0.12573375470841508,0.6790953465695593,-0.12387464738360475,-2.2726036294691223,-2.493503707580172,-3.5789993903853503,-3.7957639487998356,1.2370758412046927,-1.4571364152551793
16.962890625,-0.17260324954986572,-1.0205409526824951,-2.9521286487579346,-0.002755075681845416,0.00530242919921875,0.09696269035339355,-2.365041676197186,-3.6702036463501044,0.30855952974514544,0.4782185018100973,-0.1174777990628672,0.7113462533125885,-0.13764669525263407,-2.210911400646932,-2.542088735974828,-3.520405668204036,-3.8413748843011755,-1.37014047452502,-1.316260058133698
16.976340532302856,-0.1707729995250702,-0.995051920413971,-2.929663896560669,-0.005921771904711957,0.0028769969940185547,0.09696269035339355,-2.3562039613347623,-3.6624240631674865,0.32135313034923124,0.4808161165495425,-0.4109984808050322,0.737942377318812,-0.139515566103465,-2.117718743871747,-2.620460218999953,-3.433214740010682,-3.9145798429996335,-1.37014047452502,-1.316260058133698
17.073288679122925,-0.1707729995250702,-0.995051920413971,-2.929663896560669,-0.005921771904711957,0.0034248828887939453,0.08531832695007324,-2.3463077249066875,-3.6541344935652353,0.3297061315743338,0.4784434188677473,-0.03603072228062887,0.7565596641231684,-0.12630024068181697,-1.9747112707766217,-2.7467891378199303,-3.2999493433818254,-4.032808104145548,-1.37014047452502,-1.316260058133698
17.085771322250366,-0.15198349952697754,-0.891906201839447,-2.82631516456604,-0.018381998769298708,0.0028007030487060547,0.08531832695007324,-2.3352835590694805,-3.6453585268880366,0.33405934653066394,0.4835677530337733,-0.0587934534070019,0.741729201255794,-0.13601976141041972,-1.7571536489703685,-2.945632043717208,-3.086789530719751,-4.2298939971544565,1.6240557984867914,1.1888562962370974
17.093690872192383,-0.15198349952697754,-0.891906201839447,-2.82631516456604,-0.018381998769298708,0.0029458999633789062,0.08531832695007324,-2.323076514866661,-3.6361285610538765,0.33482977776500633,0.48329729959338563,-0.047773627277669636,0.7318871454932177,-0.13574781175857092,-1.4238525787706573,-3.2580282122964763,-2.7520813594222036,-4.547529611226487,1.6240557984867914,1.1888562962370974
17.101701736450195,-0.15198349952697754,-0.891906201839447,-2.82631516456604,-0.018381998769298708,0.0028057098388671875,0.08531832695007324,-2.309645240811105,-3.6264851056931358,0.33241047807942103,0.483027323010928,-0.03696353387328867,0.7247874682142804,-0.13429129142286148,-0.9066954757740744,-3.7519661058191427,-2.2326430067514944,-5.048952875723061,1.6240557984867914,1.1888562962370974
17.10953116416931,-0.15198349952697754,-0.891906201839447,-2.82631516456604,-0.018381998769298708,0.0028858184814453125,0.08531832695007324,-2.3982026145255433,-3.7041616401245974,0.20086120124154921,0.4827578255839574,-0.026359455579763033,0.7195935219248198,-0.132754651756396,-2.3941503324277065,-2.4162229218503635,-3.702219952692399,-3.7245142246688467,1.6240557984867914,1.1888562962370974
17.119438409805298,-0.14606671035289764,-0.870006799697876,-2.801530599594116,-0.0221655949307552,0.0028951168060302734,0.08531832695007324,-2.39384104263893,-3.6989887505211003,0.22086120124154923,0.4849239800250076,0.09959983562569316,0.6867166209000704,-0.13741030633870235,-2.3823764413792934,-2.421548734348415,-3.68916964711344,-3.7287250206666505,1.6240557984867914,1.1888562962370974
17.127450942993164,-0.14606671035289764,-0.870006799697876,-2.801530599594116,-0.0221655949307552,0.002994537353515625,0.08531832695007324,-2.388812831934306,-3.693404471236424,0.24086120124154925,0.48464760920994,0.10960368576110313,0.6635717251066594,-0.13395053611238059,-2.3663805845470005,-2.4300246445040856,-3.6721309821645227,-3.736192298084672,1.6240557984867914,1.1888562962370974
17.138267755508423,-0.14187896251678467,-0.8560242652893066,-2.7850112915039062,-0.02497149308111849,0.003015279769897461,0.08531832695007324,-2.383053668524647,-3.6873816695925927,0.26086120124154927,0.4846878597433486,0.2824150884297455,0.6287941874816715,-0.13399993791189196,-2.344675341843488,-2.4430067434343714,-3.649795654411328,-3.7481818466308723,1.6240557984867914,1.1888562962370974
17.14802861213684,-0.14187896251678467,-0.8560242652893066,-2.7850112915039062,-0.02497149308111849,0.0028078556060791016,0.08531832695007324,-2.3765000683108797,-3.6808902762526055,0.2808612012415493,0.4844082292384613,0.29198357952270315,0.6035593253054605,-0.12831383285818904,-2.314805508360221,-2.4628201555083913,-3.619988516885889,-3.7668204255869586,0.1969853543753226,0.018585205951045403
17.157499313354492,-0.14187896251678467,-0.8560242652893066,-2.7850112915039062,-0.02497149308111849,0.005502939224243164,0.08531832695007324,-2.3690894814358496,-3.6738972915051575,0.3003533534810279,0.4841291246404056,0.30136374627903034,0.585085342621383,-0.12220774213710296,-2.2726036294691223,-2.493503707580172,-3.5789993903853503,-3.7957639487998356,0.1969853543753226,0.018585205951045403
17.26703453063965,-0.14187896251678467,-0.8560242652893066,-2.7850112915039062,-0.02497149308111849,0.0028433799743652344,0.09085607528686523,-2.3607502042982755,-3.6663787237636867,0.31553987504846065,0.4799145119857715,0.17323948364269853,0.5716500493842038,-0.11679617214213744,-2.210911400646932,-2.542088735974828,-3.520405668204036,-3.8413748843011755,0.1969853543753226,0.018585205951045403
17.278244018554688,-0.11488627642393112,-0.7673441767692566,-2.6760218143463135,-0.05183293480474065,0.0029096603393554688,0.09085607528686523,-2.3513928463437876,-3.6583417639371034,0.32605660091915123,0.4862513223157974,0.11127576222152698,0.4205925611058266,-0.10563462876318233,-2.117718743871747,-2.620460218999953,-3.433214740010682,-3.9145798429996335,-0.10538608973435382,-0.43904254482747496
17.28810977935791,-0.11123565584421158,-0.7542741894721985,-2.6590373516082764,-0.05667748304855663,0.0026378631591796875,0.09085607528686523,-2.340940395533566,-3.6498054853243453,0.33235608839954284,0.4864643947594345,0.1032353911130896,0.30868688494354524,-0.07523905718098177,-1.9747112707766217,-2.7467891378199303,-3.2999493433818254,-4.032808104145548,-0.10538608973435382,-0.43904254482747496
17.29729390144348,-0.11123565584421158,-0.7542741894721985,-2.6590373516082764,-0.05667748304855663,0.0031480789184570312,0.09085607528686523,-2.329330790796608,-3.6407979412372775,0.33486728351741535,0.4861998171544042,0.1096462746725205,0.22825232551393113,-0.04321146762133884,-1.7571536489703685,-2.945632043717208,-3.086789530719751,-4.2298939971544565,-0.10538608973435382,-0.43904254482747496
17.307037830352783,-0.11123565584421158,-0.7542741894721985,-2.6590373516082764,-0.05667748304855663,0.0026390552520751953,0.09085607528686523,-2.316515980678278,-3.6313556976894206,0.33399521154606915,0.48593570065708847,0.11606069882827813,0.16971374654086,-0.015549743431361918,-1.4238525787706573,-3.2580282122964763,-2.7520813594222036,-4.547529611226487,-0.10538608973435382,-0.43904254482747496
17.31715965270996,-0.10616198927164078,-0.7349478602409363,-2.6340794563293457,-0.06399662738398974,0.004029989242553711,0.09085607528686523,-2.302461130138235,-3.6215229437864385,0.3301209921872223,0.4875996269065571,0.12403022492380596,0.07680675969952934,0.008649485109222671,-0.9066954757740744,-3.7519661058191427,-2.2326430067514944,-5.048952875723061,-0.10538608973435382,-0.43904254482747496
17.327095985412598,-0.10616198927164078,-0.7349478602409363,-2.6340794563293457,-0.06399662738398974,0.002900362014770508,0.09085607528686523,-2.3961011092384505,-3.7016250380411186,0.21086120124154922,0.4873448208170609,0.13046198727061328,0.010657822163562071,0.033075983568747004,-2.3941503324277065,-2.4162229218503635,-3.702219952692399,-3.7245142246688467,-0.10538608973435382,-0.43904254482747496
17.3372905254364,-0.10353381931781769,-0.7224318385124207,-2.6170461177825928,-0.06885181030602322,0.002808094024658203,0.09085607528686523,-2.391414304987596,-3.6962496615079568,0.23086120124154924,0.48806214296674355,0.13932650030813776,-0.06680464200501983,0.056248739512860954,-2.3823764413792934,-2.421548734348415,-3.68916964711344,-3.7287250206666505,-0.10538608973435382,-0.43904254482747496
17.3470356464386,-0.10353381931781769,-0.7224318385124207,-2.6170461177825928,-0.06885181030602322,0.0030961036682128906,0.09085607528686523,-2.3860286077413693,-3.6904496962684274,0.25086120124154926,0.4878126356450233,0.14577937558465842,-0.12220950435199522,0.07714522174535411,-2.3663805845470005,-2.4300246445040856,-3.6721309821645227,-3.736192298084672,-1.1342052857534517,-0.2486407306212914
17.47916865348816,-0.10353381931781769,-0.7224318385124207,-2.6170461177825928,-0.06885181030602322,0.002568960189819336,0.12173748016357422,-2.3798801055110403,-3.6841965407879798,0.2708612012415493,0.483236311997848,0.1834045275330703,-0.16194280071466363,0.09401766818833296,-2.344675341843488,-2.4430067434343714,-3.649795654411328,-3.7481818466308723,-1.1342052857534517,-0.2486407306212914
17.48941445350647,-0.0910627692937851,-0.6338484883308411,-2.4912378787994385,-0.09469402549825237,0.006036281585693359,0.12173748016357422,-2.3729057682036947,-3.677458659497269,0.2908612012415493,0.486686379372563,-0.5773171466001772,-0.26103792499851675,0.12161009355933129,-2.314805508360221,-2.4628201555083913,-3.619988516885889,-3.7668204255869586,-1.3509242834403008,-0.44187169254903647
17.50421643257141,-0.0910627692937851,-0.6338484883308411,-2.4912378787994385,-0.09469402549825237,0.005448579788208008,0.12173748016357422,-2.365041676197186,-3.6702036463501044,0.30855952974514544,0.48645383360155414,-0.5691958115472576,-0.33069833573412094,0.10216015029891981,-2.2726036294691223,-2.493503707580172,-3.5789993903853503,-3.7957639487998356,-1.3509242834403008,-0.44187169254903647
17.51881694793701,-0.0910627692937851,-0.6338484883308411,-2.4912378787994385,-0.09469402549825237,0.0054323673248291016,0.12173748016357422,-2.3562039613347623,-3.6624240631674865,0.32135313034923124,0.4862216885859384,-0.5610758990569831,-0.37592377022390583,0.10791222400656941,-2.210911400646932,-2.542088735974828,-3.520405668204036,-3.8413748843011755,-1.3509242834403008,-0.44187169254903647
17.534916639328003,-0.09101370722055435,-0.6050531268119812,-2.4492239952087402,-0.09907321344972939,0.005769252777099609,0.12173748016357422,-2.3463077249066875,-3.6541344935652353,0.3297061315743338,0.4880688641306845,-0.8493632211163704,-0.4222076807474182,0.11238971470395988,-2.117718743871747,-2.620460218999953,-3.433214740010682,-3.9145798429996335,-1.3509242834403008,-0.44187169254903647
17.54997992515564,-0.09101370722055435,-0.6050531268119812,-2.4492239952087402,-0.09907321344972939,0.005655050277709961,0.12173748016357422,-2.3352835590694805,-3.6453585268880366,0.33405934653066394,0.4878437408131283,-0.8411399932281587,-0.4549203906408682,0.10879515734630131,-1.9747112707766217,-2.7467891378199303,-3.2999493433818254,-4.032808104145548,-1.3509242834403008,-0.44187169254903647
17.68036675453186,-0.09101370722055435,-0.6050531268119812,-2.4492239952087402,-0.09907321344972939,0.003450632095336914,0.11146903038024902,-2.323076514866661,-3.6361285610538765,0.33482977776500633,0.48486640086250776,-0.2836537730193205,-0.47598154537016374,0.11534759276941317,-1.7571536489703685,-2.945632043717208,-3.086789530719751,-4.2298939971544565,-1.0959111838487203,0.2831572101777796
17.689826488494873,-0.10225947946310043,-0.5223622918128967,-2.3148653507232666,-0.09498669528671201,0.003238201141357422,0.11146903038024902,-2.309645240811105,-3.6264851056931358,0.33241047807942103,0.4903131169420485,0.5974731083354307,-0.43341213193556827,0.17141182265462002,-1.4238525787706573,-3.2580282122964763,-2.7520813594222036,-4.547529611226487,-1.0959111838487203,0.2831572101777796
17.69809341430664,-0.10225947946310043,-0.5223622918128967,-2.3148653507232666,-0.09498669528671201,0.0035810470581054688,0.11146903038024902,-2.294961245758582,-3.6164757330847457,0.327170704064464,0.4900710856787156,0.600723774940829,-0.41068936587555893,0.17652496842617407,-0.9066954757740744,-3.7519661058191427,-2.2326430067514944,-5.048952875723061,-1.0959111838487203,0.2831572101777796
17.707051038742065,-0.10225947946310043,-0.5223622918128967,-2.3148653507232666,-0.09498669528671201,0.003336191177368164,0.11146903038024902,-2.39384104263893,-3.6989887505211003,0.22086120124154923,0.4898289723122856,0.603705519179133,-0.39547102062910583,0.17857790920448668,-2.3941503324277065,-2.4162229218503635,-3.702219952692399,-3.7245142246688467,-1.0959111838487203,0.2831572101777796
17.717087268829346,-0.10452541708946228,-0.5132062435150146,-2.298407793045044,-0.0931945759390945,0.003289461135864258,0.11146903038024902,-2.388812831934306,-3.693404471236424,0.24086120124154925,0.4899590211169871,0.860668443182028,-0.3738603232766631,0.1821462511170617,-2.3823764413792934,-2.421548734348415,-3.68916964711344,-3.7287250206666505,-1.0959111838487203,0.2831572101777796
17.72718071937561,-0.10452541708946228,-0.5132062435150146,-2.298407793045044,-0.0931945759390945,0.0035181045532226562,0.11146903038024902,-2.383053668524647,-3.6873816695925927,0.26086120124154927,0.48971129782431944,0.8629485603908389,-0.35875838519809955,0.17895545703502935,-2.3663805845470005,-2.4300246445040856,-3.6721309821645227,-3.736192298084672,-1.0959111838487203,0.2831572101777796
17.737308025360107,-0.10815831273794174,-0.4999368190765381,-2.273796558380127,-0.09012742285283108,0.0033936500549316406,0.11146903038024902,-2.3765000683108797,-3.6808902762526055,0.2808612012415493,0.49065947526490594,1.0,-0.3266258488374778,0.17386535352648344,-2.344675341843488,-2.4430067434343714,-3.649795654411328,-3.7481818466308723,-1.0959111838487203,0.2831572101777796
17.832977056503296,-0.10815831273794174,-0.4999368190765381,-2.273796558380127,-0.09012742285283108,0.003638029098510742,0.08374404907226562,-2.3690894814358496,-3.6738972915051575,0.3003533534810279,0.48465991978249356,0.48307363745539766,-0.3049731454031536,0.16822114143180164,-2.314805508360221,-2.4628201555083913,-3.619988516885889,-3.7668204255869586,1.3893396306231,0.6652667373542225
17.843265533447266,-0.11901267617940903,-0.4552428722381592,-2.1937081813812256,-0.08082566182844562,0.0028905868530273438,0.08374404907226562,-2.3607502042982755,-3.6663787237636867,0.31553987504846065,0.48682172869368523,0.031379131937107396,-0.20187074792115153,0.14840546384230993,-2.2726036294691223,-2.493503707580172,-3.5789993903853503,-3.7957639487998356,1.3893396306231,0.6652667373542225
17.85298991203308,-0.11901267617940903,-0.4552428722381592,-2.1937081813812256,-0.08082566182844562,0.002969503402709961,0.08374404907226562,-2.3513928463437876,-3.6583417639371034,0.32605660091915123,0.48657090378231915,0.027922455455996364,-0.13534554384354686,0.1508348562552116,-2.210911400646932,-2.542088735974828,-3.520405668204036,-3.8413748843011755,1.3973546923164413,-1.089729456995859
17.861782550811768,-0.11901267617940903,-0.4552428722381592,-2.1937081813812256,-0.08082566182844562,0.003158092498779297,0.08374404907226562,-2.340940395533566,-3.6498054853243453,0.33235608839954284,0.4863209604648492,0.0248283191140386,-0.09125954897811836,0.14269370353787517,-2.117718743871747,-2.620460218999953,-3.433214740010682,-3.9145798429996335,1.3973546923164413,-1.089729456995859
17.871716737747192,-0.12164131551980972,-0.44223281741142273,-2.1701130867004395,-0.07824402427098362,0.0032148361206054688,0.08374404907226562,-2.329330790796608,-3.6407979412372775,0.33486728351741535,0.488184884392762,-0.323217991426681,-0.041670207502322656,0.13075639118305477,-1.9747112707766217,-2.7467891378199303,-3.2999493433818254,-4.032808104145548,1.3973546923164413,-1.089729456995859
17.880538940429688,-0.12164131551980972,-0.44223281741142273,-2.1701130867004395,-0.07824402427098362,0.0031003952026367188,0.08374404907226562,-2.316515980678278,-3.6313556976894206,0.33399521154606915,0.48793748231684697,-0.3256196763953184,-0.009091930943324347,0.1230734699657937,-1.7571536489703685,-2.945632043717208,-3.086789530719751,-4.2298939971544565,1.3973546923164413,-1.089729456995859
17.889047861099243,-0.12164131551980972,-0.44223281741142273,-2.1701130867004395,-0.07824402427098362,0.003181934356689453,0.08374404907226562,-2.302461130138235,-3.6215229437864385,0.3301209921872223,0.487691208710579,-0.32769143350059793,0.01260357810219126,0.11380395184272438,-1.4238525787706573,-3.2580282122964763,-2.7520813594222036,-4.547529611226487,1.3973546923164413,-1.089729456995859
17.898971557617188,-0.12341886013746262,-0.43349939584732056,-2.153965473175049,-0.07656437645387305,0.003092527389526367,0.08374404907226562,-2.2871439274180294,-3.6113503132877365,0.3236021157224019,0.4889636442490116,-0.48559529307479377,0.03972924273426489,0.1083221169098842,-0.9066954757740744,-3.7519661058191427,-2.2326430067514944,-5.048952875723061,1.3973546923164413,-1.089729456995859
17.907463550567627,-0.12341886013746262,-0.43349939584732056,-2.153965473175049,-0.07656437645387305,0.0030591487884521484,0.08374404907226562,-2.391414304987596,-3.6962496615079568,0.23086120124154924,0.48872019461966987,-0.48703962820465385,0.05742976788820393,0.1014495581851245,-2.3941503324277065,-2.4162229218503635,-3.702219952692399,-3.7245142246688467,1.3973546923164413,-1.089729456995859
17.999316930770874,-0.12893952429294586,-0.39285823702812195,-2.066588878631592,-0.06510984309944687,0.0025937557220458984,0.08059573173522949,-2.3860286077413693,-3.6904496962684274,0.25086120124154926,0.48926263029894623,0.13665473320246524,0.13357168756479937,0.10863085686870162,-2.3823764413792934,-2.421548734348415,-3.68916964711344,-3.7287250206666505,1.3973546923164413,-1.089729456995859
18.007973670959473,-0.12893952429294586,-0.39285823702812195,-2.066588878631592,-0.06510984309944687,0.0023376941680908203,0.08059573173522949,-2.3798801055110403,-3.6841965407879798,0.2708612012415493,0.4890322351183237,0.13477344541006342,0.18223820040995978,0.08497524711092373,-2.3663805845470005,-2.4300246445040856,-3.6721309821645227,-3.736192298084672,-0.3370770269273653,-0.788156419637466
18.017361164093018,-0.12902016937732697,-0.38643789291381836,-2.0508387088775635,-0.06295078537786386,0.0025339126586914062,0.08059573173522949,-2.3729057682036947,-3.677458659497269,0.2908612012415493,0.48958677092938563,0.1504115880798434,0.21699909838863785,0.0692452933067811,-2.344675341843488,-2.4430067434343714,-3.649795654411328,-3.7481818466308723,-0.3370770269273653,-0.788156419637466
18.027193069458008,-0.12902016937732697,-0.38643789291381836,-2.0508387088775635,-0.06295078537786386,0.0024149417877197266,0.08059573173522949,-2.365041676197186,-3.6702036463501044,0.30855952974514544,0.4893577263985214,0.14835984652655615,0.23999610676567473,0.05913983362818626,-2.314805508360221,-2.4628201555083913,-3.619988516885889,-3.7668204255869586,-0.3370770269273653,-0.788156419637466
18.037276029586792,-0.1286310851573944,-0.37670567631721497,-2.026996374130249,-0.05976565534536969,0.0022842884063720703,0.08059573173522949,-2.3562039613347623,-3.6624240631674865,0.32135313034923124,0.49010187084406287,0.16545768466976118,0.25321685410766065,0.05091423460996176,-2.2726036294691223,-2.493503707580172,-3.5789993903853503,-3.7957639487998356,-0.3370770269273653,-0.788156419637466
18.047001838684082,-0.1286310851573944,-0.37670567631721497,-2.026996374130249,-0.05976565534536969,0.0023376941680908203,0.08059573173522949,-2.3463077249066875,-3.6541344935652353,0.3297061315743338,0.4898743545205009,0.1632718301252437,0.26198866175863544,0.04603147657844359,-2.210911400646932,-2.542088735974828,-3.520405668204036,-3.8413748843011755,1.419665664281635,-0.06738444620386241
18.057188272476196,-0.1286310851573944,-0.37670567631721497,-2.026996374130249,-0.05976565534536969,0.002277374267578125,0.08059573173522949,-2.3352835590694805,-3.6453585268880366,0.33405934653066394,0.48964753942045547,0.16103160815843376,0.2677981052101473,0.04301207717157712,-2.117718743871747,-2.620460218999953,-3.433214740010682,-3.9145798429996335,1.419665664281635,-0.06738444620386241
18.0671648979187,-0.12814921140670776,-0.37018337845802307,-2.0109987258911133,-0.057962414100916584,0.0022118091583251953,0.08059573173522949,-2.323076514866661,-3.6361285610538765,0.33482977776500633,0.49008721183817106,0.1256147619838619,0.2736006195337952,0.040588633451394365,-1.9747112707766217,-2.7467891378199303,-3.2999493433818254,-4.032808104145548,1.419665664281635,-0.06738444620386241
18.077155828475952,-0.12814921140670776,-0.37018337845802307,-2.0109987258911133,-0.057962414100916584,0.0022652149200439453,0.08059573173522949,-2.309645240811105,-3.6264851056931358,0.33241047807942103,0.4898620280354017,0.12328936277662678,0.27739516527493,0.03875339377087207,-1.7571536489703685,-2.945632043717208,-3.086789530719751,-4.2298939971544565,1.419665664281635,-0.06738444620386241
18.087112426757812,-0.1273954063653946,-0.3636308014392853,-1.9950556755065918,-0.05629419869113803,0.0023794174194335938,0.08059573173522949,-2.294961245758582,-3.6164757330847457,0.327170704064464,0.4892508011697101,0.06453001311570263,0.2829254373751417,0.03767101064805196,-1.4238525787706573,-3.2580282122964763,-2.7520813594222036,-4.547529611226487,1.419665664281635,-0.06738444620386241
18.097167015075684,-0.1273954063653946,-0.3636308014392853,-1.9950556755065918,-0.05629419869113803,0.0022644996643066406,0.08059573173522949,-2.279008238120646,-3.6061537974869786,0.31945629969884354,0.48902711481197314,0.06214850058063881,0.28652890317886603,0.03622447593050352,-0.9066954757740744,-3.7519661058191427,-2.2326430067514944,-5.048952875723061,1.419665664281635,-0.06738444620386241
18.179450035095215,-0.1273954063653946,-0.3636308014392853,-1.9950556755065918,-0.05629419869113803,0.002399444580078125,0.07319927215576172,-2.388812831934306,-3.693404471236424,0.24086120124154925,0.48685306520058436,0.03994981161553446,0.28873025285525955,0.03518285584628538,-2.3941503324277065,-2.4162229218503635,-3.702219952692399,-3.7245142246688467,1.419665664281635,-0.06738444620386241
18.189448833465576,-0.12232623249292374,-0.332366406917572,-1.9159244298934937,-0.04918598791533203,0.002211332321166992,0.07319927215576172,-2.383053668524647,-3.6873816695925927,0.26086120124154927,0.49000996794849916,-0.07052882065810961,0.2554817573996299,0.029745251300627808,-2.3823764413792934,-2.421548734348415,-3.68916964711344,-3.7287250206666505,2.026605805809142,-1.3098572758605782
18.196985960006714,-0.12232623249292374,-0.332366406917572,-1.9159244298934937,-0.04918598791533203,0.002232074737548828,0.07319927215576172,-2.3765000683108797,-3.6808902762526055,0.2808612012415493,0.48979458405684195,-0.07334382103821573,0.23469617562865697,0.027576212801176607,-2.3663805845470005,-2.4300246445040856,-3.6721309821645227,-3.736192298084672,2.026605805809142,-1.3098572758605782
18.207253217697144,-0.12232623249292374,-0.332366406917572,-1.9159244298934937,-0.04918598791533203,0.002425670623779297,0.07319927215576172,-2.3690894814358496,-3.6738972915051575,0.3003533534810279,0.4895802662020313,-0.07610161561936371,0.22147482874524893,0.028714499415120144,-2.344675341843488,-2.4430067434343714,-3.649795654411328,-3.7481818466308723,2.026605805809142,-1.3098572758605782
18.21705722808838,-0.12012048810720444,-0.32404235005378723,-1.8923084735870361,-0.04683426717118687,0.0021800994873046875,0.07319927215576172,-2.3607502042982755,-3.6663787237636867,0.31553987504846065,0.4900988967570372,-0.05520279802346384,0.2044313706046166,0.028034987148570462,-2.314805508360221,-2.4628201555083913,-3.619988516885889,-3.7668204255869586,2.026605805809142,-1.3098572758605782
18.227195024490356,-0.12012048810720444,-0.32404235005378723,-1.8923084735870361,-0.04683426717118687,0.0022246837615966797,0.07319927215576172,-2.3513928463437876,-3.6583417639371034,0.32605660091915123,0.48988689224949444,-0.057837975804129735,0.19361156623467757,0.029888551326397273,-2.2726036294691223,-2.493503707580172,-3.5789993903853503,-3.7957639487998356,2.026605805809142,-1.3098572758605782
18.237270832061768,-0.1172989085316658,-0.3160184919834137,-1.8685431480407715,-0.04416667666949508,0.0023949146270751953,0.07319927215576172,-2.340940395533566,-3.6498054853243453,0.33235608839954284,0.4912545182587603,-0.07193231553341112,0.18453049039640632,0.030251172699853196,-2.210911400646932,-2.542088735974828,-3.520405668204036,-3.8413748843011755,2.026605805809142,-1.3098572758605782
18.247154712677002,-0.1172989085316658,-0.3160184919834137,-1.8685431480407715,-0.04416667666949508,0.0024139881134033203,0.07319927215576172,-2.329330790796608,-3.6407979412372775,0.33486728351741535,0.4910450329353253,-0.07443554456877235,0.17877915781868028,0.031267938942105854,-2.117718743871747,-2.620460218999953,-3.433214740010682,-3.9145798429996335,-0.49518622458531114,0.6705972047804314
18.25713849067688,-0.1172989085316658,-0.3160184919834137,-1.8685431480407715,-0.04416667666949508,0.002085447311401367,0.07319927215576172,-2.316515980678278,-3.6313556976894206,0.33399521154606915,0.49083665649008856,-0.07686986897111153,0.17507504087835618,0.03232138941200191,-1.9747112707766217,-2.7467891378199303,-3.2999493433818254,-4.032808104145548,-0.49518622458531114,0.6705972047804314
18.26713728904724,-0.11541290581226349,-0.31092017889022827,-1.8527286052703857,-0.04189965727010801,0.0021958351135253906,0.07319927215576172,-2.302461130138235,-3.6215229437864385,0.3301209921872223,0.4910474667237086,0.06260360573089319,0.15513765602803056,0.028317203082501102,-1.7571536489703685,-2.945632043717208,-3.086789530719751,-4.2298939971544565,-0.49518622458531114,0.6705972047804314
18.27715826034546,-0.11541290581226349,-0.31092017889022827,-1.8527286052703857,-0.04189965727010801,0.0022211074829101562,0.07319927215576172,-2.2871439274180294,-3.6113503132877365,0.3236021157224019,0.490841414144618,0.06031188990783007,0.14261365457600425,0.030543680354721683,-1.4238525787706573,-3.2580282122964763,-2.7520813594222036,-4.547529611226487,-0.49518622458531114,0.6705972047804314
18.28698968887329,-0.11360419541597366,-0.3061050772666931,-1.8372081518173218,-0.03950004250287177,0.002372264862060547,0.07319927215576172,-2.2705539446671112,-3.6008935261738992,0.3147729196616832,0.49112731845337343,0.15967427977933552,0.13310141348837795,0.03028697948932329,-0.9066954757740744,-3.7519661058191427,-2.2326430067514944,-5.048952875723061,-0.49518622458531114,0.6705972047804314
18.369262218475342,-0.11360419541597366,-0.3061050772666931,-1.8372081518173218,-0.03950004250287177,0.003088712692260742,0.07338476181030273,-2.3860286077413693,-3.6904496962684274,0.25086120124154926,0.48825081337734966,0.11679085360534791,0.12696154879564328,0.031911273479275394,-2.3941503324277065,-2.4162229218503635,-3.702219952692399,-3.7245142246688467,-0.49518622458531114,0.6705972047804314
18.379070520401,-0.10570742189884186,-0.28898686170578003,-1.7762205600738525,-0.030742922562372613,0.0021817684173583984,0.07338476181030273,-2.3798801055110403,-3.6841965407879798,0.2708612012415493,0.48909685845783235,0.32040242278516085,0.10433190064456092,0.02551646281446035,-2.3823764413792934,-2.421548734348415,-3.68916964711344,-3.7287250206666505,-0.6862734436144367,0.3280887698672408
18.386999368667603,-0.1035914346575737,-0.284959077835083,-1.7611284255981445,-0.028932159783914883,0.002200603485107422,0.07338476181030273,-2.3729057682036947,-3.677458659497269,0.2908612012415493,0.4906690772396751,0.38153140703137767,0.07454067961637627,0.027093888777425527,-2.3663805845470005,-2.4300246445040856,-3.6721309821645227,-3.736192298084672,-0.6862734436144367,0.3280887698672408
18.39707589149475,-0.1035914346575737,-0.284959077835083,-1.7611284255981445,-0.028932159783914883,0.0025110244750976562,0.07338476181030273,-2.365041676197186,-3.6702036463501044,0.30855952974514544,0.4904744816902289,0.38022555399377933,0.05584079522686505,0.02964863991710002,-2.344675341843488,-2.4430067434343714,-3.649795654411328,-3.7481818466308723,-0.6862734436144367,0.3280887698672408
18.407166004180908,-0.1035914346575737,-0.284959077835083,-1.7611284255981445,-0.028932159783914883,0.002562284469604492,0.07338476181030273,-2.3562039613347623,-3.6624240631674865,0.32135313034923124,0.4902811821349685,0.3790137887252629,0.04404767937387795,0.031170268311558873,-2.314805508360221,-2.4628201555083913,-3.619988516885889,-3.7668204255869586,-0.6862734436144367,0.3280887698672408
18.41713285446167,-0.09939511120319366,-0.2772569954395294,-1.731223225593567,-0.025569777228147524,0.002109050750732422,0.07338476181030273,-2.3463077249066875,-3.6541344935652353,0.3297061315743338,0.4912370015006271,0.39119052995368375,0.028363398054076012,0.03123819294802359,-2.2726036294691223,-2.493503707580172,-3.5789993903853503,-3.7957639487998356,-0.6862734436144367,0.3280887698672408
18.42709183692932,-0.09939511120319366,-0.2772569954395294,-1.731223225593567,-0.025569777228147524,0.0025568008422851562,0.07338476181030273,-2.3352835590694805,-3.6453585268880366,0.33405934653066394,0.4910465003513128,0.3901622162883251,0.018588598666983487,0.03150189852442463,-2.210911400646932,-2.542088735974828,-3.520405668204036,-3.8413748843011755,-0.6862734436144367,0.3280887698672408
18.43726420402527,-0.09722647070884705,-0.2735951840877533,-1.7162474393844604,-0.023683758731479314,0.0022013187408447266,0.07338476181030273,-2.323076514866661,-3.6361285610538765,0.33482977776500633,0.49053945920395436,0.325277869586471,0.00158117895663302,0.03226652553718701,-2.117718743871747,-2.620460218999953,-3.433214740010682,-3.9145798429996335,-0.6862734436144367,0.3280887698672408
18.447153329849243,-0.09722647070884705,-0.2735951840877533,-1.7162474393844604,-0.023683758731479314,0.0021512508392333984,0.07338476181030273,-2.309645240811105,-3.6264851056931358,0.33241047807942103,0.49035146916910355,0.3244262867847563,-0.009038384773618369,0.032234487545126485,-1.9747112707766217,-2.7467891378199303,-3.2999493433818254,-4.032808104145548,0.8892962818469912,-1.115435629395517
18.45715641975403,-0.09722647070884705,-0.2735951840877533,-1.7162474393844604,-0.023683758731479314,0.0021255016326904297,0.07338476181030273,-2.294961245758582,-3.6164757330847457,0.327170704064464,0.4901647579969389,0.3236604123094309,-0.0156909475389716,0.032398690068133826,-1.7571536489703685,-2.945632043717208,-3.086789530719751,-4.2298939971544565,0.8892962818469912,-1.115435629395517
18.467183828353882,-0.09438291937112808,-0.2683500647544861,-1.6939139366149902,-0.020465356842648642,0.002245664596557617,0.07338476181030273,-2.279008238120646,-3.6061537974869786,0.31945629969884354,0.49115792339450814,0.08618650599000223,-0.028375590373958193,0.03142402428854265,-1.4238525787706573,-3.2580282122964763,-2.7520813594222036,-4.547529611226487,0.8892962818469912,-1.115435629395517
18.4771466255188,-0.09438291937112808,-0.2683500647544861,-1.6939139366149902,-0.020465356842648642,0.002164602279663086,0.07338476181030273,-2.26178149789519,-3.5955770209708042,0.30959025256660616,0.4909739667977543,0.0855865074968192,-0.0362026323098547,0.03002925449267179,-0.9066954757740744,-3.7519661058191427,-2.2326430067514944,-5.048952875723061,0.8892962818469912,-1.115435629395517
18.55084204673767,-0.09438291937112808,-0.2683500647544861,-1.6939139366149902,-0.020465356842648642,0.0024623870849609375,0.06570768356323242,-2.383053668524647,-3.6873816695925927,0.26086120124154927,0.48902398962464244,0.09922174099907202,-0.0410914317075214,0.02981089711072558,-2.3941503324277065,-2.4162229218503635,-3.702219952692399,-3.7245142246688467,0.8892962818469912,-1.115435629395517
18.560264587402344,-0.08510772138834,-0.25202926993370056,-1.6182008981704712,-0.004782243100066452,0.0023190975189208984,0.06570768356323242,-2.3765000683108797,-3.6808902762526055,0.2808612012415493,0.4929537271724955,-0.07274879209145405,-0.04165485590955516,0.019696154115937597,-2.3823764413792934,-2.421548734348415,-3.68916964711344,-3.7287250206666505,2.7379761038917154,1.628087553299301
18.56699824333191,-0.08510772138834,-0.25202926993370056,-1.6182008981704712,-0.004782243100066452,0.002319812774658203,0.06570768356323242,-2.3690894814358496,-3.6738972915051575,0.3003533534810279,0.4927764487682835,-0.07354288065658521,-0.04197683676676613,0.014851884964019312,-2.3663805845470005,-2.4300246445040856,-3.6721309821645227,-3.736192298084672,2.7379761038917154,1.628087553299301
18.57716989517212,-0.08510772138834,-0.25202926993370056,-1.6182008981704712,-0.004782243100066452,0.002376556396484375,0.06570768356323242,-2.3607502042982755,-3.6663787237636867,0.31553987504846065,0.49260042527994596,-0.07425831810760097,-0.04205868977956409,0.012479042438969397,-2.344675341843488,-2.4430067434343714,-3.649795654411328,-3.7481818466308723,2.7379761038917154,1.628087553299301
18.58721089363098,-0.08329298347234726,-0.2489856332540512,-1.6031379699707031,-0.0008867724403353737,0.0024383068084716797,0.06570768356323242,-2.3513928463437876,-3.6583417639371034,0.32605660091915123,0.49233963219717214,-0.028273186775830322,-0.04608695398704941,0.008714692548312161,-2.314805508360221,-2.4628201555083913,-3.619988516885889,-3.7668204255869586,2.7379761038917154,1.628087553299301
18.59721350669861,-0.08329298347234726,-0.2489856332540512,-1.6031379699707031,-0.0008867724403353737,0.002391815185546875,0.06570768356323242,-2.340940395533566,-3.6498054853243453,0.33235608839954284,0.4921660864755708,-0.028836358333457143,-0.04847015264141671,0.007124231943430475,-2.2726036294691223,-2.493503707580172,-3.5789993903853503,-3.7957639487998356,2.7379761038917154,1.628087553299301
18.60722541809082,-0.08329298347234726,-0.2489856332540512,-1.6031379699707031,-0.0008867724403353737,0.002340078353881836,0.06570768356323242,-2.329330790796608,-3.6407979412372775,0.33486728351741535,0.4919937773683506,-0.029325983861399202,-0.04991042653876362,0.006478802188775097,-2.210911400646932,-2.542088735974828,-3.520405668204036,-3.8413748843011755,2.7379761038917154,1.628087553299301
18.617391109466553,-0.08106882125139236,-0.2448258250951767,-1.5803698301315308,0.0051414775638920305,0.002640247344970703,0.06570768356323242,-2.316515980678278,-3.6313556976894206,0.33399521154606915,0.4940413567587457,0.010585546603740281,-0.048991477050836015,0.0025865107014441504,-2.117718743871747,-2.620460218999953,-3.433214740010682,-3.9145798429996335,2.7379761038917154,1.628087553299301
18.62717890739441,-0.08106882125139236,-0.2448258250951767,-1.5803698301315308,0.0051414775638920305,0.0024094581604003906,0.06570768356323242,-2.302461130138235,-3.6215229437864385,0.3301209921872223,0.49387186444224607,0.010237699612243634,-0.04834617967540789,0.00046272738451552176,-1.9747112707766217,-2.7467891378199303,-3.2999493433818254,-4.032808104145548,2.7379761038917154,1.628087553299301
18.637123346328735,-0.07883443683385849,-0.24085339903831482,-1.5576101541519165,0.011547390298814363,0.0023376941680908203,0.06570768356323242,-2.2871439274180294,-3.6113503132877365,0.3236021157224019,0.4943756128084905,-0.056355170360875506,-0.06415781552145385,-0.004750618797073879,-1.7571536489703685,-2.945632043717208,-3.086789530719751,-4.2298939971544565,2.7379761038917154,1.628087553299301
18.646989583969116,-0.07883443683385849,-0.24085339903831482,-1.5576101541519165,0.011547390298814363,0.0023870468139648438,0.06570768356323242,-2.2705539446671112,-3.6008935261738992,0.3147729196616832,0.494208645785677,-0.05656846294672785,-0.07376087170008122,-0.0068444484368994744,-1.4238525787706573,-3.2580282122964763,-2.7520813594222036,-4.547529611226487,2.320167662292352,1.9823595236064162
18.657201290130615,-0.07883443683385849,-0.24085339903831482,-1.5576101541519165,0.011547390298814363,0.0024154186248779297,0.06570768356323242,-2.2526920124354533,-3.5902119385523394,0.30394521206453207,0.49404287432090954,-0.0567172256350624,-0.07960862692548168,-0.0073027982341542985,-0.9066954757740744,-3.7519661058191427,-2.2326430067514944,-5.048952875723061,2.320167662292352,1.9823595236064162
18.736446380615234,-0.07883443683385849,-0.24085339903831482,-1.5576101541519165,0.011547390298814363,0.0028221607208251953,0.07076525688171387,-2.3798801055110403,-3.6841965407879798,0.2708612012415493,0.49081219652117203,-0.04146936094153336,-0.08326049813399465,-0.007178474478476459,-2.3941503324277065,-2.4162229218503635,-3.702219952692399,-3.7245142246688467,2.320167662292352,1.9823595236064162
18.74541664123535,-0.07417530566453934,-0.22822172939777374,-1.4885385036468506,0.031195005565621395,0.0025920867919921875,0.07076525688171387,-2.3729057682036947,-3.677458659497269,0.2908612012415493,0.49343477702909333,-0.14375092119355493,-0.09012749384769152,-0.019869028285206723,-2.3823764413792934,-2.421548734348415,-3.68916964711344,-3.7287250206666505,2.320167662292352,1.9823595236064162
18.753893613815308,-0.07417530566453934,-0.22822172939777374,-1.4885385036468506,0.031195005565621395,0.0024175643920898438,0.07076525688171387,-2.365041676197186,-3.6702036463501044,0.30855952974514544,0.4932827910658184,-0.14245788517740793,-0.09408461958996733,-0.025557323041477176,-2.3663805845470005,-2.4300246445040856,-3.6721309821645227,-3.736192298084672,0.3558322004229699,1.1500679346890363
18.76076602935791,-0.07417530566453934,-0.22822172939777374,-1.4885385036468506,0.031195005565621395,0.002450704574584961,0.07076525688171387,-2.3562039613347623,-3.6624240631674865,0.32135313034923124,0.49313144281987054,-0.14120712057002344,-0.09633817803271946,-0.028042680613079577,-2.344675341843488,-2.4430067434343714,-3.649795654411328,-3.7481818466308723,0.3558322004229699,1.1500679346890363
18.768237113952637,-0.07323403656482697,-0.22406700253486633,-1.4656797647476196,0.0384902905389007,0.0022895336151123047,0.07076525688171387,-2.3463077249066875,-3.6541344935652353,0.3297061315743338,0.49432530043957223,-0.0214774312505854,-0.1039200672858047,-0.033600864454703394,-2.314805508360221,-2.4628201555083913,-3.619988516885889,-3.7668204255869586,0.3558322004229699,1.1500679346890363
18.777134895324707,-0.07323403656482697,-0.22406700253486633,-1.4656797647476196,0.0384902905389007,0.002552032470703125,0.07076525688171387,-2.3352835590694805,-3.6453585268880366,0.33405934653066394,0.4941754404659007,-0.020307128880292395,-0.10827165532574384,-0.03621160194808825,-2.2726036294691223,-2.493503707580172,-3.5789993903853503,-3.7957639487998356,0.3558322004229699,1.1500679346890363
